{
    "type": "FeatureCollection",
    "features": [
        {
            "type": "Feature",
            "properties": {
                "類別": "其它",
                "電腦編號": "EPA00001",
                "村里別": "明德里",
                "地址": "中壢區8鄰衡陽街85號",
                "地下層數位址": "1",
                "可容納人數": "253.0"
            },
            "geometry": {
                "type": "Point",
                "coordinates": [
                    121.229665,
                    24.949396
                ]
            }
        },
        {
            "type": "Feature",
            "properties": {
                "類別": "公寓",
                "電腦編號": "EPA00002",
                "村里別": "普強里",
                "地址": "中壢區利民路42號",
                "地下層數位址": "1",
                "可容納人數": "981.0"
            },
            "geometry": {
                "type": "Point",
                "coordinates": [
                    121.238302,
                    24.951018
                ]
            }
        },
        {
            "type": "Feature",
            "properties": {
                "類別": "大樓",
                "電腦編號": "EPA00007",
                "村里別": "仁義里",
                "地址": "中壢區中華路二段330號",
                "地下層數位址": "1、2",
                "可容納人數": "4730.0"
            },
            "geometry": {
                "type": "Point",
                "coordinates": [
                    121.235821,
                    24.964538
                ]
            }
        },
        {
            "type": "Feature",
            "properties": {
                "類別": "教育機構",
                "電腦編號": "EPA00009",
                "村里別": "明德里",
                "地址": "中壢區21鄰廣州路25號",
                "地下層數位址": "1",
                "可容納人數": "1597.0"
            },
            "geometry": {
                "type": "Point",
                "coordinates": [
                    121.229659,
                    24.949915
                ]
            }
        },
        {
            "type": "Feature",
            "properties": {
                "類別": "公寓",
                "電腦編號": "EPA00010",
                "村里別": "龍昌里",
                "地址": "中壢區27鄰龍昌路232號",
                "地下層數位址": "1",
                "可容納人數": "560.0"
            },
            "geometry": {
                "type": "Point",
                "coordinates": [
                    121.249358,
                    24.936451
                ]
            }
        },
        {
            "type": "Feature",
            "properties": {
                "類別": "公寓",
                "電腦編號": "EPA00011",
                "村里別": "龍昌里",
                "地址": "中壢區8鄰龍昌路254號",
                "地下層數位址": "1",
                "可容納人數": "693.0"
            },
            "geometry": {
                "type": "Point",
                "coordinates": [
                    121.249341,
                    24.935919
                ]
            }
        },
        {
            "type": "Feature",
            "properties": {
                "類別": "公寓",
                "電腦編號": "EPA00014",
                "村里別": "龍興里",
                "地址": "中壢區13鄰龍岡路二段407號",
                "地下層數位址": "1",
                "可容納人數": "800.0"
            },
            "geometry": {
                "type": "Point",
                "coordinates": [
                    121.230847,
                    24.940335
                ]
            }
        },
        {
            "type": "Feature",
            "properties": {
                "類別": "其它",
                "電腦編號": "EPA00016",
                "村里別": "龍東里",
                "地址": "中壢區1鄰龍東路445巷309號",
                "地下層數位址": "1",
                "可容納人數": "266.0"
            },
            "geometry": {
                "type": "Point",
                "coordinates": [
                    121.249626,
                    24.934812
                ]
            }
        },
        {
            "type": "Feature",
            "properties": {
                "類別": "大樓",
                "電腦編號": "EPA00017",
                "村里別": "龍昌里",
                "地址": "中壢區27鄰龍昌路238巷50號",
                "地下層數位址": "1",
                "可容納人數": "1120.0"
            },
            "geometry": {
                "type": "Point",
                "coordinates": [
                    121.24768,
                    24.936385
                ]
            }
        },
        {
            "type": "Feature",
            "properties": {
                "類別": "其它",
                "電腦編號": "EPA00020",
                "村里別": "普強里",
                "地址": "中壢區國泰街131號",
                "地下層數位址": "1",
                "可容納人數": "240.0"
            },
            "geometry": {
                "type": "Point",
                "coordinates": [
                    121.237438,
                    24.949995
                ]
            }
        },
        {
            "type": "Feature",
            "properties": {
                "類別": "大樓",
                "電腦編號": "EPA00021",
                "村里別": "明德里",
                "地址": "中壢區內江路18號",
                "地下層數位址": "1",
                "可容納人數": "5202.0"
            },
            "geometry": {
                "type": "Point",
                "coordinates": [
                    121.232449,
                    24.947576
                ]
            }
        },
        {
            "type": "Feature",
            "properties": {
                "類別": "大樓",
                "電腦編號": "EPA00022",
                "村里別": "中興里",
                "地址": "中壢區6鄰永福路780號",
                "地下層數位址": "1、2",
                "可容納人數": "1093.0"
            },
            "geometry": {
                "type": "Point",
                "coordinates": [
                    121.255591,
                    24.961497
                ]
            }
        },
        {
            "type": "Feature",
            "properties": {
                "類別": "大樓",
                "電腦編號": "EPA00025",
                "村里別": "普仁里",
                "地址": "中壢區新中北路36號",
                "地下層數位址": "1",
                "可容納人數": "1533.0"
            },
            "geometry": {
                "type": "Point",
                "coordinates": [
                    121.235912,
                    24.956596
                ]
            }
        },
        {
            "type": "Feature",
            "properties": {
                "類別": "其它",
                "電腦編號": "EPA00029",
                "村里別": "普義里",
                "地址": "中壢區17鄰四維路16號",
                "地下層數位址": "1",
                "可容納人數": "194.0"
            },
            "geometry": {
                "type": "Point",
                "coordinates": [
                    121.230177,
                    24.959126
                ]
            }
        },
        {
            "type": "Feature",
            "properties": {
                "類別": "大樓",
                "電腦編號": "EPA00031",
                "村里別": "明德里",
                "地址": "中壢區惠州街80號",
                "地下層數位址": "1",
                "可容納人數": "1272.0"
            },
            "geometry": {
                "type": "Point",
                "coordinates": [
                    121.232259,
                    24.946947
                ]
            }
        },
        {
            "type": "Feature",
            "properties": {
                "類別": "其它",
                "電腦編號": "EPA00034",
                "村里別": "仁義里",
                "地址": "中壢區10鄰延平路24號",
                "地下層數位址": "1",
                "可容納人數": "213.0"
            },
            "geometry": {
                "type": "Point",
                "coordinates": [
                    121.232906,
                    24.963792
                ]
            }
        },
        {
            "type": "Feature",
            "properties": {
                "類別": "其它",
                "電腦編號": "EPA00035",
                "村里別": "仁義里",
                "地址": "中壢區10鄰延平路22號",
                "地下層數位址": "1",
                "可容納人數": "210.0"
            },
            "geometry": {
                "type": "Point",
                "coordinates": [
                    121.232949,
                    24.963747
                ]
            }
        },
        {
            "type": "Feature",
            "properties": {
                "類別": "其它",
                "電腦編號": "EPA00037",
                "村里別": "龍興里",
                "地址": "中壢區20鄰龍岡路三段133號",
                "地下層數位址": "1",
                "可容納人數": "37.0"
            },
            "geometry": {
                "type": "Point",
                "coordinates": [
                    121.232902,
                    24.936909
                ]
            }
        },
        {
            "type": "Feature",
            "properties": {
                "類別": "其它",
                "電腦編號": "EPA00038",
                "村里別": "信義里",
                "地址": "中壢區福州路125號",
                "地下層數位址": "1",
                "可容納人數": "38.0"
            },
            "geometry": {
                "type": "Point",
                "coordinates": [
                    121.233723,
                    24.951094
                ]
            }
        },
        {
            "type": "Feature",
            "properties": {
                "類別": "其它",
                "電腦編號": "EPA00039",
                "村里別": "明德里",
                "地址": "中壢區龍岡路二段109號",
                "地下層數位址": "1",
                "可容納人數": "32.0"
            },
            "geometry": {
                "type": "Point",
                "coordinates": [
                    121.229359,
                    24.945689
                ]
            }
        },
        {
            "type": "Feature",
            "properties": {
                "類別": "其它",
                "電腦編號": "EPA00041",
                "村里別": "明德里",
                "地址": "中壢區南雄街25號",
                "地下層數位址": "1",
                "可容納人數": "34.0"
            },
            "geometry": {
                "type": "Point",
                "coordinates": [
                    121.233402,
                    24.948052
                ]
            }
        },
        {
            "type": "Feature",
            "properties": {
                "類別": "大樓",
                "電腦編號": "EPA00042",
                "村里別": "信義里",
                "地址": "中壢區廣州路222號",
                "地下層數位址": "1",
                "可容納人數": "1269.0"
            },
            "geometry": {
                "type": "Point",
                "coordinates": [
                    121.233204,
                    24.952801
                ]
            }
        },
        {
            "type": "Feature",
            "properties": {
                "類別": "公寓",
                "電腦編號": "EPA00043",
                "村里別": "普忠里",
                "地址": "中壢區新中一街12號",
                "地下層數位址": "1",
                "可容納人數": "608.0"
            },
            "geometry": {
                "type": "Point",
                "coordinates": [
                    121.243495,
                    24.959463
                ]
            }
        },
        {
            "type": "Feature",
            "properties": {
                "類別": "其它",
                "電腦編號": "EPA00044",
                "村里別": "普強里",
                "地址": "中壢區中山東路二段10號",
                "地下層數位址": "1",
                "可容納人數": "297.0"
            },
            "geometry": {
                "type": "Point",
                "coordinates": [
                    121.236846,
                    24.954352
                ]
            }
        },
        {
            "type": "Feature",
            "properties": {
                "類別": "公寓",
                "電腦編號": "EPA00045",
                "村里別": "普強里",
                "地址": "中壢區民享街5號",
                "地下層數位址": "1",
                "可容納人數": "796.0"
            },
            "geometry": {
                "type": "Point",
                "coordinates": [
                    121.237104,
                    24.953944
                ]
            }
        },
        {
            "type": "Feature",
            "properties": {
                "類別": "其它",
                "電腦編號": "EPA00047",
                "村里別": "信義里",
                "地址": "中壢區20鄰衡陽街30號",
                "地下層數位址": "1",
                "可容納人數": "356.0"
            },
            "geometry": {
                "type": "Point",
                "coordinates": [
                    121.230744,
                    24.950092
                ]
            }
        },
        {
            "type": "Feature",
            "properties": {
                "類別": "其它",
                "電腦編號": "EPA00048",
                "村里別": "信義里",
                "地址": "中壢區17鄰成都路56號",
                "地下層數位址": "1",
                "可容納人數": "318.0"
            },
            "geometry": {
                "type": "Point",
                "coordinates": [
                    121.231617,
                    24.950299
                ]
            }
        },
        {
            "type": "Feature",
            "properties": {
                "類別": "其它",
                "電腦編號": "EPA00052",
                "村里別": "正義里",
                "地址": "中壢區新興北街31號",
                "地下層數位址": "1",
                "可容納人數": "26.0"
            },
            "geometry": {
                "type": "Point",
                "coordinates": [
                    121.230683,
                    24.954957
                ]
            }
        },
        {
            "type": "Feature",
            "properties": {
                "類別": "其它",
                "電腦編號": "EPA00053",
                "村里別": "普仁里",
                "地址": "中壢區新中北路34巷4號",
                "地下層數位址": "1",
                "可容納人數": "80.0"
            },
            "geometry": {
                "type": "Point",
                "coordinates": [
                    121.236011,
                    24.956247
                ]
            }
        },
        {
            "type": "Feature",
            "properties": {
                "類別": "其它",
                "電腦編號": "EPA00056",
                "村里別": "仁義里",
                "地址": "中壢區普義路180號",
                "地下層數位址": "1",
                "可容納人數": "80.0"
            },
            "geometry": {
                "type": "Point",
                "coordinates": [
                    121.231866,
                    24.960864
                ]
            }
        },
        {
            "type": "Feature",
            "properties": {
                "類別": "其它",
                "電腦編號": "EPA00057",
                "村里別": "正義里",
                "地址": "中壢區中北路二段357號",
                "地下層數位址": "1",
                "可容納人數": "21.0"
            },
            "geometry": {
                "type": "Point",
                "coordinates": [
                    121.230768,
                    24.95379
                ]
            }
        },
        {
            "type": "Feature",
            "properties": {
                "類別": "其它",
                "電腦編號": "EPA00059",
                "村里別": "普強里",
                "地址": "中壢區19鄰中山東路二段116號",
                "地下層數位址": "1",
                "可容納人數": "53.0"
            },
            "geometry": {
                "type": "Point",
                "coordinates": [
                    121.2389,
                    24.953173
                ]
            }
        },
        {
            "type": "Feature",
            "properties": {
                "類別": "其它",
                "電腦編號": "EPA00060",
                "村里別": "普強里",
                "地址": "中壢區19鄰中山東路二段152號",
                "地下層數位址": "1",
                "可容納人數": "53.0"
            },
            "geometry": {
                "type": "Point",
                "coordinates": [
                    121.23929,
                    24.952867
                ]
            }
        },
        {
            "type": "Feature",
            "properties": {
                "類別": "其它",
                "電腦編號": "EPA00061",
                "村里別": "普強里",
                "地址": "中壢區19鄰中山東路二段156號",
                "地下層數位址": "1",
                "可容納人數": "54.0"
            },
            "geometry": {
                "type": "Point",
                "coordinates": [
                    121.239356,
                    24.95276
                ]
            }
        },
        {
            "type": "Feature",
            "properties": {
                "類別": "其它",
                "電腦編號": "EPA00062",
                "村里別": "普仁里",
                "地址": "中壢區環中東路912號",
                "地下層數位址": "1",
                "可容納人數": "106.0"
            },
            "geometry": {
                "type": "Point",
                "coordinates": [
                    121.241057,
                    24.952219
                ]
            }
        },
        {
            "type": "Feature",
            "properties": {
                "類別": "其它",
                "電腦編號": "EPA00065",
                "村里別": "龍東里",
                "地址": "中壢區22鄰龍東路29巷120弄29號",
                "地下層數位址": "1",
                "可容納人數": "26.0"
            },
            "geometry": {
                "type": "Point",
                "coordinates": [
                    121.249511,
                    24.930643
                ]
            }
        },
        {
            "type": "Feature",
            "properties": {
                "類別": "其它",
                "電腦編號": "EPA00068",
                "村里別": "明德里",
                "地址": "中壢區桂林街23號",
                "地下層數位址": "1",
                "可容納人數": "70.0"
            },
            "geometry": {
                "type": "Point",
                "coordinates": [
                    121.231621,
                    24.949323
                ]
            }
        },
        {
            "type": "Feature",
            "properties": {
                "類別": "其它",
                "電腦編號": "EPA00073",
                "村里別": "普仁里",
                "地址": "中壢區弘揚路29號",
                "地下層數位址": "1",
                "可容納人數": "93.0"
            },
            "geometry": {
                "type": "Point",
                "coordinates": [
                    121.239958,
                    24.952926
                ]
            }
        },
        {
            "type": "Feature",
            "properties": {
                "類別": "其它",
                "電腦編號": "EPA00074",
                "村里別": "正義里",
                "地址": "中壢區中北路二段373巷5弄10號",
                "地下層數位址": "1",
                "可容納人數": "18.0"
            },
            "geometry": {
                "type": "Point",
                "coordinates": [
                    121.230703,
                    24.954155
                ]
            }
        },
        {
            "type": "Feature",
            "properties": {
                "類別": "其它",
                "電腦編號": "EPA00077",
                "村里別": "信義里",
                "地址": "中壢區廣州路211號",
                "地下層數位址": "1",
                "可容納人數": "126.0"
            },
            "geometry": {
                "type": "Point",
                "coordinates": [
                    121.232919,
                    24.952688
                ]
            }
        },
        {
            "type": "Feature",
            "properties": {
                "類別": "其它",
                "電腦編號": "EPA00078",
                "村里別": "信義里",
                "地址": "中壢區廣州路209號",
                "地下層數位址": "1",
                "可容納人數": "133.0"
            },
            "geometry": {
                "type": "Point",
                "coordinates": [
                    121.23266,
                    24.952546
                ]
            }
        },
        {
            "type": "Feature",
            "properties": {
                "類別": "其它",
                "電腦編號": "EPA00080",
                "村里別": "正義里",
                "地址": "中壢區中北路二段416號",
                "地下層數位址": "1",
                "可容納人數": "53.0"
            },
            "geometry": {
                "type": "Point",
                "coordinates": [
                    121.232767,
                    24.954274
                ]
            }
        },
        {
            "type": "Feature",
            "properties": {
                "類別": "其它",
                "電腦編號": "EPA00081",
                "村里別": "正義里",
                "地址": "中壢區中北路二段402號",
                "地下層數位址": "1",
                "可容納人數": "40.0"
            },
            "geometry": {
                "type": "Point",
                "coordinates": [
                    121.232304,
                    24.954046
                ]
            }
        },
        {
            "type": "Feature",
            "properties": {
                "類別": "其它",
                "電腦編號": "EPA00086",
                "村里別": "正義里",
                "地址": "中壢區中北路二段326號",
                "地下層數位址": "1",
                "可容納人數": "30.0"
            },
            "geometry": {
                "type": "Point",
                "coordinates": [
                    121.230228,
                    24.953264
                ]
            }
        },
        {
            "type": "Feature",
            "properties": {
                "類別": "其它",
                "電腦編號": "EPA00089",
                "村里別": "正義里",
                "地址": "中壢區中北路二段369號",
                "地下層數位址": "1",
                "可容納人數": "21.0"
            },
            "geometry": {
                "type": "Point",
                "coordinates": [
                    121.231022,
                    24.95389
                ]
            }
        },
        {
            "type": "Feature",
            "properties": {
                "類別": "其它",
                "電腦編號": "EPA00095",
                "村里別": "正義里",
                "地址": "中壢區中北路二段432號",
                "地下層數位址": "1",
                "可容納人數": "36.0"
            },
            "geometry": {
                "type": "Point",
                "coordinates": [
                    121.233133,
                    24.954491
                ]
            }
        },
        {
            "type": "Feature",
            "properties": {
                "類別": "其它",
                "電腦編號": "EPA00097",
                "村里別": "德義里",
                "地址": "中壢區4鄰中山東路一段7號",
                "地下層數位址": "1",
                "可容納人數": "30.0"
            },
            "geometry": {
                "type": "Point",
                "coordinates": [
                    121.229101,
                    24.955877
                ]
            }
        },
        {
            "type": "Feature",
            "properties": {
                "類別": "公寓",
                "電腦編號": "EPA00098",
                "村里別": "德義里",
                "地址": "中壢區15鄰永康三街13號",
                "地下層數位址": "1",
                "可容納人數": "446.0"
            },
            "geometry": {
                "type": "Point",
                "coordinates": [
                    121.232163,
                    24.957308
                ]
            }
        },
        {
            "type": "Feature",
            "properties": {
                "類別": "其它",
                "電腦編號": "EPA00100",
                "村里別": "正義里",
                "地址": "中壢區金山一街33號",
                "地下層數位址": "1",
                "可容納人數": "40.0"
            },
            "geometry": {
                "type": "Point",
                "coordinates": [
                    121.231565,
                    24.952918
                ]
            }
        },
        {
            "type": "Feature",
            "properties": {
                "類別": "其它",
                "電腦編號": "EPA00101",
                "村里別": "信義里",
                "地址": "中壢區廣州路202號",
                "地下層數位址": "1",
                "可容納人數": "32.0"
            },
            "geometry": {
                "type": "Point",
                "coordinates": [
                    121.23266,
                    24.952546
                ]
            }
        },
        {
            "type": "Feature",
            "properties": {
                "類別": "其它",
                "電腦編號": "EPA00102",
                "村里別": "信義里",
                "地址": "中壢區嘉善街14號",
                "地下層數位址": "1",
                "可容納人數": "17.0"
            },
            "geometry": {
                "type": "Point",
                "coordinates": [
                    121.233239,
                    24.951212
                ]
            }
        },
        {
            "type": "Feature",
            "properties": {
                "類別": "其它",
                "電腦編號": "EPA00104",
                "村里別": "明德里",
                "地址": "中壢區昆明街31號",
                "地下層數位址": "1",
                "可容納人數": "64.0"
            },
            "geometry": {
                "type": "Point",
                "coordinates": [
                    121.232483,
                    24.949075
                ]
            }
        },
        {
            "type": "Feature",
            "properties": {
                "類別": "其它",
                "電腦編號": "EPA00105",
                "村里別": "信義里",
                "地址": "中壢區廈門路213號",
                "地下層數位址": "1",
                "可容納人數": "40.0"
            },
            "geometry": {
                "type": "Point",
                "coordinates": [
                    121.233144,
                    24.950704
                ]
            }
        },
        {
            "type": "Feature",
            "properties": {
                "類別": "其它",
                "電腦編號": "EPA00107",
                "村里別": "普仁里",
                "地址": "中壢區日新路39號",
                "地下層數位址": "1",
                "可容納人數": "33.0"
            },
            "geometry": {
                "type": "Point",
                "coordinates": [
                    121.238919,
                    24.954509
                ]
            }
        },
        {
            "type": "Feature",
            "properties": {
                "類別": "其它",
                "電腦編號": "EPA00109",
                "村里別": "普強里",
                "地址": "中壢區莒光路58號",
                "地下層數位址": "1",
                "可容納人數": "45.0"
            },
            "geometry": {
                "type": "Point",
                "coordinates": [
                    121.237684,
                    24.952584
                ]
            }
        },
        {
            "type": "Feature",
            "properties": {
                "類別": "其它",
                "電腦編號": "EPA00111",
                "村里別": "普忠里",
                "地址": "中壢區實踐路108號",
                "地下層數位址": "1",
                "可容納人數": "160.0"
            },
            "geometry": {
                "type": "Point",
                "coordinates": [
                    121.240401,
                    24.955887
                ]
            }
        },
        {
            "type": "Feature",
            "properties": {
                "類別": "其它",
                "電腦編號": "EPA00112",
                "村里別": "後寮里",
                "地址": "中壢區後興路二段270巷11號",
                "地下層數位址": "1",
                "可容納人數": "82.0"
            },
            "geometry": {
                "type": "Point",
                "coordinates": [
                    121.238397,
                    24.944627
                ]
            }
        },
        {
            "type": "Feature",
            "properties": {
                "類別": "其它",
                "電腦編號": "EPA00123",
                "村里別": "正義里",
                "地址": "中壢區中北路二段345號",
                "地下層數位址": "1",
                "可容納人數": "22.0"
            },
            "geometry": {
                "type": "Point",
                "coordinates": [
                    121.230435,
                    24.953675
                ]
            }
        },
        {
            "type": "Feature",
            "properties": {
                "類別": "其它",
                "電腦編號": "EPA00124",
                "村里別": "正義里",
                "地址": "中壢區中北路二段359號",
                "地下層數位址": "1",
                "可容納人數": "22.0"
            },
            "geometry": {
                "type": "Point",
                "coordinates": [
                    121.230793,
                    24.953837
                ]
            }
        },
        {
            "type": "Feature",
            "properties": {
                "類別": "其它",
                "電腦編號": "EPA00127",
                "村里別": "健行里",
                "地址": "中壢區龍岡路一段133號",
                "地下層數位址": "1",
                "可容納人數": "181.0"
            },
            "geometry": {
                "type": "Point",
                "coordinates": [
                    121.225004,
                    24.948119
                ]
            }
        },
        {
            "type": "Feature",
            "properties": {
                "類別": "其它",
                "電腦編號": "EPA00128",
                "村里別": "普仁里",
                "地址": "中壢區日新路86號",
                "地下層數位址": "1",
                "可容納人數": "166.0"
            },
            "geometry": {
                "type": "Point",
                "coordinates": [
                    121.240084,
                    24.955036
                ]
            }
        },
        {
            "type": "Feature",
            "properties": {
                "類別": "公寓",
                "電腦編號": "EPA00129",
                "村里別": "普義里",
                "地址": "中壢區溪洲三路71號",
                "地下層數位址": "1",
                "可容納人數": "400.0"
            },
            "geometry": {
                "type": "Point",
                "coordinates": [
                    121.230994,
                    24.960815
                ]
            }
        },
        {
            "type": "Feature",
            "properties": {
                "類別": "其它",
                "電腦編號": "EPA00130",
                "村里別": "信義里",
                "地址": "中壢區廈門路73號",
                "地下層數位址": "1",
                "可容納人數": "34.0"
            },
            "geometry": {
                "type": "Point",
                "coordinates": [
                    121.232516,
                    24.951947
                ]
            }
        },
        {
            "type": "Feature",
            "properties": {
                "類別": "其它",
                "電腦編號": "EPA00132",
                "村里別": "信義里",
                "地址": "中壢區廣州路143號",
                "地下層數位址": "1",
                "可容納人數": "32.0"
            },
            "geometry": {
                "type": "Point",
                "coordinates": [
                    121.231312,
                    24.951827
                ]
            }
        },
        {
            "type": "Feature",
            "properties": {
                "類別": "其它",
                "電腦編號": "EPA00134",
                "村里別": "普忠里",
                "地址": "中壢區大仁二街8號",
                "地下層數位址": "1",
                "可容納人數": "77.0"
            },
            "geometry": {
                "type": "Point",
                "coordinates": [
                    121.242513,
                    24.954509
                ]
            }
        },
        {
            "type": "Feature",
            "properties": {
                "類別": "其它",
                "電腦編號": "EPA00135",
                "村里別": "明德里",
                "地址": "中壢區龍山街11號",
                "地下層數位址": "1",
                "可容納人數": "60.0"
            },
            "geometry": {
                "type": "Point",
                "coordinates": [
                    121.22984,
                    24.948557
                ]
            }
        },
        {
            "type": "Feature",
            "properties": {
                "類別": "其它",
                "電腦編號": "EPA00136",
                "村里別": "普仁里",
                "地址": "中壢區協同街51號",
                "地下層數位址": "1",
                "可容納人數": "136.0"
            },
            "geometry": {
                "type": "Point",
                "coordinates": [
                    121.238972,
                    24.953952
                ]
            }
        },
        {
            "type": "Feature",
            "properties": {
                "類別": "其它",
                "電腦編號": "EPA00138",
                "村里別": "正義里",
                "地址": "中壢區蘭州二街22號",
                "地下層數位址": "1",
                "可容納人數": "98.0"
            },
            "geometry": {
                "type": "Point",
                "coordinates": [
                    121.228891,
                    24.951585
                ]
            }
        },
        {
            "type": "Feature",
            "properties": {
                "類別": "其它",
                "電腦編號": "EPA00141",
                "村里別": "普仁里",
                "地址": "中壢區實踐路25號",
                "地下層數位址": "1",
                "可容納人數": "153.0"
            },
            "geometry": {
                "type": "Point",
                "coordinates": [
                    121.24233,
                    24.953973
                ]
            }
        },
        {
            "type": "Feature",
            "properties": {
                "類別": "其它",
                "電腦編號": "EPA00142",
                "村里別": "信義里",
                "地址": "中壢區福州路75號",
                "地下層數位址": "1",
                "可容納人數": "38.0"
            },
            "geometry": {
                "type": "Point",
                "coordinates": [
                    121.233165,
                    24.952152
                ]
            }
        },
        {
            "type": "Feature",
            "properties": {
                "類別": "其它",
                "電腦編號": "EPA00143",
                "村里別": "普仁里",
                "地址": "中壢區環中東路850號之4",
                "地下層數位址": "1",
                "可容納人數": "160.0"
            },
            "geometry": {
                "type": "Point",
                "coordinates": [
                    121.242552,
                    24.953264
                ]
            }
        },
        {
            "type": "Feature",
            "properties": {
                "類別": "其它",
                "電腦編號": "EPA00149",
                "村里別": "龍平里",
                "地址": "中壢區18鄰前龍路11號",
                "地下層數位址": "1",
                "可容納人數": "25.0"
            },
            "geometry": {
                "type": "Point",
                "coordinates": [
                    121.253496,
                    24.92976
                ]
            }
        },
        {
            "type": "Feature",
            "properties": {
                "類別": "其它",
                "電腦編號": "EPA00151",
                "村里別": "普仁里",
                "地址": "中壢區力行北街35號",
                "地下層數位址": "1",
                "可容納人數": "86.0"
            },
            "geometry": {
                "type": "Point",
                "coordinates": [
                    121.239832,
                    24.954042
                ]
            }
        },
        {
            "type": "Feature",
            "properties": {
                "類別": "其它",
                "電腦編號": "EPA00152",
                "村里別": "普仁里",
                "地址": "中壢區實踐路105號",
                "地下層數位址": "1",
                "可容納人數": "80.0"
            },
            "geometry": {
                "type": "Point",
                "coordinates": [
                    121.241088,
                    24.955029
                ]
            }
        },
        {
            "type": "Feature",
            "properties": {
                "類別": "其它",
                "電腦編號": "EPA00153",
                "村里別": "普忠里",
                "地址": "中壢區大仁四街11號",
                "地下層數位址": "1",
                "可容納人數": "120.0"
            },
            "geometry": {
                "type": "Point",
                "coordinates": [
                    121.240803,
                    24.95581
                ]
            }
        },
        {
            "type": "Feature",
            "properties": {
                "類別": "其它",
                "電腦編號": "EPA00154",
                "村里別": "明德里",
                "地址": "中壢區環中東路二段362號",
                "地下層數位址": "1",
                "可容納人數": "49.0"
            },
            "geometry": {
                "type": "Point",
                "coordinates": [
                    121.234254,
                    24.9478
                ]
            }
        },
        {
            "type": "Feature",
            "properties": {
                "類別": "其它",
                "電腦編號": "EPA00155",
                "村里別": "普義里",
                "地址": "中壢區八德路56號",
                "地下層數位址": "1",
                "可容納人數": "82.0"
            },
            "geometry": {
                "type": "Point",
                "coordinates": [
                    121.231037,
                    24.960063
                ]
            }
        },
        {
            "type": "Feature",
            "properties": {
                "類別": "其它",
                "電腦編號": "EPA00156",
                "村里別": "明德里",
                "地址": "中壢區苑平路3號",
                "地下層數位址": "1",
                "可容納人數": "46.0"
            },
            "geometry": {
                "type": "Point",
                "coordinates": [
                    121.229533,
                    24.945578
                ]
            }
        },
        {
            "type": "Feature",
            "properties": {
                "類別": "其它",
                "電腦編號": "EPA00159",
                "村里別": "信義里",
                "地址": "中壢區廈門路65號",
                "地下層數位址": "1",
                "可容納人數": "58.0"
            },
            "geometry": {
                "type": "Point",
                "coordinates": [
                    121.232454,
                    24.952112
                ]
            }
        },
        {
            "type": "Feature",
            "properties": {
                "類別": "其它",
                "電腦編號": "EPA00160",
                "村里別": "普仁里",
                "地址": "中壢區三和二街17號",
                "地下層數位址": "1",
                "可容納人數": "133.0"
            },
            "geometry": {
                "type": "Point",
                "coordinates": [
                    121.240724,
                    24.955057
                ]
            }
        },
        {
            "type": "Feature",
            "properties": {
                "類別": "其它",
                "電腦編號": "EPA00162",
                "村里別": "信義里",
                "地址": "中壢區甘肅一路29號",
                "地下層數位址": "1",
                "可容納人數": "32.0"
            },
            "geometry": {
                "type": "Point",
                "coordinates": [
                    121.234244,
                    24.952577
                ]
            }
        },
        {
            "type": "Feature",
            "properties": {
                "類別": "其它",
                "電腦編號": "EPA00163",
                "村里別": "仁義里",
                "地址": "中壢區中山東路一段223巷129弄2號",
                "地下層數位址": "1",
                "可容納人數": "113.0"
            },
            "geometry": {
                "type": "Point",
                "coordinates": [
                    121.237179,
                    24.958767
                ]
            }
        },
        {
            "type": "Feature",
            "properties": {
                "類別": "公寓",
                "電腦編號": "EPA00164",
                "村里別": "普強里",
                "地址": "中壢區民享街38號",
                "地下層數位址": "1",
                "可容納人數": "889.0"
            },
            "geometry": {
                "type": "Point",
                "coordinates": [
                    121.236585,
                    24.953529
                ]
            }
        },
        {
            "type": "Feature",
            "properties": {
                "類別": "公寓",
                "電腦編號": "EPA00165",
                "村里別": "普仁里",
                "地址": "中壢區力行北路53號",
                "地下層數位址": "1",
                "可容納人數": "740.0"
            },
            "geometry": {
                "type": "Point",
                "coordinates": [
                    121.239564,
                    24.954364
                ]
            }
        },
        {
            "type": "Feature",
            "properties": {
                "類別": "其它",
                "電腦編號": "EPA00166",
                "村里別": "普仁里",
                "地址": "中壢區力行北路47號",
                "地下層數位址": "1",
                "可容納人數": "113.0"
            },
            "geometry": {
                "type": "Point",
                "coordinates": [
                    121.239656,
                    24.954229
                ]
            }
        },
        {
            "type": "Feature",
            "properties": {
                "類別": "其它",
                "電腦編號": "EPA00168",
                "村里別": "明德里",
                "地址": "中壢區環中東路二段650號",
                "地下層數位址": "1",
                "可容納人數": "37.0"
            },
            "geometry": {
                "type": "Point",
                "coordinates": [
                    121.229767,
                    24.94488
                ]
            }
        },
        {
            "type": "Feature",
            "properties": {
                "類別": "其它",
                "電腦編號": "EPA00170",
                "村里別": "仁義里",
                "地址": "中壢區普義路130號",
                "地下層數位址": "1",
                "可容納人數": "42.0"
            },
            "geometry": {
                "type": "Point",
                "coordinates": [
                    121.23244,
                    24.959845
                ]
            }
        },
        {
            "type": "Feature",
            "properties": {
                "類別": "其它",
                "電腦編號": "EPA00171",
                "村里別": "後寮里",
                "地址": "中壢區後興路一段52巷7號",
                "地下層數位址": "1",
                "可容納人數": "133.0"
            },
            "geometry": {
                "type": "Point",
                "coordinates": [
                    121.248124,
                    24.942557
                ]
            }
        },
        {
            "type": "Feature",
            "properties": {
                "類別": "公寓",
                "電腦編號": "EPA00172",
                "村里別": "明德里",
                "地址": "中壢區吉長二街190號",
                "地下層數位址": "1",
                "可容納人數": "400.0"
            },
            "geometry": {
                "type": "Point",
                "coordinates": [
                    121.230027,
                    24.946235
                ]
            }
        },
        {
            "type": "Feature",
            "properties": {
                "類別": "其它",
                "電腦編號": "EPA00173",
                "村里別": "信義里",
                "地址": "中壢區福州路121號",
                "地下層數位址": "1",
                "可容納人數": "34.0"
            },
            "geometry": {
                "type": "Point",
                "coordinates": [
                    121.233619,
                    24.951146
                ]
            }
        },
        {
            "type": "Feature",
            "properties": {
                "類別": "其它",
                "電腦編號": "EPA00176",
                "村里別": "龍興里",
                "地址": "中壢區12鄰龍岡路三段295號",
                "地下層數位址": "1",
                "可容納人數": "26.0"
            },
            "geometry": {
                "type": "Point",
                "coordinates": [
                    121.233872,
                    24.935811
                ]
            }
        },
        {
            "type": "Feature",
            "properties": {
                "類別": "其它",
                "電腦編號": "EPA00177",
                "村里別": "龍興里",
                "地址": "中壢區20鄰龍岡路三段301號",
                "地下層數位址": "1",
                "可容納人數": "53.0"
            },
            "geometry": {
                "type": "Point",
                "coordinates": [
                    121.233872,
                    24.935811
                ]
            }
        },
        {
            "type": "Feature",
            "properties": {
                "類別": "其它",
                "電腦編號": "EPA00179",
                "村里別": "普強里",
                "地址": "中壢區莒光路94號",
                "地下層數位址": "1",
                "可容納人數": "26.0"
            },
            "geometry": {
                "type": "Point",
                "coordinates": [
                    121.236532,
                    24.95191
                ]
            }
        },
        {
            "type": "Feature",
            "properties": {
                "類別": "其它",
                "電腦編號": "EPA00180",
                "村里別": "普忠里",
                "地址": "中壢區大仁一街49號",
                "地下層數位址": "1",
                "可容納人數": "306.0"
            },
            "geometry": {
                "type": "Point",
                "coordinates": [
                    121.243396,
                    24.954903
                ]
            }
        },
        {
            "type": "Feature",
            "properties": {
                "類別": "其它",
                "電腦編號": "EPA00182",
                "村里別": "普忠里",
                "地址": "中壢區大仁二街8號",
                "地下層數位址": "1",
                "可容納人數": "80.0"
            },
            "geometry": {
                "type": "Point",
                "coordinates": [
                    121.242513,
                    24.954509
                ]
            }
        },
        {
            "type": "Feature",
            "properties": {
                "類別": "其它",
                "電腦編號": "EPA00184",
                "村里別": "龍興里",
                "地址": "中壢區20鄰龍岡路三段291號",
                "地下層數位址": "1",
                "可容納人數": "26.0"
            },
            "geometry": {
                "type": "Point",
                "coordinates": [
                    121.233872,
                    24.935811
                ]
            }
        },
        {
            "type": "Feature",
            "properties": {
                "類別": "其它",
                "電腦編號": "EPA00185",
                "村里別": "龍興里",
                "地址": "中壢區12鄰龍岡路三段299號",
                "地下層數位址": "1",
                "可容納人數": "70.0"
            },
            "geometry": {
                "type": "Point",
                "coordinates": [
                    121.233872,
                    24.935811
                ]
            }
        },
        {
            "type": "Feature",
            "properties": {
                "類別": "其它",
                "電腦編號": "EPA00186",
                "村里別": "龍興里",
                "地址": "中壢區12鄰龍岡路三段297號",
                "地下層數位址": "1",
                "可容納人數": "24.0"
            },
            "geometry": {
                "type": "Point",
                "coordinates": [
                    121.233872,
                    24.935811
                ]
            }
        },
        {
            "type": "Feature",
            "properties": {
                "類別": "其它",
                "電腦編號": "EPA00187",
                "村里別": "龍興里",
                "地址": "中壢區20鄰龍岡路三段293號",
                "地下層數位址": "1",
                "可容納人數": "25.0"
            },
            "geometry": {
                "type": "Point",
                "coordinates": [
                    121.233872,
                    24.935811
                ]
            }
        },
        {
            "type": "Feature",
            "properties": {
                "類別": "其它",
                "電腦編號": "EPA00189",
                "村里別": "龍平里",
                "地址": "中壢區17鄰龍東路220號",
                "地下層數位址": "1",
                "可容納人數": "48.0"
            },
            "geometry": {
                "type": "Point",
                "coordinates": [
                    121.25375,
                    24.930095
                ]
            }
        },
        {
            "type": "Feature",
            "properties": {
                "類別": "其它",
                "電腦編號": "EPA00190",
                "村里別": "正義里",
                "地址": "中壢區中北路二段378號",
                "地下層數位址": "1",
                "可容納人數": "34.0"
            },
            "geometry": {
                "type": "Point",
                "coordinates": [
                    121.23146,
                    24.953716
                ]
            }
        },
        {
            "type": "Feature",
            "properties": {
                "類別": "其它",
                "電腦編號": "EPA00193",
                "村里別": "明德里",
                "地址": "中壢區20鄰衡陽街28號",
                "地下層數位址": "1",
                "可容納人數": "41.0"
            },
            "geometry": {
                "type": "Point",
                "coordinates": [
                    121.229955,
                    24.949549
                ]
            }
        },
        {
            "type": "Feature",
            "properties": {
                "類別": "其它",
                "電腦編號": "EPA00194",
                "村里別": "明德里",
                "地址": "中壢區環中東路二段648號",
                "地下層數位址": "1",
                "可容納人數": "33.0"
            },
            "geometry": {
                "type": "Point",
                "coordinates": [
                    121.229806,
                    24.94491
                ]
            }
        },
        {
            "type": "Feature",
            "properties": {
                "類別": "其它",
                "電腦編號": "EPA00197",
                "村里別": "明德里",
                "地址": "中壢區衡陽街28號",
                "地下層數位址": "1",
                "可容納人數": "30.0"
            },
            "geometry": {
                "type": "Point",
                "coordinates": [
                    121.229955,
                    24.949549
                ]
            }
        },
        {
            "type": "Feature",
            "properties": {
                "類別": "教育機構",
                "電腦編號": "EPA00198",
                "村里別": "明德里",
                "地址": "中壢區廣州路25號",
                "地下層數位址": "1",
                "可容納人數": "474.0"
            },
            "geometry": {
                "type": "Point",
                "coordinates": [
                    121.229659,
                    24.949915
                ]
            }
        },
        {
            "type": "Feature",
            "properties": {
                "類別": "其它",
                "電腦編號": "EPA00200",
                "村里別": "普仁里",
                "地址": "中壢區新中北路34巷2弄9號",
                "地下層數位址": "1",
                "可容納人數": "106.0"
            },
            "geometry": {
                "type": "Point",
                "coordinates": [
                    121.235739,
                    24.95598
                ]
            }
        },
        {
            "type": "Feature",
            "properties": {
                "類別": "大樓",
                "電腦編號": "EPA00201",
                "村里別": "普仁里",
                "地址": "中壢區弘揚路50號",
                "地下層數位址": "1",
                "可容納人數": "1360.0"
            },
            "geometry": {
                "type": "Point",
                "coordinates": [
                    121.240566,
                    24.953023
                ]
            }
        },
        {
            "type": "Feature",
            "properties": {
                "類別": "其它",
                "電腦編號": "EPA00203",
                "村里別": "普強里",
                "地址": "中壢區國泰街105號",
                "地下層數位址": "1",
                "可容納人數": "37.0"
            },
            "geometry": {
                "type": "Point",
                "coordinates": [
                    121.237966,
                    24.950322
                ]
            }
        },
        {
            "type": "Feature",
            "properties": {
                "類別": "其它",
                "電腦編號": "EPA00206",
                "村里別": "信義里",
                "地址": "中壢區杭州路33號",
                "地下層數位址": "1",
                "可容納人數": "202.0"
            },
            "geometry": {
                "type": "Point",
                "coordinates": [
                    121.235049,
                    24.950641
                ]
            }
        },
        {
            "type": "Feature",
            "properties": {
                "類別": "其它",
                "電腦編號": "EPA00207",
                "村里別": "普仁里",
                "地址": "中壢區治平街51號",
                "地下層數位址": "1",
                "可容納人數": "73.0"
            },
            "geometry": {
                "type": "Point",
                "coordinates": [
                    121.238226,
                    24.95551
                ]
            }
        },
        {
            "type": "Feature",
            "properties": {
                "類別": "其它",
                "電腦編號": "EPA00208",
                "村里別": "普強里",
                "地址": "中壢區民享街8號",
                "地下層數位址": "1",
                "可容納人數": "44.0"
            },
            "geometry": {
                "type": "Point",
                "coordinates": [
                    121.236894,
                    24.954156
                ]
            }
        },
        {
            "type": "Feature",
            "properties": {
                "類別": "其它",
                "電腦編號": "EPA00209",
                "村里別": "普仁里",
                "地址": "中壢區協同街12及14號",
                "地下層數位址": "1",
                "可容納人數": "73.0"
            },
            "geometry": {
                "type": "Point",
                "coordinates": [
                    121.240123,
                    24.953348
                ]
            }
        },
        {
            "type": "Feature",
            "properties": {
                "類別": "其它",
                "電腦編號": "EPA00210",
                "村里別": "普強里",
                "地址": "中壢區中山東路二段12號",
                "地下層數位址": "1",
                "可容納人數": "32.0"
            },
            "geometry": {
                "type": "Point",
                "coordinates": [
                    121.236898,
                    24.954319
                ]
            }
        },
        {
            "type": "Feature",
            "properties": {
                "類別": "其它",
                "電腦編號": "EPA00211",
                "村里別": "仁義里",
                "地址": "中壢區延平路24號",
                "地下層數位址": "1",
                "可容納人數": "202.0"
            },
            "geometry": {
                "type": "Point",
                "coordinates": [
                    121.232906,
                    24.963792
                ]
            }
        },
        {
            "type": "Feature",
            "properties": {
                "類別": "其它",
                "電腦編號": "EPA00213",
                "村里別": "普仁里",
                "地址": "中壢區治平街11號",
                "地下層數位址": "1",
                "可容納人數": "56.0"
            },
            "geometry": {
                "type": "Point",
                "coordinates": [
                    121.237319,
                    24.95472
                ]
            }
        },
        {
            "type": "Feature",
            "properties": {
                "類別": "其它",
                "電腦編號": "EPA00215",
                "村里別": "普仁里",
                "地址": "中壢區治平街7號",
                "地下層數位址": "1",
                "可容納人數": "53.0"
            },
            "geometry": {
                "type": "Point",
                "coordinates": [
                    121.237239,
                    24.954646
                ]
            }
        },
        {
            "type": "Feature",
            "properties": {
                "類別": "其它",
                "電腦編號": "EPA00217",
                "村里別": "普強里",
                "地址": "中壢區中山東路二段14號",
                "地下層數位址": "1",
                "可容納人數": "30.0"
            },
            "geometry": {
                "type": "Point",
                "coordinates": [
                    121.236946,
                    24.954287
                ]
            }
        },
        {
            "type": "Feature",
            "properties": {
                "類別": "其它",
                "電腦編號": "EPA00219",
                "村里別": "普忠里",
                "地址": "中壢區大仁五街13號",
                "地下層數位址": "1",
                "可容納人數": "60.0"
            },
            "geometry": {
                "type": "Point",
                "coordinates": [
                    121.240668,
                    24.95596
                ]
            }
        },
        {
            "type": "Feature",
            "properties": {
                "類別": "其它",
                "電腦編號": "EPA00221",
                "村里別": "普強里",
                "地址": "中壢區民有街25號",
                "地下層數位址": "1",
                "可容納人數": "41.0"
            },
            "geometry": {
                "type": "Point",
                "coordinates": [
                    121.237733,
                    24.953279
                ]
            }
        },
        {
            "type": "Feature",
            "properties": {
                "類別": "其它",
                "電腦編號": "EPA00222",
                "村里別": "普強里",
                "地址": "中壢區民有街27號",
                "地下層數位址": "1",
                "可容納人數": "34.0"
            },
            "geometry": {
                "type": "Point",
                "coordinates": [
                    121.237651,
                    24.953299
                ]
            }
        },
        {
            "type": "Feature",
            "properties": {
                "類別": "其它",
                "電腦編號": "EPA00224",
                "村里別": "信義里",
                "地址": "中壢區福州路74號",
                "地下層數位址": "1",
                "可容納人數": "133.0"
            },
            "geometry": {
                "type": "Point",
                "coordinates": [
                    121.232804,
                    24.952155
                ]
            }
        },
        {
            "type": "Feature",
            "properties": {
                "類別": "其它",
                "電腦編號": "EPA00225",
                "村里別": "正義里",
                "地址": "中壢區中北路二段330號",
                "地下層數位址": "1",
                "可容納人數": "44.0"
            },
            "geometry": {
                "type": "Point",
                "coordinates": [
                    121.230335,
                    24.95333
                ]
            }
        },
        {
            "type": "Feature",
            "properties": {
                "類別": "其它",
                "電腦編號": "EPA00226",
                "村里別": "正義里",
                "地址": "中壢區東明街84號",
                "地下層數位址": "1",
                "可容納人數": "32.0"
            },
            "geometry": {
                "type": "Point",
                "coordinates": [
                    121.229966,
                    24.952262
                ]
            }
        },
        {
            "type": "Feature",
            "properties": {
                "類別": "其它",
                "電腦編號": "EPA00228",
                "村里別": "信義里",
                "地址": "中壢區潮州街16號",
                "地下層數位址": "1",
                "可容納人數": "72.0"
            },
            "geometry": {
                "type": "Point",
                "coordinates": [
                    121.230982,
                    24.950852
                ]
            }
        },
        {
            "type": "Feature",
            "properties": {
                "類別": "其它",
                "電腦編號": "EPA00229",
                "村里別": "信義里",
                "地址": "中壢區廣州路199號",
                "地下層數位址": "1",
                "可容納人數": "32.0"
            },
            "geometry": {
                "type": "Point",
                "coordinates": [
                    121.232598,
                    24.952444
                ]
            }
        },
        {
            "type": "Feature",
            "properties": {
                "類別": "其它",
                "電腦編號": "EPA00235",
                "村里別": "明德里",
                "地址": "中壢區桂林街2號",
                "地下層數位址": "1",
                "可容納人數": "45.0"
            },
            "geometry": {
                "type": "Point",
                "coordinates": [
                    121.231281,
                    24.948924
                ]
            }
        },
        {
            "type": "Feature",
            "properties": {
                "類別": "其它",
                "電腦編號": "EPA00237",
                "村里別": "龍平里",
                "地址": "中壢區19鄰龍東路82號",
                "地下層數位址": "1",
                "可容納人數": "34.0"
            },
            "geometry": {
                "type": "Point",
                "coordinates": [
                    121.251025,
                    24.928771
                ]
            }
        },
        {
            "type": "Feature",
            "properties": {
                "類別": "其它",
                "電腦編號": "EPA00240",
                "村里別": "信義里",
                "地址": "中壢區廣州路160號",
                "地下層數位址": "1",
                "可容納人數": "33.0"
            },
            "geometry": {
                "type": "Point",
                "coordinates": [
                    121.231693,
                    24.952034
                ]
            }
        },
        {
            "type": "Feature",
            "properties": {
                "類別": "大樓",
                "電腦編號": "EPA00241",
                "村里別": "德義里",
                "地址": "中壢區中山東路一段149號",
                "地下層數位址": "1",
                "可容納人數": "1333.0"
            },
            "geometry": {
                "type": "Point",
                "coordinates": [
                    121.232085,
                    24.956668
                ]
            }
        },
        {
            "type": "Feature",
            "properties": {
                "類別": "其它",
                "電腦編號": "EPA00246",
                "村里別": "普仁里",
                "地址": "中壢區三和三街15號",
                "地下層數位址": "1",
                "可容納人數": "60.0"
            },
            "geometry": {
                "type": "Point",
                "coordinates": [
                    121.240623,
                    24.954008
                ]
            }
        },
        {
            "type": "Feature",
            "properties": {
                "類別": "其它",
                "電腦編號": "EPA00248",
                "村里別": "普仁里",
                "地址": "中壢區三和三路7號",
                "地下層數位址": "1",
                "可容納人數": "113.0"
            },
            "geometry": {
                "type": "Point",
                "coordinates": [
                    121.240793,
                    24.953807
                ]
            }
        },
        {
            "type": "Feature",
            "properties": {
                "類別": "其它",
                "電腦編號": "EPA00253",
                "村里別": "普仁里",
                "地址": "中壢區環中東路908號",
                "地下層數位址": "1",
                "可容納人數": "46.0"
            },
            "geometry": {
                "type": "Point",
                "coordinates": [
                    121.241144,
                    24.952279
                ]
            }
        },
        {
            "type": "Feature",
            "properties": {
                "類別": "其它",
                "電腦編號": "EPA00254",
                "村里別": "普仁里",
                "地址": "中壢區環中東路898號",
                "地下層數位址": "1",
                "可容納人數": "42.0"
            },
            "geometry": {
                "type": "Point",
                "coordinates": [
                    121.241358,
                    24.952421
                ]
            }
        },
        {
            "type": "Feature",
            "properties": {
                "類別": "其它",
                "電腦編號": "EPA00255",
                "村里別": "普強里",
                "地址": "中壢區民有街25號",
                "地下層數位址": "1",
                "可容納人數": "44.0"
            },
            "geometry": {
                "type": "Point",
                "coordinates": [
                    121.237733,
                    24.953279
                ]
            }
        },
        {
            "type": "Feature",
            "properties": {
                "類別": "其它",
                "電腦編號": "EPA00258",
                "村里別": "普仁里",
                "地址": "中壢區力行北街11號",
                "地下層數位址": "1",
                "可容納人數": "46.0"
            },
            "geometry": {
                "type": "Point",
                "coordinates": [
                    121.240303,
                    24.95344
                ]
            }
        },
        {
            "type": "Feature",
            "properties": {
                "類別": "其它",
                "電腦編號": "EPA00259",
                "村里別": "正義里",
                "地址": "中壢區中北路二段377號",
                "地下層數位址": "1",
                "可容納人數": "77.0"
            },
            "geometry": {
                "type": "Point",
                "coordinates": [
                    121.231596,
                    24.954142
                ]
            }
        },
        {
            "type": "Feature",
            "properties": {
                "類別": "其它",
                "電腦編號": "EPA00264",
                "村里別": "信義里",
                "地址": "中壢區廣州路144號",
                "地下層數位址": "1",
                "可容納人數": "40.0"
            },
            "geometry": {
                "type": "Point",
                "coordinates": [
                    121.231337,
                    24.951875
                ]
            }
        },
        {
            "type": "Feature",
            "properties": {
                "類別": "大樓",
                "電腦編號": "EPA00271",
                "村里別": "龍平里",
                "地址": "中壢區7鄰龍江路54號",
                "地下層數位址": "1",
                "可容納人數": "2080.0"
            },
            "geometry": {
                "type": "Point",
                "coordinates": [
                    121.257065,
                    24.931846
                ]
            }
        },
        {
            "type": "Feature",
            "properties": {
                "類別": "公家機構",
                "電腦編號": "EPA00275",
                "村里別": "至善里",
                "地址": "中壢區11鄰中山東路三段372號",
                "地下層數位址": "1",
                "可容納人數": "1734.0"
            },
            "geometry": {
                "type": "Point",
                "coordinates": [
                    121.25214,
                    24.939682
                ]
            }
        },
        {
            "type": "Feature",
            "properties": {
                "類別": "教育機構",
                "電腦編號": "EPA00283",
                "村里別": "普忠里",
                "地址": "中壢區中北路200號",
                "地下層數位址": "1",
                "可容納人數": "2658.0"
            },
            "geometry": {
                "type": "Point",
                "coordinates": [
                    121.240348,
                    24.957279
                ]
            }
        },
        {
            "type": "Feature",
            "properties": {
                "類別": "其它",
                "電腦編號": "EPA00287",
                "村里別": "明德里",
                "地址": "中壢區桂林街74號",
                "地下層數位址": "1",
                "可容納人數": "117.0"
            },
            "geometry": {
                "type": "Point",
                "coordinates": [
                    121.232853,
                    24.949507
                ]
            }
        },
        {
            "type": "Feature",
            "properties": {
                "類別": "其它",
                "電腦編號": "EPA00288",
                "村里別": "明德里",
                "地址": "中壢區五華路53號",
                "地下層數位址": "1",
                "可容納人數": "80.0"
            },
            "geometry": {
                "type": "Point",
                "coordinates": [
                    121.23259,
                    24.94826
                ]
            }
        },
        {
            "type": "Feature",
            "properties": {
                "類別": "其它",
                "電腦編號": "EPA00294",
                "村里別": "明德里",
                "地址": "中壢區惠州路120號",
                "地下層數位址": "1",
                "可容納人數": "53.0"
            },
            "geometry": {
                "type": "Point",
                "coordinates": [
                    121.231207,
                    24.946252
                ]
            }
        },
        {
            "type": "Feature",
            "properties": {
                "類別": "其它",
                "電腦編號": "EPA00295",
                "村里別": "新興里",
                "地址": "中壢區15鄰金山街9號",
                "地下層數位址": "1",
                "可容納人數": "36.0"
            },
            "geometry": {
                "type": "Point",
                "coordinates": [
                    121.222905,
                    24.943701
                ]
            }
        },
        {
            "type": "Feature",
            "properties": {
                "類別": "其它",
                "電腦編號": "EPA00296",
                "村里別": "信義里",
                "地址": "中壢區福州路143號",
                "地下層數位址": "1",
                "可容納人數": "32.0"
            },
            "geometry": {
                "type": "Point",
                "coordinates": [
                    121.233866,
                    24.950773
                ]
            }
        },
        {
            "type": "Feature",
            "properties": {
                "類別": "其它",
                "電腦編號": "EPA00298",
                "村里別": "明德里",
                "地址": "中壢區惠州路54號",
                "地下層數位址": "1",
                "可容納人數": "54.0"
            },
            "geometry": {
                "type": "Point",
                "coordinates": [
                    121.233334,
                    24.947606
                ]
            }
        },
        {
            "type": "Feature",
            "properties": {
                "類別": "其它",
                "電腦編號": "EPA00300",
                "村里別": "德義里",
                "地址": "中壢區永康二路36號",
                "地下層數位址": "1",
                "可容納人數": "178.0"
            },
            "geometry": {
                "type": "Point",
                "coordinates": [
                    121.231986,
                    24.958082
                ]
            }
        },
        {
            "type": "Feature",
            "properties": {
                "類別": "其它",
                "電腦編號": "EPA00303",
                "村里別": "普仁里",
                "地址": "中壢區環中東路900號",
                "地下層數位址": "1",
                "可容納人數": "33.0"
            },
            "geometry": {
                "type": "Point",
                "coordinates": [
                    121.241332,
                    24.952407
                ]
            }
        },
        {
            "type": "Feature",
            "properties": {
                "類別": "公寓",
                "電腦編號": "EPA00307",
                "村里別": "德義里",
                "地址": "中壢區26鄰永康路26號",
                "地下層數位址": "1",
                "可容納人數": "544.0"
            },
            "geometry": {
                "type": "Point",
                "coordinates": [
                    121.231016,
                    24.957287
                ]
            }
        },
        {
            "type": "Feature",
            "properties": {
                "類別": "其它",
                "電腦編號": "EPA00309",
                "村里別": "明德里",
                "地址": "中壢區桂林街85號",
                "地下層數位址": "1",
                "可容納人數": "96.0"
            },
            "geometry": {
                "type": "Point",
                "coordinates": [
                    121.23298,
                    24.949828
                ]
            }
        },
        {
            "type": "Feature",
            "properties": {
                "類別": "其它",
                "電腦編號": "EPA00310",
                "村里別": "明德里",
                "地址": "中壢區桂林街83號",
                "地下層數位址": "1",
                "可容納人數": "42.0"
            },
            "geometry": {
                "type": "Point",
                "coordinates": [
                    121.232923,
                    24.949805
                ]
            }
        },
        {
            "type": "Feature",
            "properties": {
                "類別": "其它",
                "電腦編號": "EPA00311",
                "村里別": "正義里",
                "地址": "中壢區東明街84號",
                "地下層數位址": "1",
                "可容納人數": "34.0"
            },
            "geometry": {
                "type": "Point",
                "coordinates": [
                    121.229966,
                    24.952262
                ]
            }
        },
        {
            "type": "Feature",
            "properties": {
                "類別": "其它",
                "電腦編號": "EPA00312",
                "村里別": "正義里",
                "地址": "中壢區中北路二段330號",
                "地下層數位址": "1",
                "可容納人數": "46.0"
            },
            "geometry": {
                "type": "Point",
                "coordinates": [
                    121.230335,
                    24.95333
                ]
            }
        },
        {
            "type": "Feature",
            "properties": {
                "類別": "其它",
                "電腦編號": "EPA00315",
                "村里別": "普忠里",
                "地址": "中壢區新中一街10巷11號",
                "地下層數位址": "1",
                "可容納人數": "46.0"
            },
            "geometry": {
                "type": "Point",
                "coordinates": [
                    121.243682,
                    24.959406
                ]
            }
        },
        {
            "type": "Feature",
            "properties": {
                "類別": "其它",
                "電腦編號": "EPA00319",
                "村里別": "正義里",
                "地址": "中壢區廣州路199號",
                "地下層數位址": "1",
                "可容納人數": "30.0"
            },
            "geometry": {
                "type": "Point",
                "coordinates": [
                    121.232814,
                    24.952846
                ]
            }
        },
        {
            "type": "Feature",
            "properties": {
                "類別": "其它",
                "電腦編號": "EPA00323",
                "村里別": "仁義里",
                "地址": "中壢區中山東路一段223巷129弄10號",
                "地下層數位址": "1",
                "可容納人數": "153.0"
            },
            "geometry": {
                "type": "Point",
                "coordinates": [
                    121.236507,
                    24.959015
                ]
            }
        },
        {
            "type": "Feature",
            "properties": {
                "類別": "其它",
                "電腦編號": "EPA00326",
                "村里別": "仁義里",
                "地址": "中壢區中山東路一段223巷129弄4號",
                "地下層數位址": "1",
                "可容納人數": "52.0"
            },
            "geometry": {
                "type": "Point",
                "coordinates": [
                    121.237056,
                    24.958834
                ]
            }
        },
        {
            "type": "Feature",
            "properties": {
                "類別": "其它",
                "電腦編號": "EPA00327",
                "村里別": "仁義里",
                "地址": "中壢區中山東路一段223巷129弄4號之2",
                "地下層數位址": "1",
                "可容納人數": "101.0"
            },
            "geometry": {
                "type": "Point",
                "coordinates": [
                    121.237056,
                    24.958834
                ]
            }
        },
        {
            "type": "Feature",
            "properties": {
                "類別": "其它",
                "電腦編號": "EPA00328",
                "村里別": "仁義里",
                "地址": "中壢區中山東路一段223巷129弄4號之6",
                "地下層數位址": "1",
                "可容納人數": "101.0"
            },
            "geometry": {
                "type": "Point",
                "coordinates": [
                    121.237056,
                    24.958834
                ]
            }
        },
        {
            "type": "Feature",
            "properties": {
                "類別": "其它",
                "電腦編號": "EPA00329",
                "村里別": "仁義里",
                "地址": "中壢區中山東路一段223巷129弄4號之8",
                "地下層數位址": "1",
                "可容納人數": "146.0"
            },
            "geometry": {
                "type": "Point",
                "coordinates": [
                    121.237056,
                    24.958834
                ]
            }
        },
        {
            "type": "Feature",
            "properties": {
                "類別": "其它",
                "電腦編號": "EPA00331",
                "村里別": "仁義里",
                "地址": "中壢區中山東路一段223巷129弄6號之4",
                "地下層數位址": "1",
                "可容納人數": "101.0"
            },
            "geometry": {
                "type": "Point",
                "coordinates": [
                    121.236847,
                    24.958901
                ]
            }
        },
        {
            "type": "Feature",
            "properties": {
                "類別": "其它",
                "電腦編號": "EPA00332",
                "村里別": "仁義里",
                "地址": "中壢區中山東路一段223巷129弄6號之6",
                "地下層數位址": "1",
                "可容納人數": "101.0"
            },
            "geometry": {
                "type": "Point",
                "coordinates": [
                    121.236847,
                    24.958901
                ]
            }
        },
        {
            "type": "Feature",
            "properties": {
                "類別": "其它",
                "電腦編號": "EPA00333",
                "村里別": "仁義里",
                "地址": "中壢區中山東路一段223巷129弄12號之6",
                "地下層數位址": "1",
                "可容納人數": "101.0"
            },
            "geometry": {
                "type": "Point",
                "coordinates": [
                    121.236377,
                    24.959057
                ]
            }
        },
        {
            "type": "Feature",
            "properties": {
                "類別": "其它",
                "電腦編號": "EPA00335",
                "村里別": "正義里",
                "地址": "中壢區中北路二段437巷9弄6號",
                "地下層數位址": "1",
                "可容納人數": "66.0"
            },
            "geometry": {
                "type": "Point",
                "coordinates": [
                    121.231623,
                    24.954864
                ]
            }
        },
        {
            "type": "Feature",
            "properties": {
                "類別": "其它",
                "電腦編號": "EPA00336",
                "村里別": "信義里",
                "地址": "中壢區20鄰潮州街20號",
                "地下層數位址": "1",
                "可容納人數": "78.0"
            },
            "geometry": {
                "type": "Point",
                "coordinates": [
                    121.231059,
                    24.950938
                ]
            }
        },
        {
            "type": "Feature",
            "properties": {
                "類別": "其它",
                "電腦編號": "EPA00342",
                "村里別": "信義里",
                "地址": "中壢區20鄰衡陽街8號",
                "地下層數位址": "1",
                "可容納人數": "37.0"
            },
            "geometry": {
                "type": "Point",
                "coordinates": [
                    121.231378,
                    24.950429
                ]
            }
        },
        {
            "type": "Feature",
            "properties": {
                "類別": "其它",
                "電腦編號": "EPA00345",
                "村里別": "正義里",
                "地址": "中壢區漢口路47號",
                "地下層數位址": "1",
                "可容納人數": "42.0"
            },
            "geometry": {
                "type": "Point",
                "coordinates": [
                    121.231084,
                    24.953341
                ]
            }
        },
        {
            "type": "Feature",
            "properties": {
                "類別": "其它",
                "電腦編號": "EPA00346",
                "村里別": "普慶里",
                "地址": "中壢區14鄰金鋒二路65巷2號",
                "地下層數位址": "1",
                "可容納人數": "266.0"
            },
            "geometry": {
                "type": "Point",
                "coordinates": [
                    121.247901,
                    24.948944
                ]
            }
        },
        {
            "type": "Feature",
            "properties": {
                "類別": "其它",
                "電腦編號": "EPA00352",
                "村里別": "信義里",
                "地址": "中壢區甘肅一路31號",
                "地下層數位址": "1",
                "可容納人數": "61.0"
            },
            "geometry": {
                "type": "Point",
                "coordinates": [
                    121.23415,
                    24.952486
                ]
            }
        },
        {
            "type": "Feature",
            "properties": {
                "類別": "其它",
                "電腦編號": "EPA00353",
                "村里別": "普強里",
                "地址": "中壢區環中東路二段2號",
                "地下層數位址": "1",
                "可容納人數": "40.0"
            },
            "geometry": {
                "type": "Point",
                "coordinates": [
                    121.240078,
                    24.951512
                ]
            }
        },
        {
            "type": "Feature",
            "properties": {
                "類別": "其它",
                "電腦編號": "EPA00357",
                "村里別": "普強里",
                "地址": "中壢區20鄰國泰街12號",
                "地下層數位址": "1",
                "可容納人數": "40.0"
            },
            "geometry": {
                "type": "Point",
                "coordinates": [
                    121.239311,
                    24.95146
                ]
            }
        },
        {
            "type": "Feature",
            "properties": {
                "類別": "其它",
                "電腦編號": "EPA00361",
                "村里別": "正義里",
                "地址": "中壢區中北路二段446號",
                "地下層數位址": "1",
                "可容納人數": "240.0"
            },
            "geometry": {
                "type": "Point",
                "coordinates": [
                    121.233442,
                    24.954595
                ]
            }
        },
        {
            "type": "Feature",
            "properties": {
                "類別": "其它",
                "電腦編號": "EPA00362",
                "村里別": "信義里",
                "地址": "中壢區廣州路149號",
                "地下層數位址": "1",
                "可容納人數": "45.0"
            },
            "geometry": {
                "type": "Point",
                "coordinates": [
                    121.231432,
                    24.951909
                ]
            }
        },
        {
            "type": "Feature",
            "properties": {
                "類別": "其它",
                "電腦編號": "EPA00363",
                "村里別": "信義里",
                "地址": "中壢區福州路71號",
                "地下層數位址": "1",
                "可容納人數": "62.0"
            },
            "geometry": {
                "type": "Point",
                "coordinates": [
                    121.233125,
                    24.952233
                ]
            }
        },
        {
            "type": "Feature",
            "properties": {
                "類別": "公寓",
                "電腦編號": "EPA00367",
                "村里別": "正義里",
                "地址": "中壢區中北路二段437巷8號",
                "地下層數位址": "1",
                "可容納人數": "400.0"
            },
            "geometry": {
                "type": "Point",
                "coordinates": [
                    121.232196,
                    24.954753
                ]
            }
        },
        {
            "type": "Feature",
            "properties": {
                "類別": "教育機構",
                "電腦編號": "EPA00373",
                "村里別": "內定里",
                "地址": "中壢區1鄰安寧路31號",
                "地下層數位址": "1",
                "可容納人數": "669.0"
            },
            "geometry": {
                "type": "Point",
                "coordinates": [
                    121.231238,
                    25.004342
                ]
            }
        },
        {
            "type": "Feature",
            "properties": {
                "類別": "公寓",
                "電腦編號": "EPA00374",
                "村里別": "內定里",
                "地址": "中壢區1鄰高邊路1號",
                "地下層數位址": "1",
                "可容納人數": "453.0"
            },
            "geometry": {
                "type": "Point",
                "coordinates": [
                    121.239941,
                    24.98888
                ]
            }
        },
        {
            "type": "Feature",
            "properties": {
                "類別": "大樓",
                "電腦編號": "EPA00378",
                "村里別": "文化里",
                "地址": "中壢區13鄰合江路2號",
                "地下層數位址": "1",
                "可容納人數": "5465.0"
            },
            "geometry": {
                "type": "Point",
                "coordinates": [
                    121.247037,
                    24.98375
                ]
            }
        },
        {
            "type": "Feature",
            "properties": {
                "類別": "公寓",
                "電腦編號": "EPA00379",
                "村里別": "內定里",
                "地址": "中壢區1鄰合定路26號之1",
                "地下層數位址": "1",
                "可容納人數": "413.0"
            },
            "geometry": {
                "type": "Point",
                "coordinates": [
                    121.244178,
                    24.988211
                ]
            }
        },
        {
            "type": "Feature",
            "properties": {
                "類別": "其它",
                "電腦編號": "EPA00381",
                "村里別": "內定里",
                "地址": "中壢區1鄰合定路4號",
                "地下層數位址": "1",
                "可容納人數": "246.0"
            },
            "geometry": {
                "type": "Point",
                "coordinates": [
                    121.240973,
                    24.987393
                ]
            }
        },
        {
            "type": "Feature",
            "properties": {
                "類別": "公寓",
                "電腦編號": "EPA00382",
                "村里別": "復興里",
                "地址": "中壢區6鄰自強一路4號",
                "地下層數位址": "1",
                "可容納人數": "952.0"
            },
            "geometry": {
                "type": "Point",
                "coordinates": [
                    121.244606,
                    24.974999
                ]
            }
        },
        {
            "type": "Feature",
            "properties": {
                "類別": "其它",
                "電腦編號": "EPA00383",
                "村里別": "信義里",
                "地址": "中壢區福州路132號",
                "地下層數位址": "1",
                "可容納人數": "25.0"
            },
            "geometry": {
                "type": "Point",
                "coordinates": [
                    121.233479,
                    24.950885
                ]
            }
        },
        {
            "type": "Feature",
            "properties": {
                "類別": "其它",
                "電腦編號": "EPA00384",
                "村里別": "信義里",
                "地址": "中壢區廈門路159號",
                "地下層數位址": "1",
                "可容納人數": "32.0"
            },
            "geometry": {
                "type": "Point",
                "coordinates": [
                    121.233106,
                    24.950835
                ]
            }
        },
        {
            "type": "Feature",
            "properties": {
                "類別": "其它",
                "電腦編號": "EPA00391",
                "村里別": "後寮里",
                "地址": "中壢區中山東路二段510號",
                "地下層數位址": "1",
                "可容納人數": "25.0"
            },
            "geometry": {
                "type": "Point",
                "coordinates": [
                    121.244103,
                    24.947818
                ]
            }
        },
        {
            "type": "Feature",
            "properties": {
                "類別": "其它",
                "電腦編號": "EPA00392",
                "村里別": "中建里",
                "地址": "中壢區8鄰大同路154號",
                "地下層數位址": "1",
                "可容納人數": "58.0"
            },
            "geometry": {
                "type": "Point",
                "coordinates": [
                    121.221605,
                    24.956493
                ]
            }
        },
        {
            "type": "Feature",
            "properties": {
                "類別": "其它",
                "電腦編號": "EPA00396",
                "村里別": "中建里",
                "地址": "中壢區8鄰大同路158號",
                "地下層數位址": "1",
                "可容納人數": "69.0"
            },
            "geometry": {
                "type": "Point",
                "coordinates": [
                    121.221525,
                    24.956398
                ]
            }
        },
        {
            "type": "Feature",
            "properties": {
                "類別": "其它",
                "電腦編號": "EPA00397",
                "村里別": "中建里",
                "地址": "中壢區9鄰中平路208號",
                "地下層數位址": "1",
                "可容納人數": "56.0"
            },
            "geometry": {
                "type": "Point",
                "coordinates": [
                    121.22092,
                    24.956484
                ]
            }
        },
        {
            "type": "Feature",
            "properties": {
                "類別": "其它",
                "電腦編號": "EPA00398",
                "村里別": "中建里",
                "地址": "中壢區8鄰大同路166號",
                "地下層數位址": "1",
                "可容納人數": "64.0"
            },
            "geometry": {
                "type": "Point",
                "coordinates": [
                    121.221435,
                    24.956271
                ]
            }
        },
        {
            "type": "Feature",
            "properties": {
                "類別": "其它",
                "電腦編號": "EPA00400",
                "村里別": "中建里",
                "地址": "中壢區8鄰大同路162號",
                "地下層數位址": "1",
                "可容納人數": "205.0"
            },
            "geometry": {
                "type": "Point",
                "coordinates": [
                    121.221484,
                    24.956341
                ]
            }
        },
        {
            "type": "Feature",
            "properties": {
                "類別": "其它",
                "電腦編號": "EPA00404",
                "村里別": "中建里",
                "地址": "中壢區9鄰中平路204號",
                "地下層數位址": "1",
                "可容納人數": "56.0"
            },
            "geometry": {
                "type": "Point",
                "coordinates": [
                    121.220993,
                    24.956457
                ]
            }
        },
        {
            "type": "Feature",
            "properties": {
                "類別": "其它",
                "電腦編號": "EPA00405",
                "村里別": "中建里",
                "地址": "中壢區9鄰中平路200號",
                "地下層數位址": "1",
                "可容納人數": "65.0"
            },
            "geometry": {
                "type": "Point",
                "coordinates": [
                    121.221073,
                    24.956423
                ]
            }
        },
        {
            "type": "Feature",
            "properties": {
                "類別": "其它",
                "電腦編號": "EPA00406",
                "村里別": "振興里",
                "地址": "中壢區10鄰龍岡路三段154號",
                "地下層數位址": "1",
                "可容納人數": "226.0"
            },
            "geometry": {
                "type": "Point",
                "coordinates": [
                    121.233118,
                    24.936088
                ]
            }
        },
        {
            "type": "Feature",
            "properties": {
                "類別": "公寓",
                "電腦編號": "EPA00407",
                "村里別": "振興里",
                "地址": "中壢區10鄰龍岡路三段8號",
                "地下層數位址": "1、2",
                "可容納人數": "413.0"
            },
            "geometry": {
                "type": "Point",
                "coordinates": [
                    121.231216,
                    24.937943
                ]
            }
        },
        {
            "type": "Feature",
            "properties": {
                "類別": "公家機構",
                "電腦編號": "EPA00411",
                "村里別": "中央里",
                "地址": "中壢區22鄰延平路499號",
                "地下層數位址": "1",
                "可容納人數": "1565.0"
            },
            "geometry": {
                "type": "Point",
                "coordinates": [
                    121.223674,
                    24.95673
                ]
            }
        },
        {
            "type": "Feature",
            "properties": {
                "類別": "公寓",
                "電腦編號": "EPA00412",
                "村里別": "石頭里",
                "地址": "中壢區14鄰興建街12號",
                "地下層數位址": "1、2",
                "可容納人數": "457.0"
            },
            "geometry": {
                "type": "Point",
                "coordinates": [
                    121.224159,
                    24.953797
                ]
            }
        },
        {
            "type": "Feature",
            "properties": {
                "類別": "公寓",
                "電腦編號": "EPA00414",
                "村里別": "興南里",
                "地址": "中壢區5鄰延平路466號",
                "地下層數位址": "1、2",
                "可容納人數": "616.0"
            },
            "geometry": {
                "type": "Point",
                "coordinates": [
                    121.223907,
                    24.958106
                ]
            }
        },
        {
            "type": "Feature",
            "properties": {
                "類別": "大樓",
                "電腦編號": "EPA00415",
                "村里別": "普義里",
                "地址": "中壢區普義路173號",
                "地下層數位址": "1、2",
                "可容納人數": "1896.0"
            },
            "geometry": {
                "type": "Point",
                "coordinates": [
                    121.23162,
                    24.960643
                ]
            }
        },
        {
            "type": "Feature",
            "properties": {
                "類別": "大樓",
                "電腦編號": "EPA00416",
                "村里別": "普仁里",
                "地址": "中壢區新中北路151號",
                "地下層數位址": "1",
                "可容納人數": "1785.0"
            },
            "geometry": {
                "type": "Point",
                "coordinates": [
                    121.238169,
                    24.958479
                ]
            }
        },
        {
            "type": "Feature",
            "properties": {
                "類別": "公寓",
                "電腦編號": "EPA00417",
                "村里別": "仁福里",
                "地址": "中壢區25鄰仁福五街13號(4386037)",
                "地下層數位址": "1",
                "可容納人數": "588.0"
            },
            "geometry": {
                "type": "Point",
                "coordinates": [
                    121.255069,
                    24.941071
                ]
            }
        },
        {
            "type": "Feature",
            "properties": {
                "類別": "其它",
                "電腦編號": "EPA00418",
                "村里別": "新興里",
                "地址": "中壢區21鄰林森路160號",
                "地下層數位址": "1",
                "可容納人數": "381.0"
            },
            "geometry": {
                "type": "Point",
                "coordinates": [
                    121.226446,
                    24.944704
                ]
            }
        },
        {
            "type": "Feature",
            "properties": {
                "類別": "其它",
                "電腦編號": "EPA00419",
                "村里別": "東興里",
                "地址": "中壢區7鄰東興路76號",
                "地下層數位址": "1",
                "可容納人數": "177.0"
            },
            "geometry": {
                "type": "Point",
                "coordinates": [
                    121.225557,
                    24.952117
                ]
            }
        },
        {
            "type": "Feature",
            "properties": {
                "類別": "大樓",
                "電腦編號": "EPA00420",
                "村里別": "新興里",
                "地址": "中壢區逢甲一路7號",
                "地下層數位址": "1、2",
                "可容納人數": "1624.0"
            },
            "geometry": {
                "type": "Point",
                "coordinates": [
                    121.223805,
                    24.94535
                ]
            }
        },
        {
            "type": "Feature",
            "properties": {
                "類別": "公寓",
                "電腦編號": "EPA00421",
                "村里別": "中建里",
                "地址": "中壢區8鄰大同路136號",
                "地下層數位址": "1",
                "可容納人數": "769.0"
            },
            "geometry": {
                "type": "Point",
                "coordinates": [
                    121.221847,
                    24.956755
                ]
            }
        },
        {
            "type": "Feature",
            "properties": {
                "類別": "其它",
                "電腦編號": "EPA00422",
                "村里別": "中建里",
                "地址": "中壢區2鄰中山路222號",
                "地下層數位址": "1",
                "可容納人數": "192.0"
            },
            "geometry": {
                "type": "Point",
                "coordinates": [
                    121.222559,
                    24.956796
                ]
            }
        },
        {
            "type": "Feature",
            "properties": {
                "類別": "其它",
                "電腦編號": "EPA00423",
                "村里別": "中建里",
                "地址": "中壢區2鄰中山路228巷20號",
                "地下層數位址": "1",
                "可容納人數": "162.0"
            },
            "geometry": {
                "type": "Point",
                "coordinates": [
                    121.222821,
                    24.957062
                ]
            }
        },
        {
            "type": "Feature",
            "properties": {
                "類別": "教育機構",
                "電腦編號": "EPA00425",
                "村里別": "普慶里",
                "地址": "中壢區中山東路二段425號",
                "地下層數位址": "1、2",
                "可容納人數": "1057.0"
            },
            "geometry": {
                "type": "Point",
                "coordinates": [
                    121.244506,
                    24.948523
                ]
            }
        },
        {
            "type": "Feature",
            "properties": {
                "類別": "大樓",
                "電腦編號": "EPA00426",
                "村里別": "至善里",
                "地址": "中壢區後寮一路138號",
                "地下層數位址": "1",
                "可容納人數": "6849.0"
            },
            "geometry": {
                "type": "Point",
                "coordinates": [
                    121.245542,
                    24.941175
                ]
            }
        },
        {
            "type": "Feature",
            "properties": {
                "類別": "其它",
                "電腦編號": "EPA00428",
                "村里別": "信義里",
                "地址": "中壢區甘肅三街60號",
                "地下層數位址": "1、2",
                "可容納人數": "392.0"
            },
            "geometry": {
                "type": "Point",
                "coordinates": [
                    121.234041,
                    24.952062
                ]
            }
        },
        {
            "type": "Feature",
            "properties": {
                "類別": "公寓",
                "電腦編號": "EPA00429",
                "村里別": "中興里",
                "地址": "中壢區13鄰榮安九街6號",
                "地下層數位址": "1、2",
                "可容納人數": "956.0"
            },
            "geometry": {
                "type": "Point",
                "coordinates": [
                    121.257695,
                    24.961957
                ]
            }
        },
        {
            "type": "Feature",
            "properties": {
                "類別": "大樓",
                "電腦編號": "EPA00430",
                "村里別": "中原里",
                "地址": "中壢區2鄰興農路125號",
                "地下層數位址": "1",
                "可容納人數": "1732.0"
            },