類別,電腦編號,村里別,地址,"地下樓 層數",可容納人數,派出所,備註,經度,緯度
桔運青山社區,DA02000001,華南里,新北市中和區華南里忠孝街2巷14弄1號,1,1349.0,南勢派出所,,121.51056,24.981181
大時代住辦大樓,DA02000002,興南里,新北市中和區興南里景新街328號,3,1404.0,南勢派出所,,121.51177,24.991045
磐石樓社區,DA02000004,華南里,新北市中和區華南里忠孝街26巷55號,1,1592.0,南勢派出所,,121.5116,24.981746
米蘭春天大廈,DA02000005,華新里,新北市中和區華新里工專路123號,2,592.0,南勢派出所,,121.50833,24.979257
奇蹟誠品,DA02000006,忠孝里,新北市中和區忠孝里忠孝街1巷53號,1,657.0,南勢派出所,,121.50841,24.984229
天天開心社區,DA02000007,華新里,新北市中和區華新里工專路167號,1,746.0,南勢派出所,,121.50831,24.978522
審計部,DA02000008,華新里,新北市中和區華新里華新街109巷9號,1,724.0,南勢派出所,,121.50878,24.981634
私人住宅大樓,DA02000009,東南里,新北市中和區東南里忠孝街55巷1號,2,148.0,南勢派出所,,121.51152,24.984501
私人住宅大樓,DA02000010,東南里,新北市中和區東南里忠孝街57號,1,192.0,南勢派出所,,121.51159,24.984615
私立竹林中學,DA02000011,華新里,新北市中和區華新里華新街143巷12號,1,726.0,南勢派出所,,121.50601,24.979921
奇蹟誠事私人住宅大樓,DA02000012,忠孝里,新北市中和區忠孝里華新街75號,2,2492.0,南勢派出所,,121.50833,24.983749
私人住宅大樓,DA02000013,忠孝里,新北市中和區忠孝里忠孝街21號,1,460.0,南勢派出所,,121.51028,24.982909
私人住宅大樓,DA02000015,忠孝里,新北市中和區忠孝里忠孝街3號1,1,183.0,南勢派出所,,121.50955,24.982938
錦繡年華,DA02000016,正南里,新北市中和區正南里華新街28號,5,3488.0,南勢派出所,,121.50765,24.984637
金如意社區,DA02000017,福南里,新北市中和區福南里興南路二段34巷12號,1,1433.0,南勢派出所,,121.50641,24.986089
十步芳草社區,DA02000018,華南里,新北市中和區華南里忠孝街2巷14弄12號,1,1113.0,南勢派出所,,121.51058,24.981377
私人住宅大樓,DA02000019,崇南里,新北市中和區崇南里景新街496巷17號,2,431.0,南勢派出所,,121.51342,24.98664
大地新象社區,DA02000020,內南里,新北市中和區內南里興南路二段142巷10號,1,993.0,南勢派出所,,121.50346,24.983627
地球村社區,DA02000021,崇南里,新北市中和區崇南里景新街498號,3,4511.0,南勢派出所,,121.51371,24.98692
私人住宅大樓,DA02000022,崇南里,新北市中和區崇南里景新街496巷26號,1,123.0,南勢派出所,,121.51335,24.986034
私人住宅大樓,DA02000023,華南里,新北市中和區華南里忠孝街24號,1,485.0,南勢派出所,,121.51055,24.982901
太和庭社區,DA02000025,華新里,新北市中和區華新里工專路147號,2,1367.0,南勢派出所,,121.50876,24.979236
興南國小,DA02000026,壽南里,新北市中和區壽南里興南路一段135巷24號,1,520.0,南勢派出所,,121.50921,24.987032
捷運之星社區,DA02000027,華新里,新北市中和區華新里華新街109巷5號,1,152.0,南勢派出所,,121.50926,24.982096
華夏科技大學,DA02000028,華新里,新北市中和區華新里工專路111號,1,4202.0,南勢派出所,,121.50773,24.980586
孩子王社區,DA02000029,福南里,新北市中和區福南里興南路2段2號,1,2785.0,南勢派出所,,121.50782,24.986424
私人住宅大樓耶魯社區,DA02000030,華新里,新北市中和區華新里華新街143巷46號,2,441.0,南勢派出所,,121.50626,24.979977
私人住宅大樓,DA02000031,頂南里,新北市中和區頂南里興南路二段159巷1之1號,1,335.0,南勢派出所,,121.50517,24.983537
私人住宅大樓之星社區,DA02000032,華新里,新北市中和區華新里華新街143巷116號,3,1065.0,南勢派出所,,121.50743,24.978374
和平世紀麗池社區,DA02000034,華南里,新北市中和區華南里忠孝街2巷10號,3,863.0,南勢派出所,,121.50957,24.981598
和平世紀麗晶社區,DA02000035,華南里,新北市中和區華南里忠孝街2巷2號,4,2645.0,南勢派出所,,121.50979,24.982437
捷運一品社區,DA02000036,崇南里,新北市中和區崇南里四維街27號,3,985.0,南勢派出所,,121.51282,24.986915
吉祥園社區,DA02000037,華南里,新北市中和區華南里忠孝街2巷14弄10號,1,70.0,南勢派出所,,121.51066,24.9814
金門新村社區,DA02000038,東南里,新北市中和區東南里興南一段85巷37號,1,2411.0,南勢派出所,,121.51051,24.987619
晶囍社區,DA02000039,東南里,新北市中和區東南里忠孝街37號,1,140.0,南勢派出所,,121.51061,24.983352
興南國小,DA02000040,壽南里,新北市中和區壽南里興南路一段135巷24號,1,1276.0,南勢派出所,,121.50921,24.987032
審計部,DA02000041,華新里,新北市中和區華新里華新街109巷9號,1,429.0,南勢派出所,,121.50878,24.981634
聽樹唱歌社區,DA02000042,崇南里,新北市中和區崇南里四維街30號,12,236.0,南勢派出所,,121.51272,24.98711
沐夏之靜社區,DA02000043,華新里,新北市中和區華新里華新街143巷69號,12,100.0,南勢派出所,,121.50748,24.978605
私人住宅大樓,DA02000044,忠孝里,新北市中和區忠孝里興南路一段93巷89弄3號,1,112.0,南勢派出所,,121.5108,24.986047
?捷晶華社區,DA02000045,崇南里,新北市中和區崇南里景新街468號,1,302.0,南勢派出所,,121.51363,24.987248
圓通雅筑宿舍,DA02000046,華新里,新北市中和區華新里工專路26號,1,815.0,南勢派出所,,121.5069,24.981092
香榭麗池社區,DA02000047,壽南里,新北市中和區壽南里南山路258號,12,1930.0,南勢派出所,,121.50768,24.988449
達永沐夏社區,DA02000048,華新里,新北市中和區華新里工專路66號,1,1290.0,南勢派出所,,121.50762,24.980137
漢寶之丘社區,DA02000049,華新里,新北市中和區華新里工專路126號,4,811.0,南勢派出所,,121.50797,24.979617
京雅集社區,DA02000050,崇南里,新北市中和區崇南里7鄰景新街450號,1,642.0,南勢派出所,,121.51329,24.987878
私人住宅大樓,DA02000051,壽南里,新北市中和區壽南里南山路260號,1,815.0,南勢派出所,,121.50761,24.988474
企業天下,DA04000001,枋寮里,新北市中和區枋寮里中和路59號,3,327.0,中和派出所,,121.50052,25.001199
四季花香,DA04000002,南山里,新北市中和區南山里南華路26號,2,1737.0,中和派出所,,121.50312,24.995864
華?新貴,DA04000003,福和里,新北市中和區福和里廣福路12號,2,211.0,中和派出所,,121.50561,25.002984
中和區衛生所,DA04000004,漳和里,新北市中和區漳和里南山路4巷3號,1,538.0,中和派出所,,121.50164,24.998692
第王社區,DA04000005,佳和里,新北市中和區佳和里中山路二段30號,1,777.0,中和派出所,,121.50455,25.005274
左岸社區,DA04000007,福美里,新北市中和區福美里福祥路127號,1,510.0,中和派出所,,121.49858,25.006947
凱國御花園,DA04000008,瓦?里,新北市中和區瓦?里保平路285號,2,579.0,中和派出所,,121.50666,25.003814
?喜園,DA04000009,福祥里,新北市中和區福祥里福祥路123號,1,134.0,中和派出所,,121.49863,25.006747
日光大道,DA04000010,新南里,新北市中和區新南里中正路78號,3,2438.0,中和派出所,,121.5005,24.993822
圓泰花園,DA04000011,新南里,新北市中和區新南里圓通路25號,2,797.0,中和派出所,,121.50126,24.997832
微風villa,DA04000015,瓦?里,新北市中和區瓦?里保平路326巷15號,1,93.0,中和派出所,,121.50652,25.004664
公寓,DA04000017,福美里,新北市中和區福美里勝利路35巷1弄24號,1,193.0,中和派出所,,121.49984,25.007665
和美吉地,DA04000018,廟美里,新北市中和區廟美里廟美街1號,1,494.0,中和派出所,,121.50072,25.001641
金玉南山,DA04000019,南山里,新北市中和區南山里南山路119號,1,500.0,中和派出所,,121.50215,24.997317
惜福b坐,DA04000020,福祥里,新北市中和區福祥里永和路8巷7號,2,1464.0,中和派出所,,121.5003,25.003141
好厝壹佰,DA04000021,南山里,新北市中和區南山里南山路89號,1,265.0,中和派出所,,121.50212,24.997957
景新雅苑,DA04000022,漳和里,新北市中和區漳和里景新街71號,1,98.0,中和派出所,,121.50492,24.998777
宏璽新世界社區,DA04000023,新南里,新北市中和區新南里景平路433號,2,4744.0,中和派出所,,121.50098,24.9957
漳和國中,DA04000024,枋寮里,新北市中和區枋寮里廣福路39號,1,533.0,中和派出所,,121.50553,25.002673
公寓,DA04000025,瓦?里,新北市中和區瓦?里水源路119號,1,63.0,中和派出所,,121.50816,25.003699
謙禧補習班,DA04000026,佳和里,新北市中和區佳和里中山路二段64巷12弄1號,1,24.0,中和派出所,,121.50367,25.005255
水源星座,DA04000027,瓦?里,新北市中和區瓦?里水源路93號,1,121.0,中和派出所,,121.50711,25.003523
桔第私人住宅大樓,DA04000028,南山里,新北市中和區南山里南山路81巷58號,1,663.0,中和派出所,,121.50393,24.998047
華南名人巷,DA04000029,新南里,新北市中和區新南里景平路429號,2,3205.0,中和派出所,,121.50139,24.995369
裕豐私人住宅大樓,DA04000030,福祥里,新北市中和區福祥里永和路16號,2,1504.0,中和派出所,,121.49973,25.003363
霧之橘,DA04000031,新南里,新北市中和區新南里南山路72號,2,2350.0,中和派出所,,121.50235,24.995922
CYMOTO,DA04000032,新南里,新北市中和區新南里圓通路57號,1,82.0,中和派出所,,121.50068,24.997421
桔第私人住宅大樓,DA04000034,南山里,新北市中和區南山里南山路81巷50號,1,347.0,中和派出所,,121.50366,24.998286
金合美,DA04000036,漳和里,新北市中和區漳和里中和路170號,2,468.0,中和派出所,,121.50452,24.999638
都會大亨,DA04000037,佳和里,新北市中和區佳和里中山路二段98號,2,426.0,中和派出所,,121.50331,25.004263
中福傑坐,DA04000038,廟美里,新北市中和區廟美里景平路666號,3,1026.0,中和派出所,,121.49745,25.000782
富貴有緣,DA04000041,福祥里,新北市中和區福祥里永和路90巷3號,1,2027.0,中和派出所,,121.49731,25.005937
中和國小,DA04000042,漳和里,新北市中和區漳和里中和路100號,2,1504.0,中和派出所,,121.50161,24.99986
台北新廈,DA04000043,枋寮里,新北市中和區枋寮里中和路281號,1,233.0,中和派出所,,121.50586,24.99981
公寓,DA04000046,佳和里,新北市中和區佳和里中山路二段2巷45弄5號,1,173.0,中和派出所,,121.50224,25.006777
日麗私人住宅大樓,DA04000047,南山里,新北市中和區南山里南華路17號,3,5211.0,中和派出所,,121.50259,24.995772
廟子尾鶴齡交誼中心,DA04000048,廟美里,新北市中和區廟美里廟美街6巷3號,1,225.0,中和派出所,,121.50121,25.001522
皇樓,DA04000049,枋寮里,新北市中和區枋寮里廣福路53巷2號,2,3703.0,中和派出所,,121.50298,25.001337
台北NEWS,DA04000050,南山里,新北市中和區南山里南華路16號,1,5131.0,中和派出所,,121.50271,24.995629
泰和街1號,DA04000051,廟美里,新北市中和區廟美里泰和街1號,1,1597.0,中和派出所,,121.4999,25.000877
陽光四季,DA04000052,瓦?里,新北市中和區瓦?里光華街81號,1,1106.0,中和派出所,,121.50723,25.002663
陽光四季,DA04000053,瓦?里,新北市中和區瓦?里光華街86號,1,2020.0,中和派出所,,121.50705,25.002496
c22商業廣場,DA04000054,漳和里,新北市中和區漳和里中和路100號,1,2377.0,中和派出所,,121.50161,24.99986
旺角私人住宅大樓,DA04000055,漳和里,新北市中和區漳和里中和路42號,1,356.0,中和派出所,,121.50024,25.001139
御藏,DA04000056,瓦?里,新北市中和區瓦?里保平路326巷7號,1,412.0,中和派出所,,121.50696,25.004513
捷運華格納,DA04000057,南山里,新北市中和區南山里南山路81巷61號,1,351.0,中和派出所,,121.50429,24.998069
?和星,DA04000058,漳和里,新北市中和區漳和里中和路210號,2,533.0,中和派出所,,121.5056,24.99961
頂高,DA04000059,廟美里,新北市中和區廟美里連城路71號,2,277.0,中和派出所,,121.49744,25.001083
美麗時代,DA04000060,福祥里,新北市中和區福祥里福祥路68號,3,2077.0,中和派出所,,121.49935,25.005175
馥御,DA04000061,新南里,新北市中和區新南里圓通路69號,3,1160.0,中和派出所,,121.50009,24.996971
愛丁寶,DA04000062,瓦?里,新北市中和區瓦?里南工路124號,1,2022.0,中和派出所,,121.50741,25.003979
弘暉首富,DA04000063,漳和里,新北市中和區漳和里中和路128號,1,752.0,中和派出所,,121.50356,24.999617
御璽,DA04000064,枋寮里,新北市中和區枋寮里廣福路73號,1,1139.0,中和派出所,,121.50244,25.00085
南山高中,DA04000065,枋寮里,新北市中和區枋寮里廣福路41號,2,1840.0,中和派出所,,121.50345,25.001629
新富邑,DA04000066,漳和里,新北市中和區漳和里景新街34巷2弄5號,1,104.0,中和派出所,,121.50301,24.999065
新富雅,DA04000067,漳和里,新北市中和區漳和里景新街34巷2弄9號,1,106.0,中和派出所,,121.50276,24.999039
中和區公所,DA04000068,漳和里,新北市中和區漳和里景平路634號之2,1,1269.0,中和派出所,,121.50074,24.998545
翔之譽,DA04000069,瓦?里,新北市中和區瓦?里水源路132巷7號,1,441.0,中和派出所,,121.50786,25.002721
仁愛好樣,DA04000070,佳和里,新北市中和區佳和里中山路二段64巷30號,1,833.0,中和派出所,,121.50248,25.006221
雙禧園,DA04000071,景文里,新北市中和區景文里南華路67號,1,916.0,中和派出所,,121.50467,24.997404
喜硯,DA04000072,新南里,新北市中和區新南里景平路431巷120號,1,107.0,中和派出所,,121.5004,24.994859
勝興漾之華,DA04000073,漳和里,新北市中和區漳和里南山路27號,1,239.0,中和派出所,,121.50214,24.999028
三豐雙匯,DA04000074,廟美里,新北市中和區廟美里景平路658號,1,277.0,中和派出所,,121.4976,25.00063
福璽景安,DA04000075,新南里,新北市中和區新南里景平路431巷29號,1,511.0,中和派出所,,121.50054,24.99467
捷運?,DA04000076,廟美里,新北市中和區廟美里廟美街8號,1,265.0,中和派出所,,121.50103,25.001524
肯佳馥?,DA04000077,佳和里,新北市中和區佳和里中山路二段158號,1,148.0,中和派出所,,121.50141,25.002967
向陽光晴,DA04000078,枋寮里,新北市中和區枋寮里中和路229號,1,367.0,中和派出所,,121.50446,24.999858
浦陽雙和,DA04000079,漳和里,新北市中和區漳和里中和路142號,1,781.0,中和派出所,,121.50387,24.999614
中和消防分隊,DA04000080,佳和里,新北市中和區佳和里中山路二段64巷11號,1,505.0,中和派出所,,121.50331,25.005547
忻揚馥群,DA04000081,南山里,新北市中和區南山里8鄰南山路235號,1,552.0,中和派出所,,121.50367,24.993117
雙和聚富,DA04000082,瓦?里,新北市中和區瓦?里18鄰南工路113號,1,216.0,中和派出所,,121.50723,25.003932
私人住宅大樓,DA04000083,枋寮里,新北市中和區枋寮里中和路283號2樓,1,196.0,中和派出所,,121.506,24.9998
財團法人福和宮,DA04000084,廟美里,新北市中和區廟美里中山路二段189號,1,256.0,中和派出所,,121.5002038,25.00281486
世紀公園,DA05000001,中安里,新北市中和區中安里中安街80號,3,819.0,安平派出所,,121.51211,25.001848
新時代,DA05000002,景平里,新北市中和區景平里安樂路18號,2,131.0,安平派出所,,121.51183,24.99203
站前儷晶大廈,DA05000003,中安里,新北市中和區中安里永貞路249巷10號,2,497.0,安平派出所,,121.51263,25.003783
私人住宅大樓,DA05000004,中安里,新北市中和區中安里中安街106號,2,99.0,安平派出所,,121.51138,25.000997
泰安大廈,DA05000005,泰安里,新北市中和區泰安里中和路252巷1號,1,220.0,安平派出所,,121.50761,24.999331
太陽花,DA05000006,中安里,新北市中和區中安里永貞路239巷20號,1,557.0,安平派出所,,121.51244,25.003103
得意歐邸,DA05000007,景平里,新北市中和區景平里景平路159巷19號,1,147.0,安平派出所,,121.5129,24.991525
私人住宅大樓,DA05000008,中安里,新北市中和區中安里永貞路280號,2,191.0,安平派出所,,121.51326,25.004006
雙和邑,DA05000009,泰安里,新北市中和區泰安里景安路10號,2,1064.0,安平派出所,,121.5076,24.998913
宜安吉立,DA05000010,宜安里,新北市中和區宜安里宜安路32號,1,188.0,安平派出所,,121.51282,24.996212
松廈私人住宅大樓,DA05000011,安平里,新北市中和區安平里中和路324巷3弄1號,3,1040.0,安平派出所,,121.50995,25.000887
八方美地,DA05000012,中安里,新北市中和區中安里中安街122號,2,421.0,安平派出所,,121.51102,25.000591
澄品私人住宅大樓,DA05000013,安樂里,新北市中和區安樂里安樂路217巷20弄16號,1,198.0,安平派出所,,121.51352,24.998966
森林公園,DA05000014,中安里,新北市中和區中安里中安街228巷1號,3,582.0,安平派出所,,121.51087,25.000406
私人住宅大樓,DA05000017,宜安里,新北市中和區宜安里安樂路191巷1號,1,423.0,安平派出所,,121.51457,24.998053
公園尊邸社區,DA05000018,中安里,新北市中和區中安里中安街112號,2,461.0,安平派出所,,121.51125,25.000836
冠倫天地,DA05000019,安樂里,新北市中和區安樂里安平路216號,2,718.0,安平派出所,,121.51392,24.999954
無,DA05000020,中安里,新北市中和區中安里永貞路239巷16號,1,480.0,安平派出所,,121.51262,25.003313
華泰椰泉區,DA05000021,安和里,新北市中和區安和里安平路77號,4,6590.0,安平派出所,,121.51014,24.995971
森堡幼兒園,DA05000022,安順里,新北市中和區安順里保健路123號,1,162.0,安平派出所,,121.51237,24.995956
吉第財星,DA05000023,景平里,新北市中和區景平里安樂路1號,2,354.0,安平派出所,,121.51159,24.991895
私人住宅大樓,DA05000024,宜安里,新北市中和區宜安里安樂路217巷27號,1,123.0,安平派出所,,121.51367,24.99819
公寓,DA05000025,安和里,新北市中和區安和里保健路46巷25號,1,605.0,安平派出所,,121.50899,24.996035
福華名廈,DA05000026,宜安里,新北市中和區宜安里安樂路191巷9號,1,188.0,安平派出所,,121.51451,24.99793
春池幼兒園,DA05000027,宜安里,新北市中和區宜安里宜安路112號,2,1691.0,安平派出所,,121.51213,24.996823
甜蕃茄,DA05000028,安順里,新北市中和區安順里安平路36巷1號,2,3234.0,安平派出所,,121.51018,24.995036
公寓,DA05000029,安平里,新北市中和區安平里中安街178巷13弄2號,1,173.0,安平派出所,,121.51014,24.9986
捷運首府,DA05000030,中安里,新北市中和區中安里中和路456號,3,777.0,安平派出所,,121.51218,25.00373
美術館A區,DA05000031,安樂里,新北市中和區安樂里宜安路118巷26號,3,1249.0,安平派出所,,121.51118,24.998761
宜家花園,DA05000032,安順里,新北市中和區安順里宜安路49號,1,836.0,安平派出所,,121.51178,24.996689
中安私人住宅大樓,DA05000033,中安里,新北市中和區中安里中安街40巷2號,2,582.0,安平派出所,,121.51279,25.002993
公園7-11大廈,DA05000034,中安里,新北市中和區中安里新興街17巷1號,1,22.0,安平派出所,,121.51229,25.002578
四季公園,DA05000035,中安里,新北市中和區中安里中安街96號,2,771.0,安平派出所,,121.51173,25.001401
中安私人住宅大樓,DA05000036,中安里,新北市中和區中安里中安街16號,1,206.0,安平派出所,,121.51332,25.003208
捷運洋洋,DA05000037,中安里,新北市中和區中安里中和路386號,1,72.0,安平派出所,,121.5108,25.002175
六合家園,DA05000038,宜安里,新北市中和區宜安里安樂路143巷20號,2,1130.0,安平派出所,,121.51309,24.996722
皇家豪景,DA05000039,安樂里,新北市中和區安樂里中安街200號,3,714.0,安平派出所,,121.5116,24.998944
捷運旺角,DA05000040,景平里,新北市中和區景平里景平路396號,3,447.0,安平派出所,,121.50986,24.993076
時代金融中心大樓,DA05000041,中安里,新北市中和區中安里中和路366號,3,945.0,安平派出所,,121.51056,25.001908
川螢商業大樓,DA05000042,景平里,新北市中和區景平里景新街347號,1,428.0,安平派出所,,121.51206,24.990981
公寓,DA05000043,安平里,新北市中和區安平里中和路262巷24弄17號,1,81.0,安平派出所,,121.51013,24.99887
快易居,DA05000044,景平里,新北市中和區景平里景平路288號,3,1811.0,安平派出所,,121.51335,24.992921
黃金傳奇A、B棟,DA05000045,中安里,新北市中和區中安里永貞路262巷5號,2,425.0,安平派出所,,121.51353,25.003978
千禧歐邸,DA05000047,景平里,新北市中和區景平里景平路159巷31號,1,30.0,安平派出所,,121.51307,24.991085
黃金傳奇C棟,DA05000048,中安里,新北市中和區中安里永貞路274號,2,311.0,安平派出所,,121.51341,25.00388
國立臺灣圖書館,DA05000049,中安里,新北市中和區中安里中安街85號,1,6560.0,安平派出所,,121.5123,25.001618
宜家樓,DA05000050,安順里,新北市中和區安順里宜安路3號,1,402.0,安平派出所,,121.51338,24.995446
安家樓,DA05000051,安順里,新北市中和區安順里宜安路15號,1,194.0,安平派出所,,121.51312,24.995674
台北MRT花園,DA05000053,景平里,新北市中和區景平里景平路296號,1,952.0,安平派出所,,121.51253,24.992932
君子集大廈,DA05000054,安順里,新北市中和區安順里安樂路69號,1,568.0,安平派出所,,121.51244,24.993914
美麗永安社區(一期),DA05000055,中安里,新北市中和區中安里中和路390號,4,1011.0,安平派出所,,121.51101,25.002397
私人住宅大樓,DA05000056,景平里,新北市中和區景平里景平路169巷22號,1,204.0,安平派出所,,121.51235,24.991958
中和之星,DA05000057,景平里,新北市中和區景平里景平路392號,3,573.0,安平派出所,,121.51026,24.993072
美麗永安社區(二期),DA05000058,中安里,新北市中和區中安里中和路402號,4,854.0,安平派出所,,121.51125,25.002666
捷韻麗境,DA05000059,景平里,新北市中和區景平里景平路402號,1,111.0,安平派出所,,121.50921,24.993192
宜安100,DA05000060,安樂里,新北市中和區安樂里宜安路98號,1,163.0,安平派出所,,121.5107,24.997746
冠德新世界,DA05000061,景平里,新北市中和區景平里景平151號,1,1738.0,安平派出所,,121.51354,24.991982
景安居易,DA05000062,景平里,新北市中和區景平里安平路1號,1,74.0,安平派出所,,121.50885,24.99343
永安麗苑,DA05000063,安平里,新北市中和區安平里中和路350巷8弄26號,1,130.0,安平派出所,,121.51017,25.000377
輕鬆go,DA05000064,景平里,新北市中和區景平里景平路151巷24號,2,206.0,安平派出所,,121.51412,24.991105
一品花園,DA05000065,宜安里,新北市中和區宜安里安樂路211號,1,178.0,安平派出所,,121.51425,24.998735
攬翠私人住宅大樓,DA05000066,景平里,新北市中和區景平里安平路5巷2號,1,184.0,安平派出所,,121.50863,24.993849
名城商業大樓,DA05000067,安平里,新北市中和區安平里景安路1號,2,369.0,安平派出所,,121.50825,24.999302
協合紀-森活館,DA05000068,安平里,新北市中和區安平里宜安路168巷6號,1,294.0,安平派出所,,121.50923,24.9993
香里園,DA05000069,安樂里,新北市中和區安樂里宜安路92巷16號,1,348.0,安平派出所,,121.5112,24.99807
協和紀-樂活館,DA05000070,安平里,新北市中和區安平里宜安路168巷19號,1,1150.0,安平派出所,,121.50911,24.99948
勝興采悅,DA05000071,景平里,新北市中和區景平里景平路159巷24號,1,155.0,安平派出所,,121.51258,24.99177
齊家一品苑,DA05000072,宜安里,新北市中和區宜安里宜安路38-6號,2,653.0,安平派出所,,121.51229,24.996607
華鋐菁美,DA05000073,安樂里,新北市中和區安樂里安平路156巷8號,1,59.0,安平派出所,,121.51304,24.997921
晶悅,DA05000074,景平里,新北市中和區景平里景平路159巷28號,1,162.0,安平派出所,,121.51263,24.99168
私人住宅大樓,DA05000075,泰安里,新北市中和區泰安里景安路58號,1,128.0,安平派出所,,121.50665,24.997805
私人住宅大樓,DA05000076,宜安里,新北市中和區宜安里宜安路50號,1,140.0,安平派出所,,121.51213,24.996823
和和砌,DA05000077,宜安里,新北市中和區宜安里安樂路217巷1號,1,249.0,安平派出所,,121.51408,24.998686
?捷一品,DA05000078,景平里,新北市中和區景平里景平路402之2號,1,207.0,安平派出所,,121.50912,24.993222
宜安君品,DA05000079,宜安里,新北市中和區宜安里1鄰宜安路18巷22號,1,135.0,安平派出所,,121.51385,24.996469
綠inn,DA05000080,中安里,新北市中和區中安里16鄰中安街88號,1,343.0,安平派出所,,121.51192,25.001684
太陽帝國,DA05000081,景平里,新北市中和區景平里17鄰安樂路2巷18號,1,1700.0,安平派出所,,121.51222,24.991671
私人住宅大樓,DA05000082,安樂里,新北市中和區安樂里安平路178號,1,69.0,安平派出所,,121.51295,24.998809
領世館,DA06000001,明穗里,新北市中和區明穗里民享街116號,1,256.0,國光派出所,,121.47443,24.99896
領世館,DA06000002,明穗里,新北市中和區明穗里民享街116巷1號,1,645.0,國光派出所,,121.47424,24.998717
華福凱旋門,DA06000003,壽德里,新北市中和區壽德里華福街4巷16號,1,196.0,國光派出所,,121.46562,24.996358
海山龍珠二期,DA06000004,明德里,新北市中和區明德里華安街16號,2,1011.0,國光派出所,,121.46612,24.997985
私人住宅大樓,DA06000005,明德里,新北市中和區明德里華安街16巷1號,2,447.0,國光派出所,,121.46615,24.998266
壽德新村甲區,DA06000006,壽德里,新北市中和區壽德里壽德街25號,1,8342.0,國光派出所,,121.46618,24.995064
壽德新村丁區,DA06000007,壽德里,新北市中和區壽德里華順街135巷5號,1,742.0,國光派出所,,121.46573,24.996202
民德停車場,DA06000008,清穗里,新北市中和區清穗里民德路188號,1,2140.0,國光派出所,,121.46823,24.999014
天下第一家,DA06000009,民生里,新北市中和區民生里德光路104號,1,365.0,國光派出所,,121.46829,25.003441
書香園,DA06000010,自強里,新北市中和區自強里民德路148號,1,184.0,國光派出所,,121.46855,25.00033
滿堂彩大廈,DA06000011,瑞穗里,新北市中和區瑞穗里莒光路47號,1,397.0,國光派出所,,121.47222,25.004693
自強國中,DA06000012,明穗里,新北市中和區明穗里莒光路191號,1,407.0,國光派出所,,121.47264,24.998838
私人住宅大樓,DA06000013,壽德里,新北市中和區壽德里華順街120號,1,105.0,國光派出所,,121.46509,24.996559
綠大郡,DA06000014,民生里,新北市中和區民生里德光路38號,3,2554.0,國光派出所,,121.47036,25.004325
喜來登,DA06000015,自強里,新北市中和區自強里民德路171巷2號,3,1229.0,國光派出所,,121.46879,24.999466
私人住宅大樓,DA06000016,壽德里,新北市中和區壽德里華福街4巷6號,1,525.0,國光派出所,,121.46548,24.996539
海山大地,DA06000017,民生里,新北市中和區民生里德光路114號,2,1097.0,國光派出所,,121.46799,25.003642
公寓,DA06000018,冠穗里,新北市中和區冠穗里民享街36巷5號,1,128.0,國光派出所,,121.47324,25.002949
海山龍珠,DA06000020,明德里,新北市中和區明德里華安街16巷5號,1,2300.0,國光派出所,,121.46626,24.997802
中山學府,DA06000021,瑞穗里,新北市中和區瑞穗里中山路三段183號,2,714.0,國光派出所,,121.47259,25.006108
櫻花公園,DA06000022,清穗里,新北市中和區清穗里華順街30巷16號,2,2578.0,國光派出所,,121.46685,24.999182
自強國中,DA06000023,明穗里,新北市中和區明穗里莒光路191號,1,893.0,國光派出所,,121.47264,24.998838
壽德乙區,DA06000024,壽德里,新北市中和區壽德里壽德街12號,1,4375.0,國光派出所,,121.46518,24.995355
壽德丙區,DA06000025,壽德里,新北市中和區壽德里華順街136號,1,1908.0,國光派出所,,121.46479,24.996073
華福活動中心,DA06000026,明德里,新北市中和區明德里民德路311號,1,444.0,國光派出所,,121.46735,24.994784
合康愛琴,DA06000027,民生里,新北市中和區民生里德光路96巷33號,2,700.0,國光派出所,,121.46801,25.004231
民德麗境,DA06000028,自強里,新北市中和區自強里民德路140號,1,156.0,國光派出所,,121.46862,25.000552
皇家經典,DA06000029,德穗里,新北市中和區德穗里莒光路146號,3,1422.0,國光派出所,,121.47248,25.000883
築夢苑,DA06000030,壽德里,新北市中和區壽德里華福街2之2號,1,192.0,國光派出所,,121.46497,24.996856
四季紐約,DA06000031,瑞穗里,新北市中和區瑞穗里中山路三段146號,3,5197.0,國光派出所,,121.47365,25.00637
自強國小,DA06000032,自強里,新北市中和區自強里莒光路200號,1,2212.0,國光派出所,,121.4719,24.998463
蝦皮店到店,DA06000033,德穗里,新北市中和區德穗里德光路19號,1,143.0,國光派出所,,121.47104,25.004263
公寓,DA06000034,德穗里,新北市中和區德穗里德光路15巷2號,1,228.0,國光派出所,,121.47116,25.004162
公寓,DA06000035,德穗里,新北市中和區德穗里德光路15巷23號,1,235.0,國光派出所,,121.47148,25.003336
公寓,DA06000036,德穗里,新北市中和區德穗里德光路15巷11號,1,238.0,國光派出所,,121.47139,25.003817
公寓,DA06000037,德穗里,新北市中和區德穗里德光路13號,1,241.0,國光派出所,,121.47123,25.004364
公寓,DA06000038,德穗里,新北市中和區德穗里德光路22號,1,534.0,國光派出所,,121.47095,25.0045
公寓,DA06000039,德穗里,新北市中和區德穗里德光路15巷14號,1,304.0,國光派出所,,121.47126,25.003686
勝輝恆美,DA06000043,國華里,新北市中和區國華里國光街56號,1,579.0,國光派出所,,121.47063,25.000364
自強國小,DA06000045,自強里,新北市中和區自強里莒光路200號,1,586.0,國光派出所,,121.4719,24.998463
公寓,DA06000046,德穗里,新北市中和區德穗里莒光路134號,1,1043.0,國光派出所,,121.47243,25.001384
自強國小,DA06000047,自強里,新北市中和區自強里莒光路200號,1,450.0,國光派出所,,121.4719,24.998463
公寓,DA06000048,冠穗里,新北市中和區冠穗里民享街86巷22號,1,491.0,國光派出所,,121.47351,25.000757
公寓,DA06000049,冠穗里,新北市中和區冠穗里莒光路151號,1,425.0,國光派出所,,121.47278,25.001018
公寓,DA06000053,明穗里,新北市中和區明穗里民享街496巷1號,1,374.0,國光派出所,,121.46952,24.991892
公寓,DA06000055,明穗里,新北市中和區明穗里民享街482號,1,360.0,國光派出所,,121.46935,24.99235
公寓,DA06000057,德穗里,新北市中和區德穗里民生街23巷5號,1,424.0,國光派出所,,121.47119,25.004906
公寓,DA06000063,國華里,新北市中和區國華里國光街30號,1,144.0,國光派出所,,121.47148,25.000349
公寓,DA06000064,國華里,新北市中和區國華里國光街102巷48號,1,845.0,國光派出所,,121.47146,25.000626
名人花園廣場,DA06000068,冠穗里,新北市中和區冠穗里民享街36巷1號,1,824.0,國光派出所,,121.4734,25.002926
自強國小,DA06000069,自強里,新北市中和區自強里莒光路200號,1,493.0,國光派出所,,121.4719,24.998463
自強國小,DA06000072,自強里,新北市中和區自強里莒光路200號,1,1298.0,國光派出所,,121.4719,24.998463
自強國小,DA06000073,自強里,新北市中和區自強里莒光路200號,1,918.0,國光派出所,,121.4719,24.998463
私人住宅大樓,DA06000074,國華里,新北市中和區國華里國光街112巷9號,1,194.0,國光派出所,,121.46963,25.001413
私人住宅大樓,DA06000075,自強里,新北市中和區自強里國光街205巷1號,1,392.0,國光派出所,,121.46702,25.001503
私人住宅大樓,DA06000076,自強里,新北市中和區自強里國光街205巷8號,1,850.0,國光派出所,,121.46714,25.001121
私人住宅大樓,DA06000077,國光里,新北市中和區國光里國光街112巷22弄15號,1,194.0,國光派出所,,121.47018,25.002461
公寓,DA06000078,自強里,新北市中和區自強里國光街205巷2號,1,423.0,國光派出所,,121.4668,25.001905
方德夢想家,DA06000079,自強里,新北市中和區自強里民德路158號,1,809.0,國光派出所,,121.46846,24.99995
私人住宅大樓,DA06000080,德穗里,新北市中和區德穗里德光路21號,1,168.0,國光派出所,,121.47096,25.004247
私人住宅大樓,DA06000081,壽德里,新北市中和區壽德里華順街118號,1,146.0,國光派出所,,121.46515,24.996644
公寓,DA06000082,明穗里,新北市中和區明穗里莒光路177巷6號,1,242.0,國光派出所,,121.47319,24.999109
嘉英文理補習班,DA06000083,明穗里,新北市中和區明穗里莒光路177巷2號,2,997.0,國光派出所,,121.47293,24.999193
私人住宅大樓,DA06000084,明德里,新北市中和區明德里華順街58號,1,180.0,國光派出所,,121.46554,24.998463
大順名門,DA06000085,國光里,新北市中和區國光里德光路125號,2,1961.0,國光派出所,,121.46784,25.002738
天下為公NO.2,DA06000086,國光里,新北市中和區國光里民德路26號,2,3559.0,國光派出所,,121.4682,25.0029
大順天廈,DA06000087,壽德里,新北市中和區壽德里民德路376號,2,1569.0,國光派出所,,121.46556,24.994598
大順天廈,DA06000088,壽德里,新北市中和區壽德里民德路394號,2,2002.0,國光派出所,,121.46601,24.993835
公寓,DA06000089,民生里,新北市中和區民生里民生街2號,1,311.0,國光派出所,,121.47099,25.006469
公寓,DA06000090,民生里,新北市中和區民生里民生街50號,2,201.0,國光派出所,,121.46937,25.005181
公寓,DA06000091,民生里,新北市中和區民生里民生街20號,2,580.0,國光派出所,,121.47016,25.005465
頂天立地,DA06000092,國華里,新北市中和區國華里民德路39號,2,1826.0,國光派出所,,121.4691,25.002148
鴻運貴族,DA06000093,自強里,新北市中和區自強里民德路95號,1,579.0,國光派出所,,121.46898,25.001014
自強國中,DA06000094,明穗里,新北市中和區明穗里莒光路191號,1,1730.0,國光派出所,,121.47264,24.998838
私人住宅大樓,DA06000095,國光里,新北市中和區國光里德光路115號,1,387.0,國光派出所,,121.46805,25.002637
私人住宅大樓,DA06000096,壽德里,新北市中和區壽德里和平路220號,1,384.0,國光派出所,,121.46417,24.996234
文邑2,DA06000097,自強里,新北市中和區自強里民德路155號,1,838.0,國光派出所,,121.46876,25.000045
尊爵富邑,DA06000098,自強里,新北市中和區自強里莒光路84巷30號,1,1726.0,國光派出所,,121.47262,24.99965
私人住宅大樓,DA06000099,自強里,新北市中和區自強里國光街203號,1,106.0,國光派出所,,121.46695,25.001868
私人住宅大樓,DA06000100,壽德里,新北市中和區壽德里華順街135巷6號,1,133.0,國光派出所,,121.46524,24.99613
勝輝NEXT1,DA06000101,德穗里,新北市中和區德穗里中山路三段215號,1,431.0,國光派出所,,121.4714,25.00642
公寓,DA06000102,民生里,新北市中和區民生里民生街32號,1,54.0,國光派出所,,121.46992,25.005376
私人住宅大樓,DA06000103,清穗里,新北市中和區清穗里國光街215巷24弄10號,1,267.0,國光派出所,,121.46643,25.000049
屋豐香,DA06000104,自強里,新北市中和區自強里民德路163號,1,179.0,國光派出所,,121.4687,24.999743
喜全森鑄,DA06000105,國光里,新北市中和區國光里國光街42號,1,422.0,國光派出所,,121.46862,25.001321
私人住宅大樓,DA06000106,清穗里,新北市中和區清穗里12鄰國光街215巷8弄1號,1,951.0,國光派出所,,121.46653,25.001256
麗泉皇宮,DA07000001,連城里,新北市中和區連城里連城路89巷48號,1,795.0,錦和派出所,,121.49745,24.998532
景安贊,DA07000002,正行里,新北市中和區正行里中正路140號,1,556.0,錦和派出所,,121.49924,24.99388
圓通新家,DA07000003,力行里,新北市中和區力行里圓通路218號,12,186.0,錦和派出所,,121.49548,24.993181
優秀賞,DA07000004,連城里,新北市中和區連城里連勝街50號,1,122.0,錦和派出所,,121.49779,24.997435
安邦綠苑乙區,DA07000005,連城里,新北市中和區連城里連勝街87號,1,761.0,錦和派出所,,121.49604,24.996086
安邦綠苑甲區,DA07000006,連城里,新北市中和區連城里連城路171巷2號,1,2676.0,錦和派出所,,121.49538,24.997398
寶成世紀皇家c區,DA07000007,力行里,新北市中和區力行里連勝街57巷11號,1,211.0,錦和派出所,,121.49791,24.996869
私人住宅大樓,DA07000008,力行里,新北市中和區力行里連勝街57巷10號,1,444.0,錦和派出所,,121.49782,24.99679
潤泰一品,DA07000009,錦中里,新北市中和區錦中里圓通路256號,1,193.0,錦和派出所,,121.49337,24.991036
世紀皇家,DA07000010,力行里,新北市中和區力行里連勝街57巷25號,2,1450.0,錦和派出所,,121.49849,24.99666
錦和高中,DA07000011,錦中里,新北市中和區錦中里錦和路163號,1,2350.0,錦和派出所,,121.49109,24.99254
錦和名門,DA07000012,錦和里,新北市中和區錦和里圓通路405號,2,4234.0,錦和派出所,,121.48947,24.988772
錦河園,DA07000013,錦盛里,新北市中和區錦盛里圓通路305巷18號,2,1404.0,錦和派出所,,121.49486,24.988874
維多利亞,DA07000014,錦盛里,新北市中和區錦盛里圓通路305巷5弄50號,1,883.0,錦和派出所,,121.49482,24.989988
天賜良緣,DA07000015,錦中里,新北市中和區錦中里圓通路262號,2,1442.0,錦和派出所,,121.49307,24.990938
百順香榭,DA07000016,力行里,新北市中和區力行里圓通路158巷2號,1,543.0,錦和派出所,,121.49772,24.99606
崇德文教,DA07000017,錦昌里,新北市中和區錦昌里圓通路367巷33弄34號,2,834.0,錦和派出所,,121.49435,24.984117
中正富邑,DA07000018,正行里,新北市中和區正行里中正路156號,1,281.0,錦和派出所,,121.4987,24.993905
公寓,DA07000019,力行里,新北市中和區力行里圓通路176號,2,765.0,錦和派出所,,121.49687,24.994475
公寓,DA07000020,錦中里,新北市中和區錦中里圓通路252巷2號,1,217.0,錦和派出所,,121.49329,24.991637
天喜社區,DA07000021,德行里,新北市中和區德行里中正路167巷21號,1,2198.0,錦和派出所,,121.49889,24.992685
御林園養護中心,DA07000022,錦昌里,新北市中和區錦昌里圓通路367巷33弄6號,1,791.0,錦和派出所,,121.49382,24.985053
私人住宅大樓,DA07000023,連城里,新北市中和區連城里安邦街91號,1,208.0,錦和派出所,,121.49716,24.99633
私人住宅大樓,DA07000024,連城里,新北市中和區連城里安邦街83號,1,207.0,錦和派出所,,121.49702,24.996534
私人住宅大樓,DA07000025,連城里,新北市中和區連城里連城路91號,2,1724.0,錦和派出所,,121.49668,24.999901
公寓,DA07000026,連城里,新北市中和區連城里連城路127巷32號,1,1068.0,錦和派出所,,121.4968,24.997987
雙和新城,DA07000027,力行里,新北市中和區力行里圓通路198巷6號,1,1993.0,錦和派出所,,121.49567,24.994675
快邑通,DA07000028,力行里,新北市中和區力行里中正路281號,2,625.0,錦和派出所,,121.49486,24.993707
天晴社區,DA07000029,德行里,新北市中和區德行里中正路171號,2,1677.0,錦和派出所,,121.49808,24.993694
布拉格,DA07000030,正行里,新北市中和區正行里中正路196號,1,699.0,錦和派出所,,121.49733,24.994008
優悅賞,DA07000031,力行里,新北市中和區力行里連勝街59號,2,813.0,錦和派出所,,121.49766,24.997074
茵悅花園,DA07000032,錦昌里,新北市中和區錦昌里圓通路335巷33弄33號,12,3200.0,錦和派出所,,121.49353,24.988811
私人住宅大樓,DA07000033,錦和里,新北市中和區錦和里圓通路403號,1,220.0,錦和派出所,,121.48931,24.989084
肯仲富裕,DA07000034,德行里,新北市中和區德行里中正路167巷56號,2,456.0,錦和派出所,,121.49883,24.992526
夢蘿社區,DA07000035,德行里,新北市中和區德行里圓通路299巷1號,2,619.0,錦和派出所,,121.49575,24.991091
羅馬社區,DA07000036,德行里,新北市中和區德行里圓通路299巷48弄1號,3,1570.0,錦和派出所,,121.49562,24.990906
雙和醫院,DA07000037,力行里,新北市中和區力行里中正路291號,2,7404.0,錦和派出所,,121.49408,24.993746
合康雙捷市,DA07000038,德行里,新北市中和區德行里中正路211巷36弄7號,3,1915.0,錦和派出所,,121.4971,24.992688
漢寶國宴,DA07000039,錦中里,新北市中和區錦中里圓通路274號,2,888.0,錦和派出所,,121.49229,24.990826
森之郡,DA07000040,德行里,新北市中和區德行里圓通路299巷2號,3,2176.0,錦和派出所,,121.49493,24.991339
圓通世家,DA07000041,力行里,新北市中和區力行里圓通路228號,2,143.0,錦和派出所,,121.49511,24.993003
公寓,DA07000046,錦盛里,新北市中和區錦盛里圓通路305巷5弄22號,1,220.0,錦和派出所,,121.49425,24.989997
錦和國小,DA07000051,錦中里,新北市中和區錦中里圓通路292號,1,788.0,錦和派出所,,121.48957,24.98947
手工包子店,DA07000052,連城里,新北市中和區連城里連城路193號,1,376.0,錦和派出所,,121.49497,24.998011
錦和國小,DA07000053,錦中里,新北市中和區錦中里圓通路292號,1,524.0,錦和派出所,,121.48957,24.98947
公寓,DA07000061,連城里,新北市中和區連城里連城路75巷7號,1,200.0,錦和派出所,,121.4983,24.998684
公寓,DA07000062,連城里,新北市中和區連城里連城路75巷6弄1號,1,364.0,錦和派出所,,121.49813,24.998735
錦和國小,DA07000064,錦中里,新北市中和區錦中里圓通路292號,1,2215.0,錦和派出所,,121.48957,24.98947
潑墨山莊,DA07000081,錦和里,新北市中和區錦和里圓通路369巷36弄1號,1,756.0,錦和派出所,,121.48978,24.983775
華南智慧私人住宅大樓,DA07000090,建和里,新北市中和區建和里連城路265巷2號,1,645.0,錦和派出所,,121.49132,24.996185
銀河璇宮,DA07000091,力行里,新北市中和區力行里連勝街21號,1,586.0,錦和派出所,,121.49863,24.998059
台貿一城,DA07000094,建和里,新北市中和區建和里連城路263巷5弄1號,1,446.0,錦和派出所,,121.49236,24.99632
錦和國小,DA07000095,錦中里,新北市中和區錦中里圓通路292號,1,986.0,錦和派出所,,121.48957,24.98947
捷運星鑽,DA07000096,力行里,新北市中和區力行里圓通路120號,1,279.0,錦和派出所,,121.499,24.996137
大呼過癮,DA07000099,正行里,新北市中和區正行里圓通路187號,1,214.0,錦和派出所,,121.49744,24.99464
國泰私人住宅大樓,DA07000100,力行里,新北市中和區力行里中正路279號,1,575.0,錦和派出所,,121.49499,24.9937
錦和國小,DA07000101,錦中里,新北市中和區錦中里圓通路292號,1,772.0,錦和派出所,,121.48957,24.98947
公寓,DA07000102,建和里,新北市中和區建和里中正路432巷1號,1,114.0,錦和派出所,,121.49088,24.995372
私人住宅大樓,DA07000103,建和里,新北市中和區建和里連城路263巷25號,1,183.0,錦和派出所,,121.4928,24.994778
鴻正防水公司,DA07000104,錦昌里,新北市中和區錦昌里圓通路367巷1號,1,138.0,錦和派出所,,121.4922,24.988597
私人住宅大樓,DA07000105,正行里,新北市中和區正行里中正路166號,2,313.0,錦和派出所,,121.49841,24.993918
私人住宅大樓,DA07000106,建和里,新北市中和區建和里連城路267號,2,556.0,錦和派出所,,121.49104,24.996275
富貴麗景,DA07000107,德行里,新北市中和區德行里中正路167巷20號,12,1436.0,錦和派出所,,121.4981,24.992487
私人住宅大樓,DA07000108,建和里,新北市中和區建和里連城路263巷17號,1,173.0,錦和派出所,,121.49259,24.99507
公寓,DA07000109,連城里,新北市中和區連城里連城路127巷7號,1,394.0,錦和派出所,,121.49641,24.998881
台北桂冠,DA07000110,德行里,新北市中和區德行里圓通路293號,12,4754.0,錦和派出所,,121.49497,24.992492
公寓,DA07000111,錦中里,新北市中和區錦中里圓通路252巷1號,1,111.0,錦和派出所,,121.49349,24.99117
喜臨門NO.3,DA07000112,錦中里,新北市中和區錦中里圓通路252巷17號,1,262.0,錦和派出所,,121.493,24.991588
私人住宅大樓,DA07000113,正行里,新北市中和區正行里圓通路141巷41號,1,549.0,錦和派出所,,121.49879,24.994628
私人住宅大樓,DA07000114,錦中里,新北市中和區錦中里圓通路252巷5弄2號,1,167.0,錦和派出所,,121.49328,24.99147
錦和國小,DA07000115,錦中里,新北市中和區錦中里圓通路292號,1,1818.0,錦和派出所,,121.48957,24.98947
統一超商,DA07000116,錦中里,新北市中和區錦中里圓通路278號,1,563.0,錦和派出所,,121.49179,24.990756
皇后大道,DA07000117,正行里,新北市中和區正行里中正路216號,2,1011.0,錦和派出所,,121.49655,24.99402
捷運森林,DA07000118,德行里,新北市中和區德行里中正路211巷40號,1,1960.0,錦和派出所,,121.4979,24.992545
公寓,DA07000119,連城里,新北市中和區連城里連城路109巷42號,1,205.0,錦和派出所,,121.49727,24.997711
成真幼稚園,DA07000120,力行里,新北市中和區力行里圓通路160號,2,360.0,錦和派出所,,121.49776,24.995642
美國華城,DA07000121,連城里,新北市中和區連城里連城路89巷32號,3,771.0,錦和派出所,,121.49731,24.998838
我的故鄉,DA07000122,力行里,新北市中和區力行里圓通路240巷5號,2,1220.0,錦和派出所,,121.49434,24.992735
天下為公,DA07000123,力行里,新北市中和區力行里中正路267號,2,1221.0,錦和派出所,,121.49569,24.993318
美國華城C棟,DA07000124,連城里,新北市中和區連城里連城路89巷5號,3,2169.0,錦和派出所,,121.49716,24.999603
喜臨門NO.1,DA07000125,錦中里,新北市中和區錦中里圓通路252巷7號,1,162.0,錦和派出所,,121.49319,24.991517
公寓,DA07000126,連城里,新北市中和區連城里連城路109巷34號,1,231.0,錦和派出所,,121.49703,24.998103
銀河儷人,DA07000127,正行里,新北市中和區正行里圓通路135號,2,513.0,錦和派出所,,121.49904,24.995829
私人住宅大樓,DA07000128,力行里,新北市中和區力行里圓通路162號,1,350.0,錦和派出所,,121.49752,24.995548
新喬福保齡球館,DA07000129,錦中里,新北市中和區錦中里錦和路388號,1,1587.0,錦和派出所,,121.49045,24.99059
國泰晶鑽,DA07000130,德行里,新北市中和區德行里圓通路297巷9弄2號,12,1359.0,錦和派出所,,121.4953,24.991564
瑞星牙醫,DA07000131,力行里,新北市中和區力行里安邦街130號,1,153.0,錦和派出所,,121.49739,24.995617
連勝私人住宅大樓,DA07000132,力行里,新北市中和區力行里連勝街53號,1,168.0,錦和派出所,,121.49783,24.997254
龍田吉市,DA07000133,正行里,新北市中和區正行里中正路138號,3,1116.0,錦和派出所,,121.49939,24.99422
錦和高中,DA07000134,錦中里,新北市中和區錦中里錦和路163號,1,4115.0,錦和派出所,,121.49109,24.99254
世紀皇家,DA07000135,力行里,新北市中和區力行里連勝街9號,3,6419.0,錦和派出所,,121.49912,24.998532
林園豪富,DA07000136,德行里,新北市中和區德行里中正路135號,1,361.0,錦和派出所,,121.49951,24.993445
天下為公A,DA07000137,力行里,新北市中和區力行里中正路277之7號,1,211.0,錦和派出所,,121.49515,24.993522
原宿私人住宅大樓,DA07000138,力行里,新北市中和區力行里圓通路242號,1,312.0,錦和派出所,,121.49442,24.992236
雙和醫院,DA07000139,力行里,新北市中和區力行里中正路291號,3,2433.0,錦和派出所,,121.49408,24.993746
錦和聚,DA07000140,錦中里,新北市中和區錦中里圓通路296巷7號,1,907.0,錦和派出所,,121.48775,24.989355
奧登科技公司,DA07000141,錦盛里,新北市中和區錦盛里圓通路305巷16號,1,79.0,錦和派出所,,121.49418,24.989444
將捷美華社區,DA07000143,建和里,新北市中和區建和里中正路426號,1,175.0,錦和派出所,,121.4915,24.994301
漢保雙捷贊,DA07000144,連城里,新北市中和區連城里景平路571號,4,350.0,錦和派出所,,121.49788,24.999875
連勝富邑,DA07000145,連城里,新北市中和區連城里連勝街93號,1,161.0,錦和派出所,,121.49556,24.996225
雙和醫院,DA07000146,錦盛里,新北市中和區錦盛里14鄰圓通路301號,2,3603.0,錦和派出所,,121.49418,24.991235
公寓,DA07000147,錦中里,新北市中和區錦中里5鄰圓通路252巷5弄1號,1,55.0,錦和派出所,,121.49341,24.991384
千德晴靚,DA07000148,錦昌里,新北市中和區錦昌里11鄰圓通路367巷13弄58號,1,335.0,錦和派出所,,121.49345,24.987492
私人住宅大樓,DA07000149,建和里,新北市中和區建和里1鄰連城路255號,1,675.0,錦和派出所,,121.49282,24.996654
崇德文化教育基金會,DA07000150,錦昌里,新北市中和區錦昌里圓通路367巷33弄32之6號2樓,1,531.0,錦和派出所,,121.4948686,24.98537714
永邦恆美社區,DA07000151,錦盛里,新北市中和區錦盛里圓通路305巷5弄57號,2,1114.0,錦和派出所,,121.4950398,24.99045524
飛躍21科技園區,DA08000001,員山里,新北市中和區員山里中山路三段102號,3,4141.0,積穗派出所,,121.4769,25.005955
亞財星科技藝術,DA08000002,員山里,新北市中和區員山里員山路504號,2,3600.0,積穗派出所,,121.47955,25.008096
哥德式國際,DA08000003,員山里,新北市中和區員山里新民街101號,1,407.0,積穗派出所,,121.4804,25.008175
私人住宅大樓,DA08000004,積穗里,新北市中和區積穗里員山路477號,1,114.0,積穗派出所,,121.48011,25.005075
私人住宅大樓,DA08000005,嘉新里,新北市中和區嘉新里員山路327巷68號,1,221.0,積穗派出所,,121.47988,25.002098
捷年高峰,DA08000006,積穗里,新北市中和區積穗里台新街37號,2,684.0,積穗派出所,,121.47958,25.005139
帝國大廈,DA08000007,員富里,新北市中和區員富里中正路1180號,3,1049.0,積穗派出所,,121.48132,25.009903
書香畫境,DA08000008,嘉新里,新北市中和區嘉新里民安街42巷7號,1,847.0,積穗派出所,,121.47829,25.001448
國際企業廣場,DA08000010,員山里,新北市中和區員山里員山路512號,1,1877.0,積穗派出所,,121.4793,25.009013
捷年高昇,DA08000011,積穗里,新北市中和區積穗里台新街5號,2,1781.0,積穗派出所,,121.47933,25.005547
美和診所,DA08000012,積穗里,新北市中和區積穗里中山路三段19號,2,198.0,積穗派出所,,121.47946,25.005891
私人住宅大樓,DA08000013,積穗里,新北市中和區積穗里員山路396號,1,189.0,積穗派出所,,121.48056,25.004677
私人住宅大樓,DA08000014,嘉新里,新北市中和區嘉新里員山路327巷72號,1,385.0,積穗派出所,,121.47975,25.002179
私人住宅大樓,DA08000015,安穗里,新北市中和區安穗里員山路190號,1,400.0,積穗派出所,,121.48142,25.000407
蕙生醫院,DA08000016,積穗里,新北市中和區積穗里中山路551號,2,247.0,積穗派出所,,121.48092,25.005441
齊一停車場,DA08000017,員富里,新北市中和區員富里中山路三段114巷7號,2,3856.0,積穗派出所,,121.47561,25.007702
北城親家,DA08000019,積穗里,新北市中和區積穗里中山路二段523巷32弄1號,3,928.0,積穗派出所,,121.48159,25.003602
私人住宅大樓,DA08000020,民有里,新北市中和區民有里民有街19號,1,126.0,積穗派出所,,121.47583,25.005586
交通部公路總局,DA08000021,民有里,新北市中和區民有里中山路三段79號,1,543.0,積穗派出所,,121.47591,25.005739
民享藝文特區,DA08000022,民有里,新北市中和區民有里自治街67號,2,1771.0,積穗派出所,,121.47558,25.00349
私人住宅大樓,DA08000026,民有里,新北市中和區民有里民享街31巷7號,1,133.0,積穗派出所,,121.47447,25.00437
法國經典,DA08000027,民安里,新北市中和區民安里民利街68巷5弄8號,1,1372.0,積穗派出所,,121.47754,24.999036
經典歐洲,DA08000028,安穗里,新北市中和區安穗里民樂路1號,4,1615.0,積穗派出所,,121.4821,25.0013
環球購物中心,DA08000029,員山里,新北市中和區員山里中山路三段120號,3,12747.0,積穗派出所,,121.47569,25.006053
法國經典,DA08000030,民安里,新北市中和區民安里民利街68巷5弄13號,1,391.0,積穗派出所,,121.47751,24.998736
麗寶水花園,DA08000031,安穗里,新北市中和區安穗里民樂路23號,2,1580.0,積穗派出所,,121.48291,25.001311
養工處,DA08000032,積穗里,新北市中和區積穗里員山路471號,2,662.0,積穗派出所,,121.48015,25.00482
世紀雙星,DA08000033,員山里,新北市中和區員山里中山路三段58號,2,1150.0,積穗派出所,,121.47815,25.005876
全坤富貴賞,DA08000034,員富里,新北市中和區員富里中正路1203號,2,2269.0,積穗派出所,,121.48016,25.010038
元氣大鎮,DA08000035,積穗里,新北市中和區積穗里中山路三段35號,3,11692.0,積穗派出所,,121.47845,25.005926
三盛製衣廠,DA08000036,員山里,新北市中和區員山里中山路三段118-2號,2,778.0,積穗派出所,,121.47503,25.008364
環球薈館社區,DA08000038,員山里,新北市中和區員山里中山路三段118-3號,2,3288.0,積穗派出所,,121.475,25.008639
環球薈館社區,DA08000039,員山里,新北市中和區員山里中山路三段118-18號,2,3254.0,積穗派出所,,121.47482,25.009052
公寓,DA08000044,員富里,新北市中和區員富里員山路611巷6弄1號,1,290.0,積穗派出所,,121.47754,25.010652
公寓,DA08000048,民享里,新北市中和區民享里民享街89巷9弄1號,1,91.0,積穗派出所,,121.47491,25.001795
公寓,DA08000049,民享里,新北市中和區民享里民享街89巷4弄1號,1,454.0,積穗派出所,,121.47513,25.00167
公寓,DA08000051,員富里,新北市中和區員富里員山路581巷31弄2-10號,1,167.0,積穗派出所,,121.47784,25.010314
公寓,DA08000052,員富里,新北市中和區員富里員山路581巷31弄2號,1,73.0,積穗派出所,,121.47721,25.01046
松下電子,DA08000067,員山里,新北市中和區員山里員山路579號,1,1217.0,積穗派出所,,121.47879,25.008734
公寓,DA08000070,員富里,新北市中和區員富里員山路581巷31弄2號,1,78.0,積穗派出所,,121.47721,25.01046
積穗國中日新樓,DA08000071,嘉新里,新北市中和區嘉新里民安街66號,1,337.0,積穗派出所,,121.47893,25.000128
松下電子,DA08000096,員山里,新北市中和區員山里員山路579-2號,1,1388.0,積穗派出所,,121.47879,25.008734
夏威夷社區,DA08000097,民安里,新北市中和區民安里民利街120號,1,1547.0,積穗派出所,,121.47699,24.99709
私人住宅大樓,DA08000099,員富里,新北市中和區員富里中正路1194巷1號,1,953.0,積穗派出所,,121.48055,25.010694
私人住宅大樓,DA08000100,安穗里,新北市中和區安穗里員山路294巷1號,1,168.0,積穗派出所,,121.48174,25.002508
私人住宅大樓,DA08000103,安穗里,新北市中和區安穗里員山路196號,1,202.0,積穗派出所,,121.48138,25.000759
私人住宅大樓,DA08000104,民有里,新北市中和區民有里民享街47號,1,515.0,積穗派出所,,121.47411,25.002823
江南園林,DA08000105,積穗里,新北市中和區積穗里新生街112巷2號,1,2988.0,積穗派出所,,121.483,25.003034
格致樓,DA08000106,嘉新里,新北市中和區嘉新里民安街66號,1,1358.0,積穗派出所,,121.47893,25.000128
私人住宅大樓,DA08000108,員山里,新北市中和區員山里員山路506號,1,1708.0,積穗派出所,,121.47941,25.008627
科學樓,DA08000109,嘉新里,新北市中和區嘉新里民安街66號,1,607.0,積穗派出所,,121.47893,25.000128
私人住宅大樓,DA08000110,員山里,新北市中和區員山里員山路466巷17弄17號,1,166.0,積穗派出所,,121.48043,25.007152
私人住宅大樓,DA08000112,嘉新里,新北市中和區嘉新里員山路437號,1,406.0,積穗派出所,,121.48069,25.003822
消防局(員山分隊),DA08000113,員富里,新北市中和區員富里中正路1163號,1,384.0,積穗派出所,,121.48161,25.009113
明道大樓,DA08000114,嘉新里,新北市中和區嘉新里民安街66號,1,1342.0,積穗派出所,,121.47893,25.000128
法民寺,DA08000115,積穗里,新北市中和區積穗里新民街12號,1,282.0,積穗派出所,,121.48254,25.005973
明道大樓,DA08000116,嘉新里,新北市中和區嘉新里民安街66號,1,1639.0,積穗派出所,,121.47893,25.000128
私人住宅大樓,DA08000117,積穗里,新北市中和區積穗里中山路二段479號,2,150.0,積穗派出所,,121.483,25.00487
私人住宅大樓,DA08000118,員富里,新北市中和區員富里員山路556號,1,115.0,積穗派出所,,121.47895,25.010455
國際工業園區,DA08000119,員山里,新北市中和區員山里員山路502號,2,3443.0,積穗派出所,,121.47977,25.007398
城隍廟,DA08000120,安穗里,新北市中和區安穗里中山路二段523巷56號,1,206.0,積穗派出所,,121.4822,25.002921
大時代花園,DA08000121,民安里,新北市中和區民安里民安街53號,2,1197.0,積穗派出所,,121.47943,24.999877
教學大樓,DA08000122,民有里,新北市中和區民有里中山路三段79號,1,427.0,積穗派出所,,121.47591,25.005739
尊龍社區,DA08000123,安穗里,新北市中和區安穗里員山路176號,1,706.0,積穗派出所,,121.48141,25.000083
萬科隆社區,DA08000124,員山里,新北市中和區員山里中山路三段118號,2,1799.0,積穗派出所,,121.47576,25.006035
安穗里活動中心,DA08000125,安穗里,新北市中和區安穗里員山路294巷5號,2,1003.0,積穗派出所,,121.4819,25.002513
公寓,DA08000126,嘉新里,新北市中和區嘉新里員山路327巷13號,1,437.0,積穗派出所,,121.48062,25.001499
京華大廈,DA08000127,積穗里,新北市中和區積穗里員山路446號,2,475.0,積穗派出所,,121.48019,25.005643
私人住宅大樓,DA08000128,積穗里,新北市中和區積穗里員山路428號,1,181.0,積穗派出所,,121.48029,25.005282
環球購物中心,DA08000129,員山里,新北市中和區員山里中山路三段120號,2,4125.0,積穗派出所,,121.47569,25.006053
植木賞社區,DA08000130,嘉新里,新北市中和區嘉新里員山路327巷88之1號,12,284.0,積穗派出所,,121.47935,25.00245
私人住宅大樓,DA08000131,嘉新里,新北市中和區嘉新里員山路327巷8號,2,352.0,積穗派出所,,121.48105,25.001309
滿福堡大廈,DA08000132,嘉新里,新北市中和區嘉新里員山路387巷2號,2,1054.0,積穗派出所,,121.48089,25.002843
民享雅築,DA08000133,民有里,新北市中和區民有里民享街9號,1,127.0,積穗派出所,,121.47401,25.005614
龍興社區,DA08000134,員富里,新北市中和區員富里中山路三段114巷69號,2,250.0,積穗派出所,,121.47588,25.007821
私人住宅大樓,DA08000135,安穗里,新北市中和區安穗里員山路294巷20號,1,160.0,積穗派出所,,121.48217,25.002264
郡騰民安,DA08000136,民安里,新北市中和區民安里民安街25巷12號,1,121.0,積穗派出所,,121.48055,24.999799
私人住宅大樓,DA08000137,民安里,新北市中和區民安里民利街80號,1,136.0,積穗派出所,,121.4781,24.998225
慈濟,DA08000138,積穗里,新北市中和區積穗里中山路三段41號,1,3924.0,積穗派出所,,121.47744,25.004761
昇陽之冠,DA08000139,員山里,新北市中和區員山里中山路三段114巷56號,4,1037.0,積穗派出所,,121.47589,25.007354
源力時代,DA08000140,安穗里,新北市中和區安穗里員山路316號,1,989.0,積穗派出所,,121.48132,25.003051
默濤院社區,DA08000141,民安里,新北市中和區民安里民安街101號,1,697.0,積穗派出所,,121.47771,24.999453
九泰皇品,DA08000142,員富里,新北市中和區員富里員山路589號,5,2229.0,積穗派出所,,121.47854,25.009643
民有天玥,DA08000143,民有里,新北市中和區民有里民有街35號,1,144.0,積穗派出所,,121.47589,25.005057
漢寶雙星,DA08000144,民安里,新北市中和區民安里民利街68巷3號,3,1063.0,積穗派出所,,121.47806,24.998995
大佳中山高尚,DA08000145,積穗里,新北市中和區積穗里13鄰中山路二段515號,1,184.0,積穗派出所,,121.482,25.005039
FM1廠辦大樓,DA08000146,員山里,新北市中和區員山里新民街27號,1,2134.0,積穗派出所,,121.48242,25.006558
榮耀世家,DA21000001,秀士里,新北市中和區秀士里景平路111巷60弄22號,1,760.0,秀山派出所,,121.51516,24.99086
天空之城綜合私人住宅大樓,DA21000002,秀明里,新北市中和區秀明里景平路258號,2,3796.0,秀山派出所,,121.51491,24.99255
旺築公寓,DA21000003,秀峰里,新北市中和區秀峰里景平路75號,3,546.0,秀山派出所,,121.51812,24.991732
沒有名字,DA21000004,秀福里,新北市中和區秀福里自立路12號,2,4947.0,秀山派出所,,121.52235,24.996312
翠提雙星大廈,DA21000005,秀景里,新北市中和區秀景里成功路25號,1,737.0,秀山派出所,,121.52634,24.9935
私人住宅大樓,DA21000006,秀義里,新北市中和區秀義里秀朗路三段109號,1,44.0,秀山派出所,,121.52649,24.994634
基泰和里社區,DA21000007,秀山里,新北市中和區秀山里自立路30號,2,2823.0,秀山派出所,,121.52255,24.992864
翊盛大地,DA21000008,秀福里,新北市中和區秀福里秀朗路三段2之1號,2,748.0,秀山派出所,,121.52589,24.997389
敦南世中星公寓,DA21000009,秀景里,新北市中和區秀景里景平路40號,2,310.0,秀山派出所,,121.52303,24.990764
東安明廈,DA21000010,秀義里,新北市中和區秀義里秀朗路三段70巷33號,1,377.0,秀山派出所,,121.5255,24.994361
風雅頌二期社區,DA21000011,秀義里,新北市中和區秀義里秀朗路三段70巷6號,1,443.0,秀山派出所,,121.52623,24.99464
德意及第公寓,DA21000012,景本里,新北市中和區景本里景新街423巷33弄17號,2,405.0,秀山派出所,,121.5135,24.989793
唐三彩,DA21000013,秀景里,新北市中和區秀景里成功路86號,1,151.0,秀山派出所,,121.52583,24.991476
秀山國小,DA21000014,秀山里,新北市中和區秀山里立人街2號,1,2213.0,秀山派出所,,121.52116,24.994223
公寓,DA21000015,秀義里,新北市中和區秀義里秀朗路三段60巷69號,1,103.0,秀山派出所,,121.52406,24.994629
尊邸私人住宅大樓,DA21000016,秀福里,新北市中和區秀福里秀朗路三段10巷31弄9號,2,325.0,秀山派出所,,121.52478,24.995788
富耀建設有限公司,DA21000017,秀景里,新北市中和區秀景里秀朗路三段147號,1,82.0,秀山派出所,,121.52491,24.992277
皇普大道東社區,DA21000018,秀峰里,新北市中和區秀峰里景平路59號,4,884.0,秀山派出所,,121.52104,24.991016
冠德旺築,DA21000019,秀峰里,新北市中和區秀峰里景平路73號,2,119.0,秀山派出所,,121.51839,24.99166
冠德住易,DA21000020,秀峰里,新北市中和區秀峰里景德街33號,2,888.0,秀山派出所,,121.51835,24.991235
警信新村,DA21000021,秀峰里,新北市中和區秀峰里秀峰街127巷1號,1,340.0,秀山派出所,,121.51972,24.990886
力霸山河社區,DA21000022,秀景里,新北市中和區秀景里成功路129號,4,2258.0,秀山派出所,,121.52602,24.990823
德意及第公寓,DA21000023,景本里,新北市中和區景本里景新街423巷31號,1,279.0,秀山派出所,,121.51383,24.989629
青年皇家私人住宅大樓,DA21000024,秀景里,新北市中和區秀景里秀朗路三段135巷3號,1,79.0,秀山派出所,,121.52552,24.99237
東帝市私人住宅大樓,DA21000026,秀明里,新北市中和區秀明里景平路170號,6,5941.0,秀山派出所,,121.51699,24.992813
佳易A社區,DA21000027,秀峰里,新北市中和區秀峰里景平路71-5號,4,1806.0,秀山派出所,,121.51887,24.991443
滿築公寓,DA21000028,秀山里,新北市中和區秀山里景平路64巷13弄2號,2,1022.0,秀山派出所,,121.52198,24.991411
德義精品,DA21000029,景本里,新北市中和區景本里景新街423巷27號,1,126.0,秀山派出所,,121.51361,24.989551
風雅頌一期,DA21000030,秀義里,新北市中和區秀義里秀朗路三段70巷9號,1,418.0,秀山派出所,,121.52585,24.994448
龍門居社區,DA21000031,秀士里,新北市中和區秀士里景平路111巷68號,1,966.0,秀山派出所,,121.51503,24.990421
景德名人錄公寓,DA21000032,秀峰里,新北市中和區秀峰里景德街29號,1,320.0,秀山派出所,,121.51853,24.99121
名人錄大廈,DA21000033,秀峰里,新北市中和區秀峰里景德街3號,1,68.0,秀山派出所,,121.51911,24.991316
皇家大道社區,DA21000034,秀山里,新北市中和區秀山里景平路76號,3,557.0,秀山派出所,,121.52181,24.990958
沒有名字,DA21000035,秀福里,新北市中和區秀福里秀朗路三段10巷12弄1之1號,1,165.0,秀山派出所,,121.52545,24.996679
上荷紀,DA21000036,秀仁里,新北市中和區秀仁里大勇街47號,1,1699.0,秀山派出所,,121.51792,24.994963
凱旋門社區,DA21000037,秀士里,新北市中和區秀士里景德街95之8號,1,142.0,秀山派出所,,121.51521,24.99114
杜樂麗社區,DA21000038,秀景里,新北市中和區秀景里成功路99號,2,535.0,秀山派出所,,121.52609,24.991633
萬事達社區,DA21000040,秀仁里,新北市中和區秀仁里大勇街78號,2,2129.0,秀山派出所,,121.51803,24.994879
采會一集社區,DA21000041,秀景里,新北市中和區秀景里成功路8號,1,538.0,秀山派出所,,121.52615,24.993811
秀山麗景公寓,DA21000042,秀仁里,新北市中和區秀仁里自強路18號,1,137.0,秀山派出所,,121.5201,24.995581
漢來喜朵,DA21000043,秀義里,新北市中和區秀義里秀朗路三段93號,1,117.0,秀山派出所,,121.52656,24.99515
森鄰綠社區,DA21000044,景南里,新北市中和區景南里景新街551號,1,748.0,秀山派出所,,121.51504,24.986698
雙捷金鑽社區,DA21000045,秀水里,新北市中和區秀水里景平路150號,1,357.0,秀山派出所,,121.51826,24.992114
遙居社區,DA21000046,秀水里,新北市中和區秀水里大仁街10巷9弄52號,1,91.0,秀山派出所,,121.52006,24.992917
秀峰苑,DA21000047,秀景里,新北市中和區秀景里景平路51號,1,92.0,秀山派出所,,121.52166,24.990509
青年住宅,DA21000048,秀峰里,新北市中和區秀峰里景德街5號,1,3465.0,秀山派出所,,121.51892,24.990735
蒔築私人住宅大樓,DA21000049,秀山里,新北市中和區秀山里自立路16巷5號,1,104.0,秀山派出所,,121.52171,24.99362
亞璞心向,DA21000050,秀士里,新北市中和區秀士里景平路113號,1,278.0,秀山派出所,,121.51672,24.991893
景新立體停車場,DA21000051,景本里,新北市中和區景本里景新街399巷12號,1,808.0,秀山派出所,,121.51304,24.989857
晴好社區,DA21000052,秀仁里,新北市中和區秀仁里大勇街31巷35號,1,155.0,秀山派出所,,121.51706,24.995158
"勝瀚 秀山園社區",DA21000053,秀福里,新北市中和區秀福里自立路17號,1,403.0,秀山派出所,,121.52247,24.996041
仁和薈私人住宅大樓,DA21000054,秀水里,新北市中和區秀水里28鄰大仁街66號,1,279.0,秀山派出所,,121.51931,24.993758
私人住宅大樓,DA21000055,秀福里,新北市中和區秀福里秀朗路3段28號2樓,12,165.0,秀山派出所,,121.52637,24.996516
尼斯公爵社區,DA21000056,秀景里,新北市中和區秀景里成功路22號,1,479.0,秀山派出所,,121.52605,24.99333
新北環狀線秀郎橋站開發案,DA21000057,秀景里,新北市中和區秀景里景平路2之6號,3,1771.0,秀山派出所,,121.524982,24.99087626
金寶石私人住宅大樓,DA23000001,平河里,新北市中和區平河里建一路173號,2,966.0,員山派出所,,121.48826,24.999048
中正福邸私人住宅大樓,DA23000002,平河里,新北市中和區平河里中正路695號,1,614.0,員山派出所,,121.48481,24.998294
中和中正私人住宅大樓,DA23000003,平河里,新北市中和區平河里中正路790號,2,605.0,員山派出所,,121.48553,25.001143
福利旺社區,DA23000004,嘉慶里,新北市中和區嘉慶里連城路571號,1,429.0,員山派出所,,121.47925,24.994464
蒲陽金鑽私人住宅大樓,DA23000005,中山里,新北市中和區中山里中正路488號,2,495.0,員山派出所,,121.4892,24.994461
私人住宅大樓,DA23000006,仁和里,新北市中和區仁和里中正路633號,2,206.0,員山派出所,,121.48521,24.99527
信豐私人住宅大樓,DA23000007,平河里,新北市中和區平河里中山路二段419號,2,478.0,員山派出所,,121.48573,25.004738
公寓,DA23000008,信和里,新北市中和區信和里連城路340巷14弄20號,1,138.0,員山派出所,,121.48287,24.997249
公寓,DA23000009,仁和里,新北市中和區仁和里連城路469巷40號,1,104.0,員山派出所,,121.48342,24.994669
錦繡長江公寓大廈,DA23000010,信和里,新北市中和區信和里民樂路52號,2,1122.0,員山派出所,,121.48324,25.001075
心中市大廈,DA23000011,平河里,新北市中和區平河里中正路673號,1,3788.0,員山派出所,,121.48502,24.996883
中和夢想家大廈,DA23000012,平河里,新北市中和區平河里中正路803號,2,538.0,員山派出所,,121.48469,25.00146
遠東世紀廣場,DA23000013,平河里,新北市中和區平河里中正路726號,3,18461.0,員山派出所,,121.48556,24.997556
景實大廈,DA23000014,平河里,新北市中和區平河里建康路21號,2,410.0,員山派出所,,121.48628,25.000365
私人住宅大樓,DA23000015,平河里,新北市中和區平河里建康路28號,1,178.0,員山派出所,,121.48675,25.000028
漢寶企業私人住宅大樓,DA23000016,平河里,新北市中和區平河里建一路146號,1,418.0,員山派出所,,121.48791,24.999095
花園廣場社區,DA23000017,平河里,新北市中和區平河里中正路827號,3,6011.0,員山派出所,,121.48403,25.002218
翰林文教私人住宅大樓,DA23000018,平河里,新北市中和區平河里建一路136號,2,1325.0,員山派出所,,121.48787,24.999493
凱悅廣場私人住宅大樓,DA23000019,平河里,新北市中和區平河里中正路753號,2,2360.0,員山派出所,,121.48483,24.99979
公寓,DA23000020,文元里,新北市中和區文元里員山路148巷19號,1,100.0,員山派出所,,121.48206,24.997205
大贏家社區,DA23000021,嘉慶里,新北市中和區嘉慶里連城路559號,2,1799.0,員山派出所,,121.47981,24.994658
大七喜大廈(B區),DA23000022,信和里,新北市中和區信和里員山路148巷23弄30號,1,972.0,員山派出所,,121.48231,24.997913
大廈,DA23000023,信和里,新北市中和區信和里員山路148巷23弄7號,1,734.0,員山派出所,,121.48214,24.997631
遠東巨門私人住宅大樓,DA23000024,平河里,新北市中和區平河里中正路782號,2,2501.0,員山派出所,,121.48526,25.000687
私人住宅大樓,DA23000025,平河里,新北市中和區平河里建三路50號,1,392.0,員山派出所,,121.48593,25.001115
大七喜大廈,DA23000026,信和里,新北市中和區信和里員山路148巷23弄6號,1,1522.0,員山派出所,,121.48233,24.997556
中和高中,DA23000027,嘉慶里,新北市中和區嘉慶里連城路460號,1,1374.0,員山派出所,,121.47834,24.993985
公寓,DA23000028,文元里,新北市中和區文元里連城路346號,1,193.0,員山派出所,,121.48262,24.995722
公寓,DA23000029,嘉慶里,新北市中和區嘉慶里連城路456巷6號,1,176.0,員山派出所,,121.47892,24.995026
鑽石名門私人住宅大樓,DA23000030,平河里,新北市中和區平河里中正路797號,4,1562.0,員山派出所,,121.48473,25.000466
中和高中,DA23000031,嘉慶里,新北市中和區嘉慶里連城路460號,1,3801.0,員山派出所,,121.47834,24.993985
公寓,DA23000032,中山里,新北市中和區中山里錦和路176號,1,213.0,員山派出所,,121.48993,24.995544
巨龍御品公寓大廈,DA23000033,中山里,新北市中和區中山里中正路500號,3,391.0,員山派出所,,121.48886,24.994466
歡喜城社區,DA23000034,中正里,新北市中和區中正里連城路349號,2,1382.0,員山派出所,,121.48804,24.996059
公寓,DA23000035,中山里,新北市中和區中山里錦和路170號,1,93.0,員山派出所,,121.4899,24.995599
遠東世紀廣場,DA23000036,平河里,新北市中和區平河里中正路700號,4,17645.0,員山派出所,,121.4859,24.996516
景實大廈,DA23000037,平河里,新北市中和區平河里建三路66號,2,339.0,員山派出所,,121.486,25.000853
公寓,DA23000038,嘉慶里,新北市中和區嘉慶里連城路569巷11號,1,134.0,員山派出所,,121.47931,24.994011
瓏山林飯店,DA23000039,仁和里,新北市中和區仁和里中正路631號,1,788.0,員山派出所,,121.48528,24.99493
員山富邑社區,DA23000040,嘉慶里,新北市中和區嘉慶里連城路456巷3號,2,1250.0,員山派出所,,121.47876,24.994985
岳霖食品公司,DA23000041,平河里,新北市中和區平河里錦和路134號,1,232.0,員山派出所,,121.4893,24.998027
智富連城工商園區,DA23000042,平河里,新北市中和區平河里連城路226號,3,2397.0,員山派出所,,121.48964,24.996524
公寓,DA23000043,嘉慶里,新北市中和區嘉慶里連城路446號,1,151.0,員山派出所,,121.47934,24.994795
公寓,DA23000044,信和里,新北市中和區信和里連城路340巷2號,1,172.0,員山派出所,,121.4829,24.99602
私人住宅大樓,DA23000045,平河里,新北市中和區平河里建康路39號,1,45.0,員山派出所,,121.48642,25.000369
圓頂天下私人住宅大樓,DA23000046,平河里,新北市中和區平河里連城路236號,2,1516.0,員山派出所,,121.48875,24.99651
福朋中央公園大廈,DA23000047,中山里,新北市中和區中山里中正路525號,3,677.0,員山派出所,,121.4879,24.994086
法國玫瑰公寓私人住宅大樓,DA23000048,嘉慶里,新北市中和區嘉慶里連城路601號,1,695.0,員山派出所,,121.47848,24.993636
員山連城私人住宅大樓,DA23000049,嘉慶里,新北市中和區嘉慶里連城路531號,1,884.0,員山派出所,,121.4808,24.994887
君迪商旅,DA23000050,仁和里,新北市中和區仁和里和城路一段230號,1,423.0,員山派出所,,121.48466,24.993957
君迪商旅,DA23000051,仁和里,新北市中和區仁和里和城路一段232號,2,357.0,員山派出所,,121.48445,24.993956
私人住宅大樓,DA23000052,平河里,新北市中和區平河里建康路89號,2,1165.0,員山派出所,,121.48746,25.00037
公寓,DA23000065,仁和里,新北市中和區仁和里中正路639號,1,567.0,員山派出所,,121.48515,24.995567
公寓,DA23000071,仁和里,新北市中和區仁和里連城路469巷35弄6號,1,397.0,員山派出所,,121.48394,24.994545
公寓,DA23000072,仁和里,新北市中和區仁和里連城路469巷44弄1號,1,393.0,員山派出所,,121.48307,24.994656
公寓,DA23000073,嘉慶里,新北市中和區嘉慶里員山路117號,1,354.0,員山派出所,,121.48086,24.995358
公寓,DA23000074,嘉慶里,新北市中和區嘉慶里員山路123號,1,422.0,員山派出所,,121.48088,24.995526
公寓,DA23000076,中正里,新北市中和區中正里連城路347巷2弄29號,1,230.0,員山派出所,,121.48701,24.995807
積穗國小,DA23000087,文元里,新北市中和區文元里員山路154號,1,134.0,員山派出所,,121.4814,24.999057
公寓,DA23000094,中正里,新北市中和區中正里中正路628號,1,165.0,員山派出所,,121.4856,24.995775
公寓,DA23000098,仁和里,新北市中和區仁和里連城路469巷44弄8號,1,370.0,員山派出所,,121.48304,24.99452
積穗國小,DA23000102,文元里,新北市中和區文元里員山路154號,1,328.0,員山派出所,,121.4814,24.999057
公寓,DA23000113,中正里,新北市中和區中正里中正路578號,1,205.0,員山派出所,,121.48619,24.994888
公寓,DA23000116,仁和里,新北市中和區仁和里連城路453號,1,645.0,員山派出所,,121.48458,24.996095
公寓,DA23000120,仁和里,新北市中和區仁和里連城路469巷9號,1,260.0,員山派出所,,121.48368,24.995519
公寓,DA23000123,仁和里,新北市中和區仁和里中正路637巷46號,1,205.0,員山派出所,,121.48539,24.994275
積穗國小,DA23000133,文元里,新北市中和區文元里員山路154號,1,575.0,員山派出所,,121.4814,24.999057
鎮安府,DA23000135,嘉穗里,新北市中和區嘉穗里民利街61巷11弄1號,1,251.0,員山派出所,,121.47905,24.998312
公寓,DA23000137,文元里,新北市中和區文元里連城路523巷9弄2號,1,1498.0,員山派出所,,121.48175,24.994469
公寓,DA23000149,仁和里,新北市中和區仁和里連城路469巷70弄12號,1,37.0,員山派出所,,121.48308,24.993936
公寓,DA23000151,嘉穗里,新北市中和區嘉穗里員山路151巷6號,1,250.0,員山派出所,,121.48038,24.996512
夏威夷社區,DA23000152,嘉穗里,新北市中和區嘉穗里民利街103號,1,920.0,員山派出所,,121.47751,24.99754
公寓,DA23000154,嘉穗里,新北市中和區嘉穗里民利街51號,1,166.0,員山派出所,,121.47948,24.99874
翠庭私人住宅大樓,DA23000155,嘉穗里,新北市中和區嘉穗里員山路187號,1,704.0,員山派出所,,121.48113,24.997211
公寓,DA23000157,嘉穗里,新北市中和區嘉穗里民利街93巷2號,1,538.0,員山派出所,,121.47796,24.997696
公寓,DA23000158,嘉穗里,新北市中和區嘉穗里民利街87號,1,638.0,員山派出所,,121.47818,24.998034
公寓,DA23000159,嘉穗里,新北市中和區嘉穗里民利街99號,1,184.0,員山派出所,,121.47772,24.997725
富豪天下大廈,DA23000161,平河里,新北市中和區平河里建康路1號,1,400.0,員山派出所,,121.48551,25.000361
積穗國小,DA23000162,文元里,新北市中和區文元里員山路154號,1,2181.0,員山派出所,,121.4814,24.999057
中興私人住宅大樓,DA23000163,平河里,新北市中和區平河里中正路801號,3,766.0,員山派出所,,121.48472,25.000987
財星私人住宅大樓,DA23000164,平河里,新北市中和區平河里建三路57號,1,444.0,員山派出所,,121.48618,25.001793
連城新星私人住宅大樓,DA23000165,平河里,新北市中和區平河里錦和路128號,1,114.0,員山派出所,,121.48927,24.998225
私人住宅大樓,DA23000166,中山里,新北市中和區中山里連城路339號,2,353.0,員山派出所,,121.48835,24.996062
積穗國小,DA23000167,平河里,新北市中和區平河里新生街39巷6號,2,192.0,員山派出所,,121.48377,25.003235
公寓,DA23000168,仁和里,新北市中和區仁和里連城路469巷79弄24號,1,282.0,員山派出所,,121.48401,24.993948
印象城市私人住宅大樓,DA23000169,平河里,新北市中和區平河里中正路839巷8號,2,625.0,員山派出所,,121.48423,25.002515
私人住宅大樓,DA23000170,信和里,新北市中和區信和里民樂路26號,1,218.0,員山派出所,,121.48254,25.001085
富梅雅園社區,DA23000171,仁和里,新北市中和區仁和里連城路469巷14號,1,418.0,員山派出所,,121.48348,24.995311
永興私人住宅大樓,DA23000172,平河里,新北市中和區平河里建康路51號,1,1400.0,員山派出所,,121.48697,25.00035
積穗國小,DA23000173,平河里,新北市中和區平河里新生街233巷2號,1,582.0,員山派出所,,121.4841,24.999054
連戰連勝社區,DA23000174,平河里,新北市中和區平河里中正路751巷3弄2號,1,1138.0,員山派出所,,121.48426,24.999578
沐舍飯店,DA23000175,平河里,新北市中和區平河里中正路776號,2,345.0,員山派出所,,121.48525,25.000383
財星私人住宅大樓,DA23000176,平河里,新北市中和區平河里建康路2號,1,575.0,員山派出所,,121.48565,25.000059
囍宴公寓大廈,DA23000177,文元里,新北市中和區文元里員山路82巷2號,2,1220.0,員山派出所,,121.48115,24.993972
歡喜樓社區,DA23000178,中山里,新北市中和區中山里連城路317號,2,309.0,員山派出所,,121.48924,24.996075
私人住宅大樓,DA23000179,平河里,新北市中和區平河里中正路879號,1,539.0,員山派出所,,121.48432,25.004104
公寓,DA23000180,信和里,新北市中和區信和里員山路148巷29號,1,133.0,員山派出所,,121.48225,24.997236
海王經貿廣場,DA23000181,平河里,新北市中和區平河里中正路800號,1,1603.0,員山派出所,,121.48519,25.001543
龍騰華園大廈,DA23000182,中山里,新北市中和區中山里中正路503號,3,1243.0,員山派出所,,121.48873,24.994011
民樂停車場,DA23000183,平河里,新北市中和區平河里民樂路巷65號,1,884.0,員山派出所,,121.48373,25.001379
公寓,DA23000184,嘉慶里,新北市中和區嘉慶里員山路143巷40弄1號,1,381.0,員山派出所,,121.47903,24.995676
聯合科技中心,DA23000185,平河里,新北市中和區平河里建康路6號,3,1780.0,員山派出所,,121.48636,24.999739
捷運學府私人住宅大樓,DA23000186,嘉穗里,新北市中和區嘉穗里民利街63號,3,920.0,員山派出所,,121.47894,24.998492
私人住宅大樓,DA23000187,信和里,新北市中和區信和里民樂路30號,2,979.0,員山派出所,,121.4827,25.001087
積穗國小停車場,DA23000188,文元里,新北市中和區文元里員山路154號,1,3420.0,員山派出所,,121.4814,24.999057
崇德發私人住宅大樓,DA23000189,平河里,新北市中和區平河里中山路二段427號,1,740.0,員山派出所,,121.48537,25.004748
私人住宅大樓,DA23000190,信和里,新北市中和區信和里民樂路38號,1,84.0,員山派出所,,121.48307,25.001098
公寓,DA23000191,平河里,新北市中和區平河里4鄰建三路56號,1,52.0,員山派出所,,121.48595,25.001145
私人住宅大樓,DA23000192,嘉穗里,新北市中和區嘉穗里民利街55號,1,48.0,員山派出所,,121.47922,24.998653
私人住宅大樓,DA23000193,仁和里,新北市中和區仁和里12鄰中正路637巷18弄7號,1,395.0,員山派出所,,121.48446,24.995001
楓韻元山居私人住宅大樓,DA23000194,平河里,新北市中和區平河里23鄰中山路二段451號3樓,1,811.0,員山派出所,,121.48389,25.005075
漢堡捷運學府NO.3,DA23000195,嘉穗里,新北市中和區嘉穗里民利街61巷25號10樓,1,926.0,員山派出所,,121.47925,24.998368
私人住宅大樓,DI01000001,和興里,新北市中和區和興里板南路100號,1,66.0,景安派出所,,121.50381,24.9925
久泰夏威夷社區,DI01000002,吉興里,新北市中和區吉興里南山路180號,1,1638.0,景安派出所,,121.50545,24.990734
美麗國,DI01000003,景文里,新北市中和區景文里景新街132巷8號,1,1717.0,景安派出所,,121.50488,24.997904
景安尊賞,DI01000005,景文里,新北市中和區景文里景安路132巷36號,2,399.0,景安派出所,,121.50399,24.994446
綺麗世界社區,DI01000006,景安里,新北市中和區景安里景新街226號,1,265.0,景安派出所,,121.508,24.994403
樂頂皇築,DI01000007,外南里,新北市中和區外南里南山路240號,1,87.0,景安派出所,,121.50699,24.989572
樂頂皇築,DI01000008,外南里,新北市中和區外南里南山路238號,1,105.0,景安派出所,,121.50697,24.98972
禮運大同,DI01000009,景安里,新北市中和區景安里景新街161號,2,2101.0,景安派出所,,121.50645,24.996042
景安精品旅館,DI01000011,景文里,新北市中和區景文里明禮街32號,1,321.0,景安派出所,,121.50444,24.996351
私人住宅大樓,DI01000012,景福里,新北市中和區景福里景平路239巷12號,1,98.0,景安派出所,,121.50934,24.992495
景安晶華,DI01000013,和興里,新北市中和區和興里中正路76號,1,172.0,景安派出所,,121.50069,24.99384
公寓,DI01000014,和興里,新北市中和區和興里中興街35號,1,208.0,景安派出所,,121.50099,24.994647
私人住宅大樓,DI01000015,和興里,新北市中和區和興里景平路385巷21號,1,423.0,景安派出所,,121.50207,24.994408
公寓,DI01000016,景文里,新北市中和區景文里明義街11巷12弄4號,1,278.0,景安派出所,,121.50352,24.994789
文化中國,DI01000017,復興里,新北市中和區復興里復興路268號,3,964.0,景安派出所,,121.50298,24.99045
私人住宅大樓,DI01000018,吉興里,新北市中和區吉興里捷運路137號,1,474.0,景安派出所,,121.50687,24.99075
私人住宅大樓,DI01000019,吉興里,新北市中和區吉興里南山路337號,1,211.0,景安派出所,,121.50559,24.990943
捷運公園林蔭特區,DI01000020,景福里,新北市中和區景福里捷運路79號,1,1351.0,景安派出所,,121.5084,24.989959
捷運宮琦郡,DI01000021,景福里,新北市中和區景福里景平路239巷1號,2,532.0,景安派出所,,121.50934,24.992495
復興國小,DI01000022,中興里,新北市中和區中興里復興路301巷6號,1,347.0,景安派出所,,121.50193,24.989646
喜事年年,DI01000023,中興里,新北市中和區中興里中興街202巷17號,2,1435.0,景安派出所,,121.49931,24.989299
公寓,DI01000024,中興里,新北市中和區中興里復興路263巷10號,1,457.0,景安派出所,,121.5027,24.989806
城龍別墅,DI01000025,中興里,新北市中和區中興里中興街180巷33號,2,492.0,景安派出所,,121.49822,24.989496
中和我的家,DI01000026,中興里,新北市中和區中興里中興街136號,2,1093.0,景安派出所,,121.49956,24.991995
公寓,DI01000028,景新里,新北市中和區景新里和平街54巷16弄1號,1,452.0,景安派出所,,121.50913,24.99178
日暉商務旅館,DI01000029,景福里,新北市中和區景福里景平路381號,2,117.0,景安派出所,,121.50405,24.993342
戶政事務所,DI01000030,外南里,新北市中和區外南里南山路236巷1號,1,191.0,景安派出所,,121.50617,24.989209
消防局南勢分隊,DI01000031,外南里,新北市中和區外南里南山路236號,2,1763.0,景安派出所,,121.5065,24.989655
歐洲愛樂,DI01000032,和興里,新北市中和區和興里中正路25號,4,1973.0,景安派出所,,121.50247,24.99335
文心百麗,DI01000033,復興里,新北市中和區復興里復興路260號,1,535.0,景安派出所,,121.5036,24.990379
景安國璽,DI01000034,景文里,新北市中和區景文里明禮街31巷2號,1,1529.0,景安派出所,,121.50391,24.995792
明禮私人住宅大樓,DI01000035,景文里,新北市中和區景文里明禮街31巷7號,1,195.0,景安派出所,,121.50412,24.995777
泓屋雅仕,DI01000036,中興里,新北市中和區中興里復興路301巷16號,1,533.0,景安派出所,,121.50138,24.989599
翡麗社區,DI01000037,中興里,新北市中和區中興里中興街220號,1,906.0,景安派出所,,121.50049,24.989459
品冠大廈,DI01000038,中興里,新北市中和區中興里復興路301巷10號,1,566.0,景安派出所,,121.50148,24.989657
私人住宅大樓,DI01000041,景安里,新北市中和區景安里景安路167巷2號,1,352.0,景安派出所,,121.50554,24.994495
樂頂皇築,DI01000042,外南里,新北市中和區外南里南山路240號,2,1337.0,景安派出所,,121.50698,24.98957
景安敦品,DI01000043,景福里,新北市中和區景福里景平路259巷11號,1,182.0,景安派出所,,121.50789,24.992595
景安香榭,DI01000044,和興里,新北市中和區和興里板南路190號,1,164.0,景安派出所,,121.50031,24.992948
美麗國,DI01000045,景文里,新北市中和區景文里景新街132巷8號,1,1717.0,景安派出所,,121.50488,24.997904
私人住宅大樓,DI01000046,景福里,新北市中和區景福里興南路一段110號,1,506.0,景安派出所,,121.50955,24.988713
圓通私人住宅大樓,DI01000047,景福里,新北市中和區景福里捷運路59號,1,98.0,景安派出所,,121.50906,24.989689
景安南華,DI01000048,和興里,新北市中和區和興里景平路425號,1,197.0,景安派出所,,121.50163,24.995225
景安金葉,DI01000049,和興里,新北市中和區和興里板南路148號,1,110.0,景安派出所,,121.50205,24.992742
YES景安,DI01000050,景福里,新北市中和區景福里景平路301號,1,194.0,景安派出所,,121.50664,24.993066
達永春嶺,DI01000051,景福里,新北市中和區景福里捷運路25號,1,1282.0,景安派出所,,121.50932,24.989564
景安住邑,DI01000052,和興里,新北市中和區和興里中興街37號,12,57.0,景安派出所,,121.50084,24.99438
中興苑,DI01000053,中興里,新北市中和區中興里中興街172巷10弄7號,1,78.0,景安派出所,,121.49929,24.991489
麗境冠德大境,DI01000054,景文里,新北市中和區景文里景安路120號,1,1553.0,景安派出所,,121.50445,24.994703
冠德美境,DI01000055,景安里,新北市中和區景安里景安路155號,1,2276.0,景安派出所,,121.50581,24.995092
私人住宅大樓,DI01000056,中興里,新北市中和區中興里中興街180巷26號,1,92.0,景安派出所,,121.49815,24.989788
雅筑,DI01000057,復興里,新北市中和區復興里中興街161巷12號,1,67.0,景安派出所,,121.50135,24.990895
私人住宅大樓,DI01000058,和興里,新北市中和區和興里中正路66號,1,153.0,景安派出所,,121.50113,24.99381
日光御,DI01000059,景安里,新北市中和區景安里安和路133號,1,146.0,景安派出所,,121.50665,24.99611
柏金苑,DI01000060,吉興里,新北市中和區吉興里南山路369號,1,186.0,景安派出所,,121.50621,24.990505
景安之丘,DI01000061,景文里,新北市中和區景文里明禮街11巷8號,1,738.0,景安派出所,,121.50462,24.995524
景安捷作,DI01000062,和興里,新北市中和區和興里14鄰中正路62號,12,133.0,景安派出所,,121.50138,24.993777
福喜璟安綻,DI01000063,景文里,新北市中和區景文里14鄰景平路522-2號,1,334.0,景安派出所,,121.5035,24.994421
私人住宅大樓,DI01000064,景福里,新北市中和區景福里景平路239巷30號2樓,1,514.0,景安派出所,,121.50875,24.992321
私人住宅大樓,DI01000065,景福里,新北市中和區景福里12鄰景平路239巷57號,1,1338.0,景安派出所,,121.50875,24.992093
好站,DI01000066,景福里,新北市中和區景福里和平街66號,1,438.0,景安派出所,,121.50828,24.990946
立穎居家照護,DJ01000001,中原里,新北市中和區中原里立德街204號,1,255.0,中原派出所,,121.48458,25.009496
曜德行,DJ01000002,福真里,新北市中和區福真里景平路999巷1號,1,393.0,中原派出所,,121.49541,25.005878
伊銘國際,DJ01000003,中原里,新北市中和區中原里立德街200巷28號,1,1087.0,中原派出所,,121.48552,25.009757
元隆捷運雙星,DJ01000004,中原里,新北市中和區中原里中正路918號,3,5878.0,中原派出所,,121.48332,25.00821
漢皇馥麗,DJ01000005,連和里,新北市中和區連和里中山路二段259號,4,982.0,中原派出所,,121.49721,25.002298
卓越臺北,DJ01000006,中原里,新北市中和區中原里橋安街20號,1,4629.0,中原派出所,,121.49235,25.00536
桂冠實業,DJ01000007,連和里,新北市中和區連和里中山路二段329號,1,815.0,中原派出所,,121.49291,25.002206
立昌綜合私人住宅大樓,DJ01000008,中原里,新北市中和區中原里中山路二段482巷15號,1,440.0,中原派出所,,121.48893,25.006581
恆通股份有限公司,DJ01000009,中原里,新北市中和區中原里立言街38號,3,1138.0,中原派出所,,121.4868,25.005944
福星企業家,DJ01000010,中原里,新北市中和區中原里立德街189號,1,743.0,中原派出所,,121.48473,25.009169
華隆聯合廣場,DJ01000011,碧河里,新北市中和區碧河里建康路128號,1,2998.0,中原派出所,,121.48889,25.000105
龍田經貿廣場,DJ01000012,中原里,新北市中和區中原里中山路二段362號,1,1810.0,中原派出所,,121.49258,25.002779
華隆時代廣場,DJ01000013,碧河里,新北市中和區碧河里建一路135號,3,4549.0,中原派出所,,121.48824,25.001023
微星科技,DJ01000014,中原里,新北市中和區中原里板南路488號,2,4288.0,中原派出所,,121.48713,25.006984
中和卓越大廈,DJ01000015,中原里,新北市中和區中原里中正路910號,2,595.0,中原派出所,,121.48365,25.007268
恆安長照,DJ01000016,中原里,新北市中和區中原里立德街200巷10號,2,732.0,中原派出所,,121.48527,25.009631
全球人壽,DJ01000017,中原里,新北市中和區中原里中正路866號,1,4315.0,中原派出所,,121.48429,25.00595
MIT國際科學園區第二期,DJ01000018,中原里,新北市中和區中原里板南路490號,2,7030.0,中原派出所,,121.48509,25.008269
優派國際科技大樓,DJ01000019,碧河里,新北市中和區碧河里連城路192號,3,1793.0,中原派出所,,121.4923,24.996838
中山經貿,DJ01000020,碧河里,新北市中和區碧河里建一路1號,2,902.0,中原派出所,,121.48822,25.004142
明煌印刷,DJ01000021,中原里,新北市中和區中原里立德街216號,1,472.0,中原派出所,,121.48348,25.010052
亞太TOP工業園區,DJ01000022,碧河里,新北市中和區碧河里中山路二段403號,3,1681.0,中原派出所,,121.48605,25.004703
明翔科技股份有限公司,DJ01000023,中原里,新北市中和區中原里立德街306號,2,460.0,中原派出所,,121.48291,25.010379
依德股份有限公司,DJ01000024,碧河里,新北市中和區碧河里建一路68號,1,152.0,中原派出所,,121.48777,25.003077
永昌冷凍,DJ01000025,碧河里,新北市中和區碧河里建一路66號,1,523.0,中原派出所,,121.48785,25.003496
汎美家園,DJ01000026,碧河里,新北市中和區碧河里中正路260號,1,340.0,中原派出所,,121.49534,24.994126
白紗科技印刷',DJ01000027,中原里,新北市中和區中原里中板路25巷18號,1,204.0,中原派出所,,121.48309,25.010703
王信記塑膠,DJ01000028,中原里,新北市中和區中原里中山路二段482巷17號,2,700.0,中原派出所,,121.4891,25.006622
力康骨科診所,DJ01000029,連和里,新北市中和區連和里連城路10號,2,163.0,中原派出所,,121.49897,25.00235
大萊管理,DJ01000030,連和里,新北市中和區連和里景平路690號,2,724.0,中原派出所,,121.49694,25.001688
創研光電,DJ01000031,中原里,新北市中和區中原里中山路二段366巷9號,1,959.0,中原派出所,,121.49171,25.004172
微星科技,DJ01000032,中原里,新北市中和區中原里立德街69號,1,2083.0,中原派出所,,121.48748,25.007702
MIT國際科學園區,DJ01000033,中原里,新北市中和區中原里立德街112號,1,11339.0,中原派出所,,121.48728,25.008553
鼎泰豐小吃店,DJ01000034,中原里,新北市中和區中原里立言街36號,1,113.0,中原派出所,,121.4867,25.005947
大亨企業廠房,DJ01000035,中原里,新北市中和區中原里橋和路88號,1,997.0,中原派出所,,121.49018,25.005237
青年市,DJ01000036,中原里,新北市中和區中原里橋和路150號,2,5062.0,中原派出所,,121.49399,25.006128
上煇精密儀器,DJ01000037,連和里,新北市中和區連和里連城路134巷16號,1,434.0,中原派出所,,121.49552,24.999722
中山一路發33廠,DJ01000038,中原里,新北市中和區中原里橋安街17號,1,831.0,中原派出所,,121.4926,25.003959
儒風資訊印刷,DJ01000039,中原里,新北市中和區中原里立德街202號,1,374.0,中原派出所,,121.48478,25.009415
台灣迪卡農,DJ01000040,福善里,新北市中和區福善里中山路二段228號,4,4459.0,中原派出所,,121.49894,25.00278
中山一路發14廠,DJ01000041,中原里,新北市中和區中原里橋安街2號,1,419.0,中原派出所,,121.49292,25.003425
福美路298號,DJ01000042,福善里,新北市中和區福善里福美路298號,1,230.0,中原派出所,,121.49724,25.005021
福美路303號,DJ01000044,福善里,新北市中和區福善里福美路303號,1,317.0,中原派出所,,121.49715,25.004783
智匯企業,DJ01000045,中原里,新北市中和區中原里橋安街15巷1號,1,2745.0,中原派出所,,121.49241,25.00389
群採數位影像製作,DJ01000046,中原里,新北市中和區中原里立德街200巷23號,1,318.0,中原派出所,,121.48522,25.009953
縱橫天下,DJ01000047,中原里,新北市中和區中原里橋安街27號,2,2100.0,中原派出所,,121.49239,25.004717
E時代科技總部,DJ01000048,中原里,新北市中和區中原里中正路951號,4,2943.0,中原派出所,,121.4835,25.006559
及成企業,DJ01000049,碧河里,新北市中和區碧河里建二路111號,2,1456.0,中原派出所,,121.48642,25.003816
大亨企業,DJ01000050,中原里,新北市中和區中原里橋和路85號,2,248.0,中原派出所,,121.49001,25.005506
新得里有限公司,DJ01000051,中原里,新北市中和區中原里立德街211號,1,354.0,中原派出所,,121.48339,25.00989
全球長昇鴻,DJ01000052,中原里,新北市中和區中原里中正路876號,1,3657.0,中原派出所,,121.48415,25.006356
嘉仲印刷,DJ01000053,中原里,新北市中和區中原里立德街218號,2,695.0,中原派出所,,121.48312,25.010221
立昌紙業,DJ01000054,碧河里,新北市中和區碧河里連城路194巷11號,1,1040.0,中原派出所,,121.49178,24.997704
橋和經貿,DJ01000055,中原里,新北市中和區中原里橋和路115號,2,454.0,中原派出所,,121.49128,25.00579
光復國小,DJ01000056,中原里,新北市中和區中原里光環路二段1號,2,1209.0,中原派出所,,121.48258,25.014698
健亨私人住宅大樓,DJ01000057,平河里,新北市中和區平河里建一路100號,1,198.0,中原派出所,,121.48786,25.000568
中山晶鑽工商園區,DJ01000058,中原里,新北市中和區中原里中山路二段530號,2,624.0,中原派出所,,121.48579,25.005049
天悅大廈,DJ01000059,連和里,新北市中和區連和里景平路601號,45,17107.0,中原派出所,,121.49675,25.001034
LEXUS,DJ01000060,中原里,新北市中和區中原里中山路二段546號,1,397.0,中原派出所,,121.48495,25.0051
四知新城,DJ01000061,連和里,新北市中和區連和里連城路146號,12,3024.0,中原派出所,,121.49507,24.998405
冠提橋和,DJ01000062,中原里,新北市中和區中原里橋和路116號,1,959.0,中原派出所,,121.49134,25.005485
好市多中和店,DJ01000063,連和里,新北市中和區連和里中山路二段347號,1,8892.0,中原派出所,,121.49196,25.002706
光復國小,DJ01000064,中原里,新北市中和區中原里光環路二段1號,1,3566.0,中原派出所,,121.48258,25.014698
百隆彩藝印刷,DJ01000065,中原里,新北市中和區中原里橋和路56號,1,428.0,中原派出所,,121.48943,25.005077
威電電子股份有限公司,DJ01000066,中原里,新北市中和區中原里立德街199號,1,1488.0,中原派出所,,121.48426,25.009408
台北生活智慧王,DJ01000067,碧河里,新北市中和區碧河里連勝街95號,1,906.0,中原派出所,,121.495,24.996061
大中探針實業,DJ01000068,中原里,新北市中和區中原里中山路二段432號,1,412.0,中原派出所,,121.48951,25.004176
廣寰科技股份有限公司,DJ01000069,碧河里,新北市中和區碧河里建二路113號,1,368.0,中原派出所,,121.48683,25.003816
MIT國際科學園區NO.3,DJ01000070,中原里,新北市中和區中原里立德街103號,2,5651.0,中原派出所,,121.48606,25.008519
美麗殿興業有限公司,DJ01000071,中原里,新北市中和區中原里板南路487號,1,1008.0,中原派出所,,121.48798,25.006367
富村食品冷凍,DJ01000072,碧河里,新北市中和區碧河里建康路250號,1,2577.0,中原派出所,,121.49245,24.999615
大來經貿廣場,DJ01000073,碧河里,新北市中和區碧河里建康路156號,3,7566.0,中原派出所,,121.49034,25.000005
捷運上城,DJ01000074,碧河里,新北市中和區碧河里中正路288號,3,703.0,中原派出所,,121.49456,24.994318
漢皇super大廈,DJ01000075,連和里,新北市中和區連和里中山路二段305號,3,4102.0,中原派出所,,121.49519,25.002019
山水彩色印刷,DJ01000076,碧河里,新北市中和區碧河里連城路222巷1號,1,1156.0,中原派出所,,121.49103,24.996997
金石通訊行,DJ01000079,福善里,新北市中和區福善里景平路750號,1,64.0,中原派出所,,121.49654,25.004462
陳文雄,DJ01000080,福善里,新北市中和區福善里中山路二段242巷4號,1,117.0,中原派出所,,121.49776,25.003044
福美路319號,DJ01000081,福善里,新北市中和區福善里福美路319號,1,131.0,中原派出所,,121.49654,25.004608
誠傢設計,DJ01000082,福善里,新北市中和區福善里景平路738號,1,134.0,中原派出所,,121.49665,25.004127
劉邦誥,DJ01000083,福善里,新北市中和區福善里中山路二段242巷8號,1,153.0,中原派出所,,121.49775,25.003209
公寓,DJ01000084,福善里,新北市中和區福善里福美路307號,1,182.0,中原派出所,,121.49699,25.00475
綠朋傢俱行,DJ01000086,福善里,新北市中和區福善里景平路744號,1,163.0,中原派出所,,121.4966,25.004292
徐邱瑞燕,DJ01000087,福善里,新北市中和區福善里景平路746號,1,164.0,中原派出所,,121.49658,25.004343
公寓,DJ01000089,福善里,新北市中和區福善里景平路736巷3弄3號,1,360.0,中原派出所,,121.49725,25.003746
佳麗美甲美睫,DJ01000091,福真里,新北市中和區福真里景平路739號,1,765.0,中原派出所,,121.49624,25.004449
華中庭園,DJ01000095,福善里,新北市中和區福善里永和路99巷1號,1,415.0,中原派出所,,121.49623,25.005942
龍門大廈,DJ01000097,福善里,新北市中和區福善里景平路726號,1,263.0,中原派出所,,121.49677,25.00332
連城工業廣場,DJ01000121,碧河里,新北市中和區碧河里連城路222巷2弄1號,1,2226.0,中原派出所,,121.49128,24.997165
江志敏,DJ01000133,福真里,新北市中和區福真里中山路二段312巷33弄11號,1,211.0,中原派出所,,121.4948,25.003627
昇佳科技,DJ01000164,中原里,新北市中和區中原里中板路18巷1弄1號,1,2347.0,中原派出所,,121.48381,25.012292
新第來享,DJ01000177,福善里,新北市中和區福善里景平路726-4號,1,281.0,中原派出所,,121.49673,25.003566
家美企業,DJ01000178,連和里,新北市中和區連和里中山路二段327巷1號,1,7538.0,中原派出所,,121.4934,25.001562
"禾暉 企業社",DJ01000213,中原里,新北市中和區中原里立業路83巷1號,2,475.0,中原派出所,,121.49141,25.007252
凱撒大地,DJ01000215,福善里,新北市中和區福善里景平路782號,1,739.0,中原派出所,,121.49606,25.005575
萬豐企業天廈,DJ01000216,中原里,新北市中和區中原里中山路二段560號,1,709.0,中原派出所,,121.48323,25.005263
?慈護理之家,DJ01000217,中原里,新北市中和區中原里中正路909號,2,404.0,中原派出所,,121.48356,25.006444
理研電器,DJ01000218,碧河里,新北市中和區碧河里錦和路59號,1,256.0,中原派出所,,121.48893,24.998774
連和里活動中心,DJ01000219,連和里,新北市中和區連和里連城路54號,1,246.0,中原派出所,,121.49804,25.001886
財星廣場,DJ01000220,中原里,新北市中和區中原里中板路15巷9號,1,2861.0,中原派出所,,121.48427,25.011239
立業63號,DJ01000222,中原里,新北市中和區中原里立業路63號,1,660.0,中原派出所,,121.49219,25.00724
華隆經貿廣場,DJ01000223,碧河里,新北市中和區碧河里中山路二段351號,3,4118.0,中原派出所,,121.49068,25.003167
芝加哥財經廣場,DJ01000224,中原里,新北市中和區中原里中山路二段348巷8號,12,5384.0,中原派出所,,121.49305,25.003002
黃金新幹線,DJ01000225,福真里,新北市中和區福真里中山路二段296號,3,918.0,中原派出所,,121.49619,25.00253
鴻遠實業,DJ01000226,中原里,新北市中和區中原里立德街305號,1,65.0,中原派出所,,121.48311,25.009975
連城路229號,DJ01000227,碧河里,新北市中和區碧河里連城路229號,1,52.0,中原派出所,,121.49416,24.997396
中正逸園,DJ01000228,碧河里,新北市中和區碧河里中正路276號,1,595.0,中原派出所,,121.49487,24.994121
萬億紙器,DJ01000229,中原里,新北市中和區中原里立德街200巷56號,2,1088.0,中原派出所,,121.48564,25.010473
財星廣場,DJ01000231,中原里,新北市中和區中原里中板路7號,1,945.0,中原派出所,,121.48477,25.01156
雅舍小品大廈,DJ01000233,福真里,新北市中和區福真里景平路761號,1,297.0,中原派出所,,121.49597,25.005071
公寓,DJ01000234,碧河里,新北市中和區碧河里建一路76號,1,201.0,中原派出所,,121.48759,25.00269
泓福香鋪,DJ01000235,碧河里,新北市中和區碧河里連勝街146號,1,925.0,中原派出所,,121.49413,24.9972
中山精典,DJ01000236,碧河里,新北市中和區碧河里中山路二段389號,1,1038.0,中原派出所,,121.48681,25.004723
大亨工業,DJ01000237,中原里,新北市中和區中原里橋和路87號,2,516.0,中原派出所,,121.49013,25.005529
興亞華中園中園,DJ01000238,福真里,新北市中和區福真里景平路989巷2號,2,1255.0,中原派出所,,121.49568,25.005459
順益汽車,DJ01000239,中原里,新北市中和區中原里中正路912號,1,145.0,中原派出所,,121.48353,25.007445
寶喬家飾,DJ01000240,中原里,新北市中和區中原里橋和路128號,1,23.0,中原派出所,,121.49323,25.005901
家有中山工業,DJ01000241,中原里,新北市中和區中原里中山路二段366巷10號,1,799.0,中原派出所,,121.49202,25.004104
中山贏家,DJ01000242,碧河里,新北市中和區碧河里中山路二段369號,1,478.0,中原派出所,,121.48746,25.004646
佳俍企業,DJ01000243,中原里,新北市中和區中原里中板路47巷27號,1,323.0,中原派出所,,121.48221,25.010806
漢偉資訊,DJ01000244,碧河里,新北市中和區碧河里連城路166號,2,2661.0,中原派出所,,121.49381,24.997588
台北企業家,DJ01000245,中原里,新北市中和區中原里中山路二段442號,2,742.0,中原派出所,,121.48913,25.004336
光復國小,DJ01000246,中原里,新北市中和區中原里光環路二段1號,2,1262.0,中原派出所,,121.48258,25.014698
親水河畔,DJ01000247,中原里,新北市中和區中原里橋和路320號,2,954.0,中原派出所,,121.49746,25.007177
三福製衣,DJ01000248,中原里,新北市中和區中原里立德街200巷21號,2,381.0,中原派出所,,121.48512,25.009791
景觀私人住宅大樓,DJ01000249,福善里,新北市中和區福善里景平路722號,2,606.0,中原派出所,,121.4968,25.003014
皇甫彩藝印刷,DJ01000250,中原里,新北市中和區中原里中正路988巷10號,1,469.0,中原派出所,,121.48207,25.009774
好消息私人住宅大樓,DJ01000251,中原里,新北市中和區中原里中正路911號,2,817.0,中原派出所,,121.48355,25.006465
美成產後護理之家,DJ01000252,碧河里,新北市中和區碧河里建康路152號,1,138.0,中原派出所,,121.48971,25.000148
金龍世紀,DJ01000253,連和里,新北市中和區連和里建康路270號,1,1256.0,中原派出所,,121.493,25.000107
雙和一品苑,DJ01000254,碧河里,新北市中和區碧河里中正路360號,3,1029.0,中原派出所,,121.49341,24.994216
遠雄采梅園,DJ01000255,中原里,新北市中和區中原里中原二街127號,1,1612.0,中原派出所,,121.48544,25.01284
天囍大廈,DJ01000256,中原里,新北市中和區中原里中正路901號,3,1010.0,中原派出所,,121.48381,25.005682
遠雄左岸玫瑰園,DJ01000257,中原里,新北市中和區中原里中原街86號,1,3597.0,中原派出所,,121.48869,25.009283
遠雄左岸紫金園,DJ01000258,中原里,新北市中和區中原里中原二街115號,1,1938.0,中原派出所,,121.48586,25.012237
遠雄左岸彩虹園,DJ01000259,中原里,新北市中和區中原里中原街166號,1,2366.0,中原派出所,,121.4847,25.012441
江左風華,DJ01000260,中原里,新北市中和區中原里中原二街65號,1,439.0,中原派出所,,121.4874,25.010786
香榭園社區,DJ01000261,中原里,新北市中和區中原里中原街2號,1,4252.0,中原派出所,,121.49167,25.007875
新大房建設,DJ01000262,中原里,新北市中和區中原里橋和路86號,1,105.0,中原派出所,,121.49006,25.005228
光寶科技股份有限公司,DJ01000263,碧河里,新北市中和區碧河里建六路77號,3,785.0,中原派出所,,121.48762,25.002311
遠雄左岸錦繡園,DJ01000264,中原里,新北市中和區中原里中原五街22號,2,1088.0,中原派出所,,121.48663,25.011113
景泰丰社區,DJ01000265,中原里,新北市中和區中原里中原二街156號,3,1011.0,中原派出所,,121.4867,25.012179
呈冠渼學,DJ01000266,中原里,新北市中和區中原里中原二街73號,1,739.0,中原派出所,,121.4871,25.011057
遠雄錸儷,DJ01000267,中原里,新北市中和區中原里中原街126號,1,4165.0,中原派出所,,121.4858,25.011121
世界V1社區,DJ01000268,福真里,新北市中和區福真里中山二段332巷1號,1,2831.0,中原派出所,,121.49483,25.002578
遠雄左岸牡丹園,DJ01000269,中原里,新北市中和區中原里中原東街90號,1,1822.0,中原派出所,,121.48712,25.012798
遠雄PARKONE,DJ01000270,中原里,新北市中和區中原里中原二街20號,1,1524.0,中原派出所,,121.48867,25.010271
旭泰城光,DJ01000271,福善里,新北市中和區福善里中山二段208號,1,161.0,中原派出所,,121.49984,25.002817
遠雄日安社區,DJ01000272,中原里,新北市中和區中原里環河西路三段66號,1,248.0,中原派出所,,121.4936,25.007549
冠德蝴水映,DJ01000273,中原里,新北市中和區中原里中原五街51號,3,671.0,中原派出所,,121.48753,25.012215
映象太和,DJ01000274,碧河里,新北市中和區碧河里建康路178號,1,1796.0,中原派出所,,121.49187,24.999855
遠雄和光社區,DJ01000275,中原里,新北市中和區中原里中原二街166號,1,1834.0,中原派出所,,121.48628,25.012712
依德股份有限公司,DJ01000276,碧河里,新北市中和區碧河里建一路68號,12,2965.0,中原派出所,,121.48777,25.003077
遠雄悅河,DJ01000277,中原里,新北市中和區中原里中原街28號,1,1516.0,中原派出所,,121.49054,25.008666
遠雄百富社區,DJ01000278,中原里,新北市中和區中原里中原二街26號,1,4670.0,中原派出所,,121.48832,25.010881
台灣科技廣場,DJ01000279,中原里,新北市中和區中原里橋和路11號,3,5210.0,中原派出所,,121.48852,25.005372
灣岸Villa社區,DJ01000280,中原里,新北市中和區中原里立業路2號2樓,3,1821.0,中原派出所,,121.49463,25.007366
台灣科技?場,DJ01000281,碧河里,新北市中和區碧河里建八路198號,1,4144.0,中原派出所,,121.4913,24.998855
中板科技大樓,DJ01000282,中原里,新北市中和區中原里中板路23號,1,1002.0,中原派出所,,121.48388,25.011582
中和安邦段青年社會住宅,DJ01000283,連和里,新北市中和區連和里連城路142號,1,3403.0,中原派出所,,121.4954,24.998882
華固中原置地商辦,DJ01000284,中原里,新北市中和區中原里中原街95號,1,2997.0,中原派出所,,121.48602,25.010661
山進電子工業股份有限公司,DJ01000285,中原里,新北市中和區中原里立德街7巷18號2樓,1,646.0,中原派出所,,121.48964,25.006319
比利迦中和區健康段新進工程,DJ01000286,碧河里,新北市中和區碧河里中山路二段357巷2之2號,1,431.0,中原派出所,,121.4886,25.003759
泰隆豐和,DJ01000287,中原里,新北市中和區中原里橋和路322號,1,582.0,中原派出所,,121.49756,25.007586
比利迦中和區健康段新進工程,DJ01000288,碧河里,新北市中和區碧河里中山路二段357巷2號,1,453.0,中原派出所,,121.4885932,25.00374971
冠德心禾匯,DA23000196,嘉慶里,新北市中和區嘉慶里連城路555之8號,1、2,976.0,員山派出所,,121.479938,24.99493388
雙和湯泉社區,DA23000197,灰磘里,新北市中和區灰磘里員山路22之11號2樓,1,1736.0,員山派出所,,121.4838273,24.9848801
私人住宅大樓,DA04000085,佳和里,新北市中和區佳和里29鄰中山路二段112號2樓,2,94.0,中和派出所,,121.5029428,25.00415612
光寶科技中和數位大樓,DJ01000289,碧河里,新北市中和區碧河里建一路86號,1,3298.0,中原派出所,,121.4878717,25.00239192
福和國中,D201000107,秀和里,新北市永和區秀和里永利路71號,1,243.0,秀朗派出所,,121.52086,25.003998
公寓,D201000110,秀成里,新北市永和區秀成里成功路一段93巷15號,1,56.0,秀朗派出所,,121.52779,25.002795
公寓,D201000111,得和里,新北市永和區得和里秀朗路一段196巷11號,1,66.0,秀朗派出所,,121.51989,25.002687
公寓,D201000112,福和里,新北市永和區福和里福和路263巷13號,1,642.0,秀朗派出所,,121.51802,25.00662
私人住宅大樓,D201000113,永貞里,新北市永和區永貞里永貞路72號,1,825.0,秀朗派出所,,121.52024,25.005334
私人住宅大樓,D201000114,永貞里,新北市永和區永貞里福和路147號,1,977.0,秀朗派出所,,121.52065,25.007654
私人住宅大樓,D201000115,福和里,新北市永和區福和里永貞路148號,1,236.0,秀朗派出所,,121.51794,25.004487
私人住宅大樓,D201000116,福和里,新北市永和區福和里福和路221號,1,242.0,秀朗派出所,,121.51889,25.007467
私人住宅大樓,D201000117,福和里,新北市永和區福和里中正路504號,1,238.0,秀朗派出所,,121.51739,25.00446
復興名園,D201000118,永元里,新北市永和區永元里秀朗路二段24巷6弄11號,1,481.0,秀朗派出所,,121.52058,25.002716
福和全星,D201000119,福和里,新北市永和區福和里福和路213號,1,213.0,秀朗派出所,,121.51906,25.007486
復興貴族,D201000120,得和里,新北市永和區得和里秀朗路一段196巷1號,1,720.0,秀朗派出所,,121.51947,25.00305
私人住宅大樓,D201000121,永元里,新北市永和區永元里永元路17巷7弄2號,1,515.0,秀朗派出所,,121.52115,25.000561
國華私人住宅大樓,D201000122,福和里,新北市永和區福和里中正路588號,1,744.0,秀朗派出所,,121.51715,25.006833
私人住宅大樓,D201000123,永貞里,新北市永和區永貞里8鄰永安街4巷1號,1,290.0,秀朗派出所,,121.5188,25.005918
東偉大和公寓大廈,D201000124,秀和里,新北市永和區秀和里林森路122號,1,66.0,秀朗派出所,,121.52239,25.003271
東偉大和公寓大廈,D201000125,秀和里,新北市永和區秀和里林森路122號,1,349.0,秀朗派出所,,121.52239,25.003271
私人住宅大樓,D201000126,福和里,新北市永和區福和里永寧街125號,1,644.0,秀朗派出所,,121.51803,25.005575
國豐福星大樓,D201000127,永貞里,新北市永和區永貞里福和路201號,2,319.0,秀朗派出所,,121.51944,25.007526
福和國中,D201000128,秀和里,新北市永和區秀和里永利路71號,1,3135.0,秀朗派出所,,121.52086,25.003998
私人住宅大樓,D201000129,永貞里,新北市永和區永貞里永亨路7號,1,66.0,秀朗派出所,,121.51928,25.00573
私人住宅大樓,D201000130,福和里,新北市永和區福和里永寧街115巷1號,1,197.0,秀朗派出所,,121.51833,25.006201
私人住宅大樓,D201000131,永貞里,新北市永和區永貞里永亨路13號,1,193.0,秀朗派出所,,121.51948,25.005948
私人住宅大樓,D201000132,秀和里,新北市永和區秀和里永亨路107號,1,776.0,秀朗派出所,,121.5234,25.004807
永和禮拜堂,D201000133,福和里,新北市永和區福和里永利路27號,2,214.0,秀朗派出所,,121.51831,25.005964
私人住宅大樓,D201000134,永元里,新北市永和區永元里秀朗路二段24巷21號,2,103.0,秀朗派出所,,121.52055,25.002141
私人住宅大樓,D201000135,福和里,新北市永和區福和里中正路550號,2,379.0,秀朗派出所,,121.51726,25.005606
恆豐大廈,D201000136,福和里,新北市永和區福和里中正路522號,2,406.0,秀朗派出所,,121.51733,25.004942
私人住宅大樓,D201000137,秀朗里,新北市永和區秀朗里成功路一段116號,2,545.0,秀朗派出所,,121.52677,25.002423
永安科技大樓,D201000138,秀朗里,新北市永和區秀朗里成功路一段76號,5,3352.0,秀朗派出所,,121.52677,25.003401
私人住宅大樓,D201000139,永元里,新北市永和區永元里永元路85號,2,579.0,秀朗派出所,,121.52224,25.001449
私人住宅大樓,D201000140,秀朗里,新北市永和區秀朗里秀朗路二段161巷8號,2,662.0,秀朗派出所,,121.52519,25.001878
統領中正大廈,D201000141,得和里,新北市永和區得和里中正路456號,3,661.0,秀朗派出所,,121.51763,25.002995
私人住宅大樓,D201000142,秀成里,新北市永和區秀成里成功路一段93巷11號,1,245.0,秀朗派出所,,121.52752,25.002842
私人住宅大樓,D201000143,秀和里,新北市永和區秀和里秀朗路二段13巷2號,1,420.0,秀朗派出所,,121.52112,25.002842
私人住宅大樓,D201000144,秀成里,新北市永和區秀成里成功路一段93巷10號,1,97.0,秀朗派出所,,121.52756,25.002659
統領中正大廈,D201000145,得和里,新北市永和區得和里中正路442巷3號,2,366.0,秀朗派出所,,121.51782,25.00277
私人住宅大樓,D201000146,得和里,新北市永和區得和里得和路103號,1,66.0,秀朗派出所,,121.51817,25.00032
私人住宅大樓,D201000147,得和里,新北市永和區得和里中正路370號,2,218.0,秀朗派出所,,121.51776,25.000939
私人住宅大樓,D201000148,福和里,新北市永和區福和里永寧街82號,1,33.0,秀朗派出所,,121.51816,25.004139
私人住宅大樓,D201000149,福和里,新北市永和區福和里永安街11號,1,63.0,秀朗派出所,,121.51903,25.006382
私人住宅大樓,D201000150,得和里,新北市永和區得和里中正路468巷1號,2,22.0,秀朗派出所,,121.51764,25.003251
私人住宅大樓,D201000151,秀成里,新北市永和區秀成里成功路一段93巷13弄21號,1,171.0,秀朗派出所,,121.52759,25.003519
私人住宅大樓,D201000152,得和里,新北市永和區得和里秀朗路一段192巷2弄2號,1,320.0,秀朗派出所,,121.51893,25.003006
永和學名,D201000153,得和里,新北市永和區得和里中正路442巷1號,2,234.0,秀朗派出所,,121.51773,25.002742
永貞一品大廈,D201000154,福和里,新北市永和區福和里永貞路79號,2,465.0,秀朗派出所,,121.5186,25.004343
私人住宅大樓,D201000155,得和里,新北市永和區得和里中正路428巷25弄2號,1,117.0,秀朗派出所,,121.51842,25.002506
長春藤大廈,D201000156,福和里,新北市永和區福和里永亨路98號,3,1497.0,秀朗派出所,,121.52327,25.004558
鳳凰新村,D201000157,得和里,新北市永和區得和里秀朗路二段84號,2,781.0,秀朗派出所,,121.51754,25.003458
私人住宅大樓,D201000158,秀林里,新北市永和區秀林里秀朗路二段124號,1,374.0,秀朗派出所,,121.52429,25.001311
傳家堡,D201000159,秀朗里,新北市永和區秀朗里永亨路165巷1號,3,807.0,秀朗派出所,,121.52602,25.004058
私人住宅大樓,D201000160,得和里,新北市永和區得和里中正路428巷3號,1,247.0,秀朗派出所,,121.5178,25.002409
宏怡天廈,D201000161,福和里,新北市永和區福和里中正路568號,2,169.0,秀朗派出所,,121.5172,25.006228
橋頭堡大廈,D201000162,秀和里,新北市永和區秀和里林森路92號,2,623.0,秀朗派出所,,121.52311,25.003671
私人住宅大樓,D201000163,得和里,新北市永和區得和里中正路412巷1號,1,398.0,秀朗派出所,,121.51789,25.002145
永和國中,D201000164,秀和里,新北市永和區秀和里國中路111號,1,921.0,秀朗派出所,,121.52332,25.006689
私人住宅大樓,D201000165,永福里,新北市永和區永福里福和路103號,3,1168.0,秀朗派出所,,121.52181,25.007777
能夠居,D201000166,秀朗里,新北市永和區秀朗里林森路29巷18號,1,134.0,秀朗派出所,,121.52621,25.004483
私人住宅大樓,D201000167,福和里,新北市永和區福和里中正路608號,2,149.0,秀朗派出所,,121.5171,25.007216
第一世家,D201000168,福和里,新北市永和區福和里中正路602巷1號,3,410.0,秀朗派出所,,121.51723,25.007058
長堤寶石大樓,D201000169,秀成里,新北市永和區秀成里成功路一段93巷16號,1,208.0,秀朗派出所,,121.52776,25.00266
秀朗靜園社區,D201000170,秀林里,新北市永和區秀林里秀朗路二段114號,2,694.0,秀朗派出所,,121.52433,25.001523
花志聯合大樓,D201000171,福和里,新北市永和區福和里永利路18號,1,109.0,秀朗派出所,,121.51812,25.005824
儒邑大樓,D201000172,永元里,新北市永和區永元里秀朗路二段24巷33號,1,93.0,秀朗派出所,,121.52036,25.002008
私人住宅大樓,D201000173,福和里,新北市永和區福和里中正路512號,2,343.0,秀朗派出所,,121.51736,25.004669
永和秀朗社區,D201000174,永元里,新北市永和區永元里秀朗路二段24巷18號,2,991.0,秀朗派出所,,121.52012,25.00214
永和秀朗社區,D201000175,永元里,新北市永和區永元里秀朗路二段24巷35號,1,186.0,秀朗派出所,,121.52026,25.001962
潤泰中正國寶,D201000176,得和里,新北市永和區得和里中正路374號,3,607.0,秀朗派出所,,121.51773,25.001114
私人住宅大樓,D201000177,福和里,新北市永和區福和里永寧街66號,1,256.0,秀朗派出所,,121.51789,25.005588
私人住宅大樓,D201000178,永元里,新北市永和區永元里得和路243巷25號,1,193.0,秀朗派出所,,121.52064,25.001071
秀朗大樓,D201000179,秀朗里,新北市永和區秀朗里秀朗路二段98號,1,229.0,秀朗派出所,,121.52518,25.001666
私人住宅大樓,D201000180,福和里,新北市永和區福和里永利路5號,1,71.0,秀朗派出所,,121.51748,25.006097
私人住宅大樓,D201000181,秀城里,新北市永和區秀城里成功路一段93巷13弄8號,2,466.0,秀朗派出所,,121.52745,25.003078
長堤第一景社區,D201000182,秀城里,新北市永和區秀城里環河東路3段146號,3,612.0,秀朗派出所,,121.52833,25.003471
珍園大樓,D201000184,福和里,新北市永和區福和里永貞路132號,2,235.0,秀朗派出所,,121.51842,25.004509
美新厝公寓大廈,D201000186,秀和里,新北市永和區秀和里林森路44巷6弄1號,3,649.0,秀朗派出所,,121.52545,25.005405
台大御園,D201000187,秀和里,新北市永和區秀和里永利路138號,3,1180.0,秀朗派出所,,121.52192,25.00283
永基京華大樓,D201000189,永元里,新北市永和區永元里得和路211號,2,669.0,秀朗派出所,,121.51921,25.000316
台北愛河,D201000190,河濱里,新北市永和區河濱里福和路7巷7號,5,1211.0,秀朗派出所,,121.5253,25.007889
私人住宅大樓,D201000191,永元里,新北市永和區永元里郎秀朗路二段24巷16弄16號,2,401.0,秀朗派出所,,121.52024,25.002342
福和賞,D201000192,河濱里,新北市永和區河濱子河濱子7鄰福和路5號,3,1107.0,秀朗派出所,,121.52565,25.007977
私人住宅大樓,D201000194,秀和里,新北市永和區秀和里秀朗路二段35巷26號,1,146.0,秀朗派出所,,121.52172,25.002781
秀朗時尚公寓大廈,D201000195,永元路,新北市永和區永元路99號,1,59.0,秀朗派出所,,121.52244,25.002156
私人住宅大樓,D201000196,秀朗里,新北市永和區秀朗里永利路322巷29號,2,770.0,秀朗派出所,,121.52525,25.002761
私人住宅大樓,D201000197,秀和里,新北市永和區秀和里永元路97號,3,822.0,秀朗派出所,,121.52242,25.002095
芬第夏宮,D201000198,福和里,新北市永和區福和里永利路72巷1號,3,864.0,秀朗派出所,,121.52013,25.003944
芬第夏宮,D201000199,福和里,新北市永和區福和里永貞路45號,3,1683.0,秀朗派出所,,121.51959,25.004428
長虹華府,D201000200,秀林里,新北市永和區秀林里永元路120號,4,1259.0,秀朗派出所,,121.52276,25.002487
私人住宅大樓,D201000201,福和里,新北市永和區福和里永寧街135巷31號,1,58.0,秀朗派出所,,121.51877,25.0048
私人住宅大樓,D201000202,福和里,新北市永和區福和里永利路94巷5號,1,92.0,秀朗派出所,,121.52071,25.003461
私人住宅大樓,D201000203,秀朗里,新北市永和區秀朗里秀朗路二段181巷2號,1,243.0,秀朗派出所,,121.5263,25.00141
私人住宅大樓,D201000204,永元里,新北市永和區永元里得和路243巷21號,1,203.0,秀朗派出所,,121.52057,25.000865
秀朗晶悅,D201000205,得和里,新北市永和區得和里秀朗路一段220巷9號,1,186.0,秀朗派出所,,121.52001,25.002742
私人住宅大樓,D201000206,福和里,新北市永和區福和里永利路72號,1,440.0,秀朗派出所,,121.52029,25.004128
永利臻園,D201000207,秀和里,新北市永和區秀和里永利路96號,1,311.0,秀朗派出所,,121.52094,25.00359
漢皇德居,D201000208,秀林里,新北市永和區秀林里秀朗路二段80號,3,311.0,秀朗派出所,,121.52311,25.001598
永和運動中心,D201000209,秀林里,新北市永和區秀林里永利路250號,3,1847.0,秀朗派出所,,121.52428,25.003231
私人住宅大樓,D201000210,永興里,新北市永和區永興里永利路137之1號,1,90.0,秀朗派出所,,121.52393,25.003575
廣宇晴朗社區,D201000212,秀林里,新北市永和區秀林里秀朗路二段101號,1,86.0,秀朗派出所,,121.52351,25.001724
東煒大和,D201000213,秀和里,新北市永和區秀和里林森路126號,1,813.0,秀朗派出所,,121.52215,25.003172
私人住宅大樓,D201000215,得和里,新北市永和區得和里秀朗路一段220巷5號,1,131.0,秀朗派出所,,121.52011,25.002836
吉明秀,D201000216,秀林里,新北市永和區秀林里秀朗路二段133號,1,786.0,秀朗派出所,,121.52454,25.001674
廣宇晴朗II,D201000217,秀林里,新北市永和區秀林里秀朗路二段117號,1,515.0,秀朗派出所,,121.52402,25.001901
偉茂大樓,D202000088,店街里,新北市永和區店街里福和路327號,1,155.0,永和派出所,,121.51574,25.007158
私人住宅大樓,D202000089,雙和里,新北市永和區雙和里中和路381號,1,145.0,永和派出所,,121.5085,24.999989
私人住宅大樓,D202000090,保平里,新北市永和區保平里保平路236巷15弄18號,1,193.0,永和派出所,,121.50778,25.006783
銀河第凡內大廈,D202000091,雙和里,新北市永和區雙和里中和路433號,1,240.0,永和派出所,,121.5093,25.001142
私人住宅大樓,D202000092,和平里,新北市永和區和平里和平街95巷4弄4號,1,102.0,永和派出所,,121.51119,25.00974
私人住宅大樓,D202000093,安和里,新北市永和區安和里雙和街64巷12號,1,212.0,永和派出所,,121.50946,25.003292
中正擎天,D202000094,店街里,新北市永和區店街里中正路417號,1,143.0,永和派出所,,121.51711,25.004941
私人住宅大樓,D202000095,大新里,新北市永和區大新里福和路320號,1,148.0,永和派出所,,121.5157,25.007369
日富?和大廈,D202000096,安和里,新北市永和區安和里雙和街16巷10號,1,565.0,永和派出所,,121.50993,25.002299
私人住宅大樓,D202000097,水源里,新北市永和區水源里水源街42巷5之1號,1,150.0,永和派出所,,121.51049,25.004733
私人住宅大樓,D202000098,永樂里,新北市永和區永樂里安樂路459號,1,103.0,永和派出所,,121.51421,25.005141
私人住宅大樓,D202000099,永安里,新北市永和區永安里秀朗路一段100號,1,247.0,永和派出所,,121.51634,25.004433
私人住宅大樓,D202000100,和平里,新北市永和區和平里永平路186號,1,313.0,永和派出所,,121.51047,25.009289
私人住宅大樓,D202000101,雙和里,新北市永和區雙和里雙和街17巷24號,1,123.0,永和派出所,,121.50886,25.001395
私人住宅大樓,D202000102,店街里,新北市永和區店街里永和路一段120號,2,462.0,永和派出所,,121.51402,25.007728
私人住宅大樓,D202000103,永樂里,新北市永和區永樂里安樂路481號,1,321.0,永和派出所,,121.51431,25.00586
自由家大廈,D202000104,永樂里,新北市永和區永樂里自由街51號,1,151.0,永和派出所,,121.51389,25.00571
私人住宅大樓,D202000105,永樂里,新北市永和區永樂里永和路一段62號,1,81.0,永和派出所,,121.51311,25.00594
私人住宅大樓,D202000106,安和里,新北市永和區安和里雙和街64巷1號,1,294.0,永和派出所,,121.50913,25.003486
私人住宅大樓,D202000107,永安里,新北市永和區永安里秀朗路一段90巷1號,1,196.0,永和派出所,,121.51599,25.004871
私人住宅大樓,D202000108,永樂里,新北市永和區永樂里自由街70號,1,302.0,永和派出所,,121.51343,25.005519
私人住宅大樓,D202000109,前溪里,新北市永和區前溪里永平路26號,2,304.0,永和派出所,,121.51329,25.008957
公寓,D202000110,協和里,新北市永和區協和里保福路一段9巷8號,1,97.0,永和派出所,,121.51279,25.008059
私人住宅大樓,D202000111,店街里,新北市永和區店街里中正路465巷17弄20號,1,232.0,永和派出所,,121.51636,25.005378
私人住宅大樓,D202000112,潭墘里,新北市永和區潭墘里得和路29號,1,187.0,永和派出所,,121.51572,25.000367
中正麒麟,D202000113,大新里,新北市永和區大新里中正路541號,1,1309.0,永和派出所,,121.5168,25.007968
私人住宅大樓,D202000114,永安里,新北市永和區永安里永貞路186號,1,340.0,永和派出所,,121.51618,25.004302
宏智大廈,D202000115,雙和里,新北市永和區雙和里中和路423號,1,170.0,永和派出所,,121.50927,25.000791
私人住宅大樓,D202000116,前溪里,新北市永和區前溪里中山路一段25號,1,325.0,永和派出所,,121.51362,25.01038
私人住宅大樓,D202000117,和平里,新北市永和區和平里保福路一段35巷13號,1,147.0,永和派出所,,121.51222,25.008804
富貴?星,D202000118,和平里,新北市永和區和平里永平路74號,2,847.0,永和派出所,,121.51215,25.00856
現代經典,D202000119,雙和里,新北市永和區雙和里雙和街1號,1,759.0,永和派出所,,121.50988,25.001578
私人住宅大樓,D202000120,保平里,新北市永和區保平里保平路268巷51弄2號,1,1673.0,永和派出所,,121.50699,25.006327
私人住宅大樓,D202000121,永安里,新北市永和區永安里永貞路177號,1,347.0,永和派出所,,121.51522,25.003861
私人住宅大樓,D202000122,店街里,新北市永和區店街里中正路435號,1,340.0,永和派出所,,121.5171,25.005111
私人住宅大樓,D202000123,協和里,新北市永和區協和里永和路一段49巷6號,1,136.0,永和派出所,,121.51238,25.006955
私人住宅大樓,D202000124,潭墘里,新北市永和區潭墘里安樂路102號,1,129.0,永和派出所,,121.51426,24.999481
台北福第,D202000125,大新里,新北市永和區大新里福和路296號,2,1186.0,永和派出所,,121.51682,25.007484
私人住宅大樓,D202000126,保平里,新北市永和區保平里保平路290號,1,239.0,永和派出所,,121.50814,25.004645
私人住宅大樓,D202000127,店街里,新北市永和區店街里秀朗路一段81巷4號,1,97.0,永和派出所,,121.51541,25.00671
福星金融大樓,D202000128,協和里,新北市永和區協和里永和路一段67號,3,675.0,永和派出所,,121.51303,25.007064
私人住宅大樓,D202000129,雙和里,新北市永和區雙和里中和路421巷16弄12號,1,128.0,永和派出所,,121.50872,25.001249
私人住宅大樓,D202000130,安和里,新北市永和區安和里雙和街32號,1,121.0,永和派出所,,121.50899,25.00277
私人住宅大樓,D202000131,永安里,新北市永和區永安里永貞路149號,2,190.0,永和派出所,,121.51596,25.004035
私人住宅大樓,D202000132,店街里,新北市永和區店街里秀朗路一段81巷1號,1,154.0,永和派出所,,121.51518,25.006637
私人住宅大樓,D202000133,大新里,新北市永和區大新里福和路310號,1,138.0,永和派出所,,121.51638,25.007428
私人住宅大樓,D202000134,永樂里,新北市永和區永樂里永和路一段2號,3,877.0,永和派出所,,121.51275,25.004415
私人住宅大樓,D202000135,店街里,新北市永和區店街里中正路511號,3,595.0,永和派出所,,121.51687,25.007209
私人住宅大樓,D202000136,店街里,新北市永和區店街里福和路323號,1,125.0,永和派出所,,121.51588,25.007167
尚林苑社區,D202000137,永安里,新北市永和區永安里安樂路306號,2,1505.0,永和派出所,,121.51454,25.005462
富貴良緣社區,D202000138,永安里,新北市永和區永安里永貞路153號,3,1386.0,永和派出所,,121.51567,25.003941
私人住宅大樓,D202000139,安和里,新北市永和區安和里雙和街38號,1,159.0,永和派出所,,121.50904,25.002928
私人住宅大樓,D202000140,雙和里,新北市永和區雙和里雙和街17巷17號,1,125.0,永和派出所,,121.50909,25.001392
富綠第社區,D202000141,永樂里,新北市永和區永樂里永和路一段8號,2,693.0,永和派出所,,121.51289,25.004578
私人住宅大樓,D202000142,雙和里,新北市永和區雙和里雙和街17巷5號,1,188.0,永和派出所,,121.5092,25.00156
私人住宅大樓,D202000143,水源里,新北市永和區水源里永貞路287巷5號,1,165.0,永和派出所,,121.51058,25.004908
誠家興大樓,D202000144,安和里,新北市永和區安和里中和路595號,2,452.0,永和派出所,,121.51218,25.004176
私人住宅大樓,D202000145,雙和里,新北市永和區雙和里中和路421巷20號,1,411.0,永和派出所,,121.50848,25.001226
私人住宅大樓,D202000146,雙和里,新北市永和區雙和里中和路389巷2號,1,91.0,永和派出所,,121.50822,25.000707
雅緻銘園,D202000147,雙和里,新北市永和區雙和里中和路421巷3弄16號,1,553.0,永和派出所,,121.50867,25.000706
永平新鑽,D202000148,和平里,新北市永和區和平里永平路181號,1,191.0,永和派出所,,121.51031,25.009218
華金名園,D202000149,雙和里,新北市永和區雙和里中和路385號,2,257.0,永和派出所,,121.50862,25.000098
私人住宅大樓,D202000150,和平里,新北市永和區和平里永平路144號,1,135.0,永和派出所,,121.51157,25.008543
私人住宅大樓,D202000151,雙和里,新北市永和區雙和里中和路393號,4,1452.0,永和派出所,,121.50874,25.000269
國豐公園,D202000152,潭墘里,新北市永和區潭墘里安樂路156號,2,454.0,永和派出所,,121.51447,25.000597
金歡喜,D202000153,安和里,新北市永和區安和里中和路489號,3,985.0,永和派出所,,121.51042,25.00214
自由大廈,D202000154,永樂里,新北市永和區永樂里自由街64號,2,443.0,永和派出所,,121.51355,25.005653
私人住宅大樓,D202000155,店街里,新北市永和區店街里中正路465巷22號,1,84.0,永和派出所,,121.51628,25.005981
私人住宅大樓,D202000156,和平里,新北市永和區和平里永平路173巷8號,1,228.0,永和派出所,,121.51032,25.008671
永和新宿,D202000157,店街里,新北市永和區店街里福和路385號,2,113.0,永和派出所,,121.5143,25.007581
私人住宅大樓,D202000158,雙和里,新北市永和區雙和里中和路389巷7號,1,79.0,永和派出所,,121.50808,25.000709
象山苑,D202000159,水源里,新北市永和區水源里保平路205號,2,727.0,永和派出所,,121.50884,25.004957
新?社區,D202000160,永安里,新北市永和區永安里秀朗路一段80號,2,4815.0,永和派出所,,121.51575,25.005767
私人住宅大樓,D202000161,和平里,新北市永和區和平里保平路236巷14號,1,542.0,永和派出所,,121.50837,25.006626
私人住宅大樓,D202000162,保平里,新北市永和區保平里保平路236巷25號1,1,270.0,永和派出所,,121.50816,25.006624
私人住宅大樓,D202000163,潭墘里,新北市永和區潭墘里安樂路132號,1,441.0,永和派出所,,121.51419,25.000103
私人住宅大樓,D202000164,水源里,新北市永和區水源里水源街12號,1,250.0,永和派出所,,121.51247,25.005032
私人住宅大樓,D202000165,大新里,新北市永和區大新里大新街9號,1,103.0,永和派出所,,121.51464,25.008629
私人住宅大樓,D202000166,安和里,新北市永和區安和里雙和街16巷6號,1,300.0,永和派出所,,121.5098,25.002223
私人住宅大樓,D202000167,前溪里,新北市永和區前溪里中山路一段99巷1號,2,241.0,永和派出所,,121.51132,25.010341
私人住宅大樓,D202000168,店街里,新北市永和區店街里中正路405號,3,1338.0,永和派出所,,121.51714,25.004602
私人住宅大樓,D202000169,前溪里,新北市永和區前溪里中山路一段29號,1,111.0,永和派出所,,121.51341,25.010423
私人住宅大樓,D202000170,安和里,新北市永和區安和里水源街33巷1號,1,137.0,永和派出所,,121.51082,25.004372
私人住宅大樓,D202000171,前溪里,新北市永和區前溪里和平街64號,1,108.0,永和派出所,,121.51212,25.009991
私人住宅大樓,D202000172,店街里,新北市永和區店街里秀朗路一段139巷1號,1,90.0,永和派出所,,121.51639,25.004925
私人住宅大樓,D202000173,永安里,新北市永和區永安里永貞路175號,1,54.0,永和派出所,,121.51535,25.003894
私人住宅大樓,D202000174,保平里,新北市永和區保平里永貞路337號,2,188.0,永和派出所,,121.50953,25.007016
私人住宅大樓,D202000175,協和里,新北市永和區協和里保平路111巷5號,1,150.0,永和派出所,,121.51157,25.006069
私人住宅大樓,D202000176,永安里,新北市永和區永安里安樂路332巷210號,1,498.0,永和派出所,,121.51486,25.006165
私人住宅大樓,D202000177,協和里,新北市永和區協和里永平路51號,2,275.0,永和派出所,,121.51274,25.008565
樂華尚品,D202000178,大新里,新北市永和區大新里永和路一段140號,3,924.0,永和派出所,,121.51408,25.008077
中正金典,D202000179,店街里,新北市永和區店街里中正路465巷2號,1,261.0,永和派出所,,121.51685,25.006056
私人住宅大樓,D202000180,大新里,新北市永和區大新里福和路366號,1,197.0,永和派出所,,121.51451,25.007676
私人住宅大樓,D202000181,店街里,新北市永和區店街里自由街12號,2,261.0,永和派出所,,121.51464,25.006881
歐特儀,D202000182,潭墘里,新北市永和區潭墘里秀朗路一段120號,1,733.0,永和派出所,,121.51699,25.003609
私人住宅大樓,D202000183,前溪里,新北市永和區前溪里中山路一段31號,3,552.0,永和派出所,,121.51333,25.010438
私人住宅大樓,D202000184,和平里,新北市永和區和平里中山路一段213號,2,354.0,永和派出所,,121.50845,25.00811
永安讚,D202000185,安和里,新北市永和區安和里中和路531號,2,773.0,永和派出所,,121.51115,25.002984
永安傑座,D202000186,和平里,新北市永和區和平里永貞路418號,2,510.0,永和派出所,,121.50885,25.008097
私人住宅大樓,D202000187,保平里,新北市永和區保平里永貞路372號,2,634.0,永和派出所,,121.50994,25.006918
君國公園,D202000188,潭墘里,新北市永和區潭墘里安樂路170號,2,262.0,永和派出所,,121.51478,25.000927
私人住宅大樓,D202000189,大新里,新北市永和區大新里自強街32巷2號,2,809.0,永和派出所,,121.51579,25.007863
私人住宅大樓,D202000190,永樂里,新北市永和區永樂里永和路一段20號,2,178.0,永和派出所,,121.51302,25.004713
私人住宅大樓,D202000191,協和里,新北市永和區協和里保平路111巷1號,1,51.0,永和派出所,,121.5114,25.006493
摩登崇光,D202000192,保平里,新北市永和區保平里中山路一段311號,3,1322.0,永和派出所,,121.50649,25.006424
合園載品,D202000193,安和里,新北市永和區安和里中和路483號,2,184.0,永和派出所,,121.51035,25.002014
私人住宅大樓,D202000194,前溪里,新北市永和區前溪里保福路一段68號,1,79.0,永和派出所,,121.51268,25.009792
私人住宅大樓,D202000195,潭墘里,新北市永和區潭墘里安樂路148號,1,870.0,永和派出所,,121.51434,25.000466
私人住宅大樓,D202000196,潭墘里,新北市永和區潭墘里得和路52號,1,72.0,永和派出所,,121.51599,25.000102
私人住宅大樓,D202000197,永樂里,新北市永和區永樂里永和路一段102號,2,595.0,永和派出所,,121.51337,25.00711
永和晶華,D202000198,水源里,新北市永和區水源里永和路一段3號,2,655.0,永和派出所,,121.5129,25.005206
私人住宅大樓,D202000199,店街里,新北市永和區店街村店街村10鄰中正路465巷17弄12號,1,88.0,永和派出所,,121.51633,25.005593
法國臻品,D202000200,潭墘里,新北市永和區潭墘里安樂路248號,2,520.0,永和派出所,,121.51476,25.003319
法國臻品,D202000201,潭墘里,新北市永和區潭墘里安樂路242號,2,2289.0,永和派出所,,121.5149,25.002832
私人住宅大樓,D202000202,協和里,新北市永和區協和里永和路一段129號,2,425.0,永和派出所,,121.51393,25.008613
私人住宅大樓,D202000203,保平里,新北市永和區保平里中山路一段331號,1,146.0,永和派出所,,121.50619,25.006268
私人住宅大樓,D202000204,前溪里,新北市永和區前溪里中山路一段７號,2,109.0,永和派出所,,121.51412,25.010268
柯達飯店,D202000205,協和里,新北市永和區協和里永和路一段103號,2,222.0,永和派出所,,121.51371,25.007754
永安晶華,D202000206,雙和里,新北市永和區雙和里中和路429號,2,320.0,永和派出所,,121.50939,25.000927
永和巴黎藝術紀,D202000207,和平里,新北市永和區和平村和平村6鄰中山路一段141號,2,462.0,永和派出所,,121.51039,25.009737
私人住宅大樓,D202000208,和平里,新北市永和區和平里中山路一段191巷2弄15號,3,731.0,永和派出所,,121.50927,25.008687
公寓,D202000209,潭墘里,新北市永和區潭墘里中正路299號,2,6746.0,永和派出所,,121.51741,25.001753
台北西華莎翁特區,D202000210,和平里,新北市永和區和平里中山路一段207號,2,163.0,永和派出所,,121.50889,25.008504
永和國小,D202000211,潭墘里,新北市永和區潭墘里秀朗路一段120號,1,575.0,永和派出所,,121.51699,25.003609
紐約蘇活社區,D202000212,永樂里,新北市永和區永樂里永和路一段112號,3,261.0,永和派出所,,121.51362,25.007349
黃金時代,D202000213,保平里,新北市永和區保平里保平路491號,3,747.0,永和派出所,,121.50814,25.004645
私人住宅大樓,D202000214,潭墘里,新北市永和區潭墘里安樂路106號,1,85.0,永和派出所,,121.51425,24.999642
凱旋臻品社區,D202000215,水源里,新北市永和區水源里永貞路306巷1號,3,962.0,永和派出所,,121.51202,25.00486
私人住宅大樓,D202000216,和平里,新北市永和區和平里保平路50巷24號,1,138.0,永和派出所,,121.51059,25.008113
私人住宅大樓,D202000217,協和里,新北市永和區協和里保平路50巷23號,1,427.0,永和派出所,,121.51066,25.007786
私人住宅大樓,D202000218,大新里,新北市永和區大新里福和路316號,3,727.0,永和派出所,,121.51609,25.007424
私人住宅大樓,D202000219,和平里,新北市永和區和平里保福路一段47巷17號,3,695.0,永和派出所,,121.51201,25.009107
私人住宅大樓,D202000220,大新里,新北市永和區大新里自強街26號,1,120.0,永和派出所,,121.51542,25.008014
寶帝,D202000221,潭墘里,新北市永和區潭墘里安樂路144巷68號,2,595.0,永和派出所,,121.51524,24.999182
三輝官隱,D202000222,店街里,新北市永和區店街里中正路465巷17弄12號,1,652.0,永和派出所,,121.51633,25.005593
公園四季,D202000223,潭墘里,新北市永和區潭墘里安樂路144巷18號,3,1120.0,永和派出所,,121.515,24.999803
三輝謙里,D202000224,店街里,新北市永和區店街里中正路507號,2,176.0,永和派出所,,121.51689,25.007008
私人住宅大樓,D202000225,前溪里,新北市永和區前溪里永和路一段171號,1,399.0,永和派出所,,121.51429,25.009799
私人住宅大樓,D202000226,店街里,新北市永和區店街里福和路309巷15號,1,123.0,永和派出所,,121.51636,25.006583
私人住宅大樓,D202000227,店街里,新北市永和區店街里中正路465巷26號,1,113.0,永和派出所,,121.51624,25.005969
漢皇極品,D202000228,店街里,新北市永和區店街里中正路465巷21號,1,629.0,永和派出所,,121.5161,25.005861
永安一品社區,D202000229,水源里,新北市永和區水源里水源街2巷9號,1,234.0,永和派出所,,121.51218,25.005617
大新里活動中心,D202000230,大新里,新北市永和區大新里大新街45巷1號,1,152.0,永和派出所,,121.51559,25.008636
銀河星光大廈,D202000231,店街里,新北市永和區店街里福和路343號,3,264.0,永和派出所,,121.51546,25.007121
私人住宅大樓,D202000232,店街里,新北市永和區店街里福和路309巷14弄20號,1,76.0,永和派出所,,121.51569,25.006706
御極賞社區,D202000233,和平里,新北市永和區和平里中山路一段269號,1,427.0,永和派出所,,121.50732,25.007207
私人住宅大樓,D202000234,協和里,新北市永和區協和里保平路33號,1,194.0,永和派出所,,121.51213,25.007268
私人住宅大樓,D202000235,雙和里,新北市永和區雙和里雙和街7巷7號,1,182.0,永和派出所,,121.50956,25.001488
私人住宅大樓,D202000236,雙和里,新北市永和區雙和里雙和街17巷6號,1,137.0,永和派出所,,121.50921,25.001824
私人住宅大樓,D202000237,雙和里,新北市永和區雙和里雙和街17巷6號,1,42.0,永和派出所,,121.50921,25.001824
同國富大廈,D202000238,前溪里,新北市永和區前溪里中山路一段1號,1,309.0,永和派出所,,121.51431,25.010202
私人住宅大樓,D202000239,永安里,新北市永和區永安里安樂路272巷9弄2號,1,135.0,永和派出所,,121.51511,25.004456
私人住宅大樓,D202000240,潭墘里,新北市永和區潭墘里安樂路194巷13號,1,89.0,永和派出所,,121.51565,25.001072
私人住宅大樓,D202000241,前溪里,新北市永和區前溪里中山路一段19號,1,73.0,永和派出所,,121.51375,25.010344
私人住宅大樓,D202000242,和平里,新北市永和區和平里中山路1段191巷9弄2號,1,52.0,永和派出所,,121.50973,25.008035
私人住宅大樓,D202000243,潭墘里,新北市永和區潭墘里9鄰得和路23號,1,337.0,永和派出所,,121.51562,25.000439
私人住宅大樓,D202000244,店街里,新北市永和區店街里004鄰自由街15號,1,369.0,永和派出所,,121.51478,25.006722
見，築家,D202000245,保平里,新北市永和區保平里永貞路380號,,916.0,永和派出所,,121.50991,25.007027
統領心鑽,D203000110,豫溪里,新北市永和區豫溪里中正路641號,2,733.0,中正橋派出所,,121.51531,25.010031
私人住宅大樓,D203000111,河堤里,新北市永和區河堤里環河西路一段85巷4弄13號,1,111.0,中正橋派出所,,121.51235,25.017131
私人住宅大樓,D203000112,勵行里,新北市永和區勵行里竹林路4號,2,249.0,中正橋派出所,,121.5162,25.014844
仰德大廈,D203000113,桂林里,新北市永和區桂林里竹林路91巷60弄14號,2,1137.0,中正橋派出所,,121.52202,25.012598
私人住宅大樓,D203000114,頂溪里,新北市永和區頂溪里永和路二段285號,2,237.0,中正橋派出所,,121.51592,25.015857
公寓,D203000115,上溪里,新北市永和區上溪里文化路113巷13弄1號,1,72.0,中正橋派出所,,121.5131,25.014401
私人住宅大樓,D203000116,復興里,新北市永和區復興里博愛街38號,1,73.0,中正橋派出所,,121.51985,25.015938
私人住宅大樓,D203000117,勵行里,新北市永和區勵行里14鄰復興街59號,1,372.0,中正橋派出所,,121.51721,25.013721
私人住宅大樓,D203000118,光明里,新北市永和區光明里福和路280巷11號,1,143.0,中正橋派出所,,121.5176,25.008034
私人住宅大樓,D203000119,上溪里,新北市永和區上溪里文化路113巷35號,1,165.0,中正橋派出所,,121.5132,25.013542
竹林風情,D203000120,桂林里,新北市永和區桂林里竹林路109巷2號,1,217.0,中正橋派出所,,121.52009,25.011858
銀河摘星大樓,D203000121,光明里,新北市永和區光明里中正路644號,1,293.0,中正橋派出所,,121.51698,25.008349
公寓,D203000122,正興里,新北市永和區正興里中正路702巷6弄5號,1,27.0,中正橋派出所,,121.51675,25.010264
私人住宅大樓,D203000123,中興里,新北市永和區中興里中興街133巷21號,1,118.0,中正橋派出所,,121.51769,25.012355
百威天廈,D203000124,光明里,新北市永和區光明里中正路638號,2,352.0,中正橋派出所,,121.51702,25.008278
私人住宅大樓,D203000125,竹林里,新北市永和區竹林里竹林路133號,1,166.0,中正橋派出所,,121.52026,25.01116
中正翡翠大廈,D203000126,光明里,新北市永和區光明里中正路626號,2,302.0,中正橋派出所,,121.517,25.008001
竹林雅築,D203000127,竹林里,新北市永和區竹林里竹林路179巷16號,1,263.0,中正橋派出所,,121.52132,25.00986
公寓,D203000128,正興里,新北市永和區正興里永和路二段74號,1,94.0,中正橋派出所,,121.51497,25.011201
私人住宅大樓,D203000129,竹林里,新北市永和區竹林里竹林路179巷21號,1,348.0,中正橋派出所,,121.52141,25.01004
私人住宅大樓,D203000130,河堤里,新北市永和區河堤里文化路144巷31弄12號,1,203.0,中正橋派出所,,121.51233,25.016862
翠提香榭大廈,D203000131,上林里,新北市永和區上林里竹林路39巷36號,3,1600.0,中正橋派出所,,121.51978,25.015024
私人住宅大樓,D203000132,竹林里,新北市永和區竹林里豫溪街136巷1號,1,122.0,中正橋派出所,,121.52119,25.010305
私人住宅大樓,D203000133,豫溪里,新北市永和區豫溪里豫溪街28巷15號,1,63.0,中正橋派出所,,121.51521,25.00921
私人住宅大樓,D203000134,豫溪里,新北市永和區豫溪里豫溪街57巷21號,1,121.0,中正橋派出所,,121.51727,25.010538
私人住宅大樓,D203000136,光明里,新北市永和區光明里福和路186號,2,516.0,中正橋派出所,,121.52034,25.007843
私人住宅大樓,D203000137,上溪里,新北市永和區上溪里文化路19號,1,67.0,中正橋派出所,,121.51502,25.014924
網溪國小,D203000138,上林里,新北市永和區上林里竹林路79號,1,452.0,中正橋派出所,,121.51934,25.012936
私人住宅大樓,D203000139,正興里,新北市永和區正興里永和路二段28號,1,213.0,中正橋派出所,,121.51476,25.010416
捷運新宿大廈,D203000140,正興里,新北市永和區正興里永和路二段94號,2,1268.0,中正橋派出所,,121.51509,25.011671
薪傳世家,D203000141,福和里,新北市永和區福和里福和路154號,3,563.0,中正橋派出所,,121.51906,25.007486
竹林逸境,D203000142,光明里,新北市永和區光明里國光路61號,1,137.0,中正橋派出所,,121.51867,25.008295
私人住宅大樓,D203000143,河堤里,新北市永和區河堤里永和路二段425巷37弄1號,1,130.0,中正橋派出所,,121.5142,25.017305
私人住宅大樓,D203000144,竹林里,新北市永和區竹林里豫溪街136巷3號,1,111.0,中正橋派出所,,121.52121,25.010195
公寓,D203000145,勵行里,新北市永和區勵行里勵行街44號,1,139.0,中正橋派出所,,121.51645,25.013626
私人住宅大樓,D203000146,正興里,新北市永和區正興里中正路700號,2,186.0,中正橋派出所,,121.51638,25.009927
私人住宅大樓,D203000147,上溪里,新北市永和區上溪里仁愛路8號,3,333.0,中正橋派出所,,121.51513,25.013646
私人住宅大樓,D203000148,豫溪里,新北市永和區豫溪里豫溪74巷7弄1號,1,54.0,中正橋派出所,,121.51742,25.00976
桂林公寓,D203000149,桂林里,新北市永和區桂林里竹林路95號,1,138.0,中正橋派出所,,121.51978,25.012153
私人住宅大樓,D203000150,新?里,新北市永和區新?里文化路144巷33號,2,509.0,中正橋派出所,,121.5126,25.016826
中正秀彥,D203000151,豫溪里,新北市永和區豫溪里豫溪50號,1,108.0,中正橋派出所,,121.51586,25.009833
私人住宅大樓,D203000152,光明里,新北市永和區光明里福和路278號,2,285.0,中正橋派出所,,121.51788,25.007583
福和麗園,D203000153,光明里,新北市永和區光明里大新街73巷1號,1,191.0,中正橋派出所,,121.51775,25.008418
中正秀彥,D203000154,豫溪里,新北市永和區豫溪里中正路617號,2,408.0,中正橋派出所,,121.51607,25.009812
鴻運金碧大樓,D203000155,光明里,新北市永和區光明里福和路178號,1,159.0,中正橋派出所,,121.52061,25.007868
中正嘉園,D203000156,光明里,新北市永和區光明里中正路654巷39號,1,11.0,中正橋派出所,,121.51768,25.008635
私人住宅大樓,D203000157,光明里,新北市永和區光明里大新街84號,1,40.0,中正橋派出所,,121.51778,25.008098
台大綠灣,D203000158,桂林里,新北市永和區桂林里環河東路二段56號,3,1751.0,中正橋派出所,,121.52335,25.011387
銀河國寶,D203000159,光明里,新北市永和區光明里國光路12巷1號,2,637.0,中正橋派出所,,121.51917,25.008517
銀河竹林庭,D203000160,桂林里,新北市永和區桂林里竹林路119巷59號,1,363.0,中正橋派出所,,121.52248,25.012048
台大公館,D203000161,福和里,新北市永和區福和里福和路48號,3,443.0,中正橋派出所,,121.51906,25.007486
都市天地,D203000162,復興里,新北市永和區復興里環河東路106號,2,464.0,中正橋派出所,,121.51998,25.015962
竹友大廈,D203000163,上林里,新北市永和區上林里環河東路一段158號,2,177.0,中正橋派出所,,121.52118,25.014542
崇合大樓,D203000164,光明里,新北市永和區光明里中正路654巷1號,1,281.0,中正橋派出所,,121.51697,25.008623
景新大樓,D203000165,竹林里,新北市永和區竹林里豫溪街169巷2號,1,240.0,中正橋派出所,,121.52196,25.010801
私人住宅大樓,D203000166,豫溪里,新北市永和區豫溪里豫溪街36號,1,125.0,中正橋派出所,,121.51537,25.009837
綠茵河畔,D203000167,上林里,新北市永和區上林里環河東路一段162號,2,291.0,中正橋派出所,,121.5213,25.014419
私人住宅大樓,D203000168,上溪里,新北市永和區上溪里仁愛路42號,1,91.0,中正橋派出所,,121.51419,25.013545
私人住宅大樓,D203000169,上林里,新北市永和區上林里竹林路81號,2,247.0,中正橋派出所,,121.51962,25.012457
私人住宅大樓,D203000170,上林里,新北市永和區上林里環河東路一段140號,1,76.0,中正橋派出所,,121.52083,25.014981
私人住宅大樓,D203000171,河堤里,新北市永和區河堤里環河西路一段19號,3,388.0,中正橋派出所,,121.51442,25.018022
濤園,D203000172,光復里,新北市永和區光復里環河東路一段64號,3,1163.0,中正橋派出所,,121.51905,25.016689
私人住宅大樓,D203000173,勵行里,新北市永和區勵行里竹林路30號,2,177.0,中正橋派出所,,121.51702,25.014741
莊敬高中,D203000174,復興里,新北市永和區復興里博愛街36號,1,1940.0,中正橋派出所,,121.51929,25.015778
中正都星,D203000175,豫溪里,新北市永和區豫溪里中正路611號,2,283.0,中正橋派出所,,121.51618,25.009742
私人住宅大樓,D203000176,上溪里,新北市永和區上溪里仁愛路50號,1,223.0,中正橋派出所,,121.51396,25.0135
私人住宅大樓,D203000177,光明里,新北市永和區光明里國光路89號,1,57.0,中正橋派出所,,121.51827,25.008857
私人住宅大樓,D203000178,竹林里,新北市永和區竹林里竹林路119巷18弄2號,1,40.0,中正橋派出所,,121.52101,25.01133
私人住宅大樓,D203000179,頂溪里,新北市永和區頂溪里忠孝街36號,2,2260.0,中正橋派出所,,121.51472,25.015835
竹林明爐大廈,D203000180,竹林里,新北市永和區竹林里竹林路167號,1,240.0,中正橋派出所,,121.52054,25.01015
私人住宅大樓,D203000181,河堤里,新北市永和區河堤里永和路二段425巷70號,1,182.0,中正橋派出所,,121.51351,25.017186
帝王大廈,D203000182,豫溪里,新北市永和區豫溪里中正路657號,3,764.0,中正橋派出所,,121.51493,25.010136
私人住宅大樓,D203000183,光明里,新北市永和區光明里中正路666巷8號,1,175.0,中正橋派出所,,121.51711,25.009021
私人住宅大樓,D203000184,網溪里,新北市永和區網溪里光復街16巷40號,1,256.0,中正橋派出所,,121.51759,25.016959
私人住宅大樓,D203000185,復興里,新北市永和區復興里環河東路一段114號,3,804.0,中正橋派出所,,121.52018,25.015755
音悅河大廈,D203000186,桂林里,新北市永和區桂林里環河東路二段6號,2,559.0,中正橋派出所,,121.52197,25.013436
永和世家,D203000187,竹林里,新北市永和區竹林里竹林路193號,2,374.0,中正橋派出所,,121.52078,25.009403
私人住宅大樓,D203000188,正興里,新北市永和區正興里中正路702巷19號,1,54.0,中正橋派出所,,121.51633,25.010715
尊邸大廈,D203000189,豫溪里,新北市永和區豫溪里永和路一段212號,2,131.0,中正橋派出所,,121.51444,25.009494
築鄰書香,D203000190,復興里,新北市永和區復興里竹林路21號,2,463.0,中正橋派出所,,121.517,25.014943
私人住宅大樓,D203000191,光復里,新北市永和區光復里環河東路一段76號,2,294.0,中正橋派出所,,121.5194,25.016496
廣冠大砌,D203000192,豫溪里,新北市永和區豫溪里永和路一段224號,3,342.0,中正橋派出所,,121.51453,25.01004
私人住宅大樓,D203000193,桂林里,新北市永和區桂林里竹林路105號,1,51.0,中正橋派出所,,121.51984,25.011912
私人住宅大樓,D203000194,中興里,新北市永和區中興里復興街76號,1,76.0,中正橋派出所,,121.51707,25.013411
陽光花園,D203000195,河堤里,新北市永和區河堤里環河西路一段51巷10弄1號,2,1238.0,中正橋派出所,,121.51398,25.017864
臻璽名宅,D203000196,豫溪里,新北市永和區豫溪里竹林路168號,3,1299.0,中正橋派出所,,121.52029,25.010217
詠河大廈,D203000197,網溪里,新北市永和區網溪里環河東路一段42號,2,461.0,中正橋派出所,,121.51854,25.017041
峰閣公寓大廈,D203000198,頂溪里,新北市永和區頂溪里永和路二段279號,2,200.0,中正橋派出所,,121.51588,25.015656
國光大樓,D203000199,光明里,新北市永和區光明里國光路8號,3,2997.0,中正橋派出所,,121.51938,25.008568
私人住宅大樓,D203000200,竹林里,新北市永和區竹林里環河東路二段92號,1,221.0,中正橋派出所,,121.52393,25.010773
忠孝活動中心,D203000201,頂溪里,新北市永和區頂溪里忠孝街26巷8號,1,359.0,中正橋派出所,,121.51531,25.016856
台鳳天璽大樓,D203000202,河堤里,新北市永和區河堤里環河西路一段87號,1,1627.0,中正橋派出所,,121.51259,25.017915
德堡社區,D203000203,中興里,新北市永和區中興里竹林路60號,3,700.0,中正橋派出所,,121.51809,25.013772
保強卡地雅大廈,D203000204,上溪里,新北市永和區上溪里永和路永和路二段233號,2,186.0,中正橋派出所,,121.51547,25.014173
私人住宅大樓,D203000205,永興里,新北市永和區永興里國光路123號,3,754.0,中正橋派出所,,121.51747,25.011213
時尚頂曦大廈,D203000206,上溪里,新北市永和區上溪里文化路9巷16弄2號,1,154.0,中正橋派出所,,121.51509,25.014749
幸福達人大廈,D203000207,桂林里,新北市永和區桂林里竹林路119巷29號,1,99.0,中正橋派出所,,121.52147,25.011881
懷石社區,D203000208,豫溪里,新北市永和區豫溪里中正路680巷8號,1,82.0,中正橋派出所,,121.51742,25.009335
竹林富軒,D203000209,桂林里,新北市永和區桂林里竹林路109巷7號,1,69.0,中正橋派出所,,121.52028,25.012022
詠荷甲天下,D203000210,上林里,新北市永和區上林里竹林路39巷12號,1,575.0,中正橋派出所,,121.51842,25.014453
樺福水悅,D203000211,河堤里,新北市永和區河堤里環和西路一段83號,1,801.0,中正橋派出所,,121.51275,25.017976
頂溪捷運站,D203000212,勵行里,新北市永和區勵行里永和路二段168號,2,2572.0,中正橋派出所,,121.51551,25.013014
私人住宅大樓,D203000213,上林里,新北市永和區上林里竹林路75巷17號,1,73.0,中正橋派出所,,121.51988,25.013902
私人住宅大樓,D203000214,光明里,新北市永和區光明里中正路654巷43號,1,157.0,中正橋派出所,,121.51806,25.008898
私人住宅大樓,D203000217,光明里,新北市永和區光明里中正路614號,1,86.0,中正橋派出所,,121.51704,25.007619
私人住宅大樓,D203000218,頂溪里,新北市永和區頂溪里永和二段293號,2,98.0,中正橋派出所,,121.51593,25.015964
私人住宅大樓,D203000219,頂溪里,新北市永和區頂溪里忠孝街11號,1,116.0,中正橋派出所,,121.51471,25.015703
私人住宅大樓,D203000220,河堤里,新北市永和區河堤里永和路二段419號,1,40.0,中正橋派出所,,121.51516,25.017547
捷洋天湛,D203000221,河堤里,新北市永和區河堤里環河西一段11號,1,690.0,中正橋派出所,,121.51457,25.017998
台北U2社區,D203000222,中興里,新北市永和區中興里復興街102號,1,259.0,中正橋派出所,,121.51745,25.013756
首曜社區,D203000223,桂林里,新北市永和區桂林里豫溪街189巷2號,1,180.0,中正橋派出所,,121.52288,25.010378
樹琴公寓大廈,D203000224,正興里,新北市永和區正興里中正路738號,1,180.0,中正橋派出所,,121.51524,25.01027
博愛麗苑,D203000225,光復里,新北市永和區光復里博愛街19-1號,1,72.0,中正橋派出所,,121.51755,25.015887
私人住宅大樓,D203000226,竹林里,新北市永和區竹林里竹林119巷12號,2,126.0,中正橋派出所,,121.52089,25.01156
私人住宅大樓,D203000227,復興里,新北市永和區復興里博愛街32巷12號,1,79.0,中正橋派出所,,121.51876,25.015347
吉美一品花園,D203000228,中興里,新北市永和區中興里竹林路68號,1,2036.0,中正橋派出所,,121.51847,25.013349
網溪國小,D203000229,上林里,新北市永和區上林里竹林路79號,1,1136.0,中正橋派出所,,121.51934,25.012936
私人住宅大樓,D203000230,光明里,新北市永和區光明里中正路618號,2,40.0,中正橋派出所,,121.51706,25.00774
私人住宅大樓,D203000233,頂溪里,新北市永和區頂溪里忠孝街34巷9弄9號,1,24.0,中正橋派出所,,121.51432,25.016251
日景頂曦大廈,D203000234,中興里,新北市永和區中興里復興街32巷16號,1,189.0,中正橋派出所,,121.51623,25.012643
私人住宅大樓,D203000236,豫溪里,新北市永和區豫溪里14鄰中正路668號,1,88.0,中正橋派出所,,121.51688,25.009116
私人住宅大樓,D203000238,復興里,新北市永和區復興里竹林路11號,2,84.0,中正橋派出所,,121.5167834,25.01526152
嘉新皇邸大廈,D204000076,仁愛里,新北市永和區仁愛里仁愛路128號,2,2798.0,新生派出所,,121.51134,25.013138
私人住宅大樓,D204000078,保安里,新北市永和區保安里中山路一段168號,2,635.0,新生派出所,,121.50939,25.009268
豪泰大樓,D204000079,信義里,新北市永和區信義里永和路二段57號,2,608.0,新生派出所,,121.51461,25.01098
私人住宅大樓,D204000080,保順里,新北市永和區保順里保順路45號,2,3822.0,新生派出所,,121.50297,25.010942
私人住宅大樓,D204000081,信義里,新北市永和區信義里保福路二段16巷27號,1,95.0,新生派出所,,121.51158,25.011319
永平國小,D204000082,保安里,新北市永和區保安里保生路25號,1,2639.0,新生派出所,,121.50572,25.008053
經貿王朝,D204000083,保生里,新北市永和區保生里中山路一段320號,2,1804.0,新生派出所,,121.50656,25.006965
私人住宅大樓,D204000084,信義里,新北市永和區信義里保福路二段16巷1號,1,140.0,新生派出所,,121.51111,25.01145
私人住宅大樓,D204000085,下溪里,新北市永和區下溪里保福路二段155號,1,185.0,新生派出所,,121.50942,25.014535
私人住宅大樓,D204000086,下溪里,新北市永和區下溪里保福路二段135號,1,153.0,新生派出所,,121.50963,25.01399
私人住宅大樓,D204000087,信義里,新北市永和區信義里保福路二段26巷18號,1,92.0,新生派出所,,121.51151,25.011506
私人住宅大樓,D204000088,下溪里,新北市永和區下溪里保福路二段121號,1,145.0,新生派出所,,121.50993,25.013619
頂溪菁品,D204000089,中溪里,新北市永和區中溪里仁愛路224巷1號,1,484.0,新生派出所,,121.5087,25.012131
私人住宅大樓,D204000090,文化里,新北市永和區文化里文化路137巷5弄1號,1,265.0,新生派出所,,121.51019,25.015987
私人住宅大樓,D204000091,信義里,新北市永和區信義里保福路二段28號,1,142.0,新生派出所,,121.51108,25.011708
私人住宅大樓,D204000092,新?里,新北市永和區新?里文化路192巷4弄8號,1,120.0,新生派出所,,121.51155,25.01628
私人住宅大樓,D204000093,保安里,新北市永和區保安里中山路一段328巷9號,1,63.0,新生派出所,,121.50525,25.006396
永和世家,D204000094,信義里,新北市永和區信義里中山路一段60巷9弄7號,1,695.0,新生派出所,,121.51258,25.011161
私人住宅大樓,D204000095,仁愛里,新北市永和區仁愛里文化路113巷40號,1,254.0,新生派出所,,121.51299,25.013784
私人住宅大樓,D204000096,下溪里,新北市永和區下溪里保福路三段1號,3,528.0,新生派出所,,121.51011,25.013414
私人住宅大樓,D204000097,信義里,新北市永和區信義里信義路17巷16號,2,811.0,新生派出所,,121.5136,25.011434
私人住宅大樓,D204000098,新?里,新北市永和區新?里文化路144巷31弄5號,1,524.0,新生派出所,,121.51197,25.016646
私人住宅大樓,D204000099,中溪里,新北市永和區中溪里保福路二段23巷12號,1,131.0,新生派出所,,121.5102,25.01137
私人住宅大樓,D204000100,中溪里,新北市永和區中溪里保福路二段55號,1,109.0,新生派出所,,121.51088,25.012104
吉祥貴族綠鑽大廈,D204000101,中溪里,新北市永和區中溪里永平路284巷1號,3,567.0,新生派出所,,121.5078,25.012096
私人住宅大樓,D204000102,中溪里,新北市永和區中溪里永平路290巷2弄29號,2,396.0,新生派出所,,121.50811,25.012738
闔家歡大廈,D204000103,保安里,新北市永和區保安里中山路一段186號,3,386.0,新生派出所,,121.50905,25.00899
私人住宅大樓,D204000104,中溪里,新北市永和區中溪里保福路二段23巷17號,1,105.0,新生派出所,,121.51027,25.01116
私人住宅大樓,D204000105,信義里,新北市永和區信義里中山路一段90號,1,145.0,新生派出所,,121.51176,25.010931
好望角社區,D204000106,中溪里,新北市永和區中溪里中山路一段102號,2,488.0,新生派出所,,121.51113,25.010659
私人住宅大樓,D204000107,中溪里,新北市永和區中溪里永平路218巷14號,2,284.0,新生派出所,,121.5098,25.010904
私人住宅大樓,D204000108,信義里,新北市永和區信義里信義路25巷19弄47號,1,259.0,新生派出所,,121.51296,25.011681
私人住宅大樓,D204000109,仁愛里,新北市永和區仁愛里保福路二段46號,2,399.0,新生派出所,,121.5111,25.012131
永平家園,D204000110,中溪里,新北市永和區中溪里永平路218巷7號,2,1117.0,新生派出所,,121.50964,25.011222
私人住宅大樓,D204000111,下溪里,新北市永和區下溪里保福路二段159巷2號,2,160.0,新生派出所,,121.50921,25.014647
私人住宅大樓,D204000115,保安里,新北市永和區保安里中山路一段322號,3,484.0,新生派出所,,121.50637,25.00678
私人住宅大樓,D204000116,保安里,新北市永和區保安里保生路24號,4,6338.0,新生派出所,,121.50654,25.00778
私人住宅大樓,D204000117,中溪里,新北市永和區中溪里仁愛路186巷1號,1,1316.0,新生派出所,,121.50971,25.012689
私人住宅大樓,D204000118,保順里,新北市永和區保順里仁愛路306巷13號,2,1012.0,新生派出所,,121.5027,25.008093
私人住宅大樓,D204000119,新?里,新北市永和區新?里文化路188號,1,117.0,新生派出所,,121.51119,25.016124
私人住宅大樓,D204000120,中溪里,新北市永和區中溪里永平路280號,1,225.0,新生派出所,,121.50798,25.011788
永貞仁愛大廈,D204000121,保安里,新北市永和區保安里仁愛路263號,3,275.0,新生派出所,,121.50641,25.010062
私人住宅大樓,D204000122,仁愛里,新北市永和區仁愛里仁愛路141巷8號,2,429.0,新生派出所,,121.51147,25.012519
凱旋門紅鑽社區,D204000123,保順里,新北市永和區保順里保順路33號,2,2901.0,新生派出所,,121.50341,25.010523
私人住宅大樓,D204000124,保順里,新北市永和區保順里仁愛路308號,2,893.0,新生派出所,,121.50306,25.008005
凱旋門翡翠社區,D204000125,保順里,新北市永和區保順里保順路41號,2,813.0,新生派出所,,121.50318,25.010794
私人住宅大樓,D204000126,中溪里,新北市永和區中溪里仁愛路216號,1,198.0,新生派出所,,121.50897,25.012183
私人住宅大樓,D204000127,後溪里,新北市永和區後溪里信義路12巷1號,1,255.0,新生派出所,,121.51447,25.012295
私人住宅大樓,D204000128,保順里,新北市永和區保順里環河西路二段247號,1,169.0,新生派出所,,121.49998,25.009079
私人住宅大樓,D204000129,新生里,新北市永和區新生里新生路210巷6號,1,113.0,新生派出所,,121.50539,25.013284
私人住宅大樓,D204000130,中溪里,新北市永和區中溪里永平路284巷30號,1,59.0,新生派出所,,121.50837,25.012393
甜園大樓,D204000131,保安里,新北市永和區保安里中山路一段214號,2,211.0,新生派出所,,121.50849,25.00854
私人住宅大樓,D204000132,仁愛里,新北市永和區仁愛里文化路113巷46號,2,525.0,新生派出所,,121.51299,25.013625
私人住宅大樓,D204000133,信義里,新北市永和區信義里信義路25巷19弄19號,1,322.0,新生派出所,,121.51296,25.011681
私人住宅大樓,D204000134,信義里,新北市永和區信義里信義路25巷19弄10號,1,56.0,新生派出所,,121.51293,25.011816
私人住宅大樓,D204000135,後溪里,新北市永和區後溪里信義路25巷26號,1,356.0,新生派出所,,121.5129,25.011952
私人住宅大樓,D204000137,文化里,新北市永和區文化里文化路149巷6號,1,134.0,新生派出所,,121.51043,25.015983
長隄社區,D204000138,保順里,新北市永和區保順里環河西路二段203號,3,3822.0,新生派出所,,121.50195,25.010795
私人住宅大樓,D204000139,信義里,新北市永和區信義里信義路25巷19弄1517號,1,165.0,新生派出所,,121.51296,25.011681
私人住宅大樓,D204000140,信義里,新北市永和區信義里信義路25巷19弄6號,1,100.0,新生派出所,,121.51307,25.011861
永和捷運雙星大廈,D204000141,信義里,新北市永和區信義里中山路一段24號,3,657.0,新生派出所,,121.51384,25.010608
永平中學,D204000142,保安里,新北市永和區保安里永平路205號,1,1531.0,新生派出所,,121.50863,25.010751
私人住宅大樓,D204000143,中溪里,新北市永和區中溪里保福路二段23巷2號,1,86.0,新生派出所,,121.51064,25.011283
私人住宅大樓,D204000144,信義里,新北市永和區保順里環河西路二段219號,1,146.0,新生派出所,,121.51287,25.011513
私人住宅大樓,D204000145,新?里,新北市永和區新?里保安路21號,1,117.0,新生派出所,,121.5104,25.016759
家福社區,D204000146,保順里,新北市永和區保順里仁愛路306巷5號,2,695.0,新生派出所,,121.50309,25.00797
吉祥新貴族金鑽,D204000147,保安里,新北市永和區保安里保生路54號,3,594.0,新生派出所,,121.50556,25.008751
私人住宅大樓,D204000148,文化里,新北市永和區文化里保安路132號,2,138.0,新生派出所,,121.50887,25.015394
萬象之都,D204000149,後溪里,新北市永和區後溪里永和路二段147號,3,377.0,新生派出所,,121.51507,25.012679
私人住宅大樓,D204000150,後溪里,新北市永和區後溪里信義路43巷２號,1,404.0,新生派出所,,121.51296,25.012267
信義綠社區,D204000151,仁愛里,新北市永和區仁愛里信義路95號,1,539.0,新生派出所,,121.51227,25.013939
綠寶石社區,D204000152,保順里,新北市永和區保順里環河西路二段219號,4,1498.0,新生派出所,,121.49908,25.008647
永平高中,D204000153,保安里,新北市永和區保安里永平路205號,1,1682.0,新生派出所,,121.50863,25.010751
亞特蘭大,D204000154,下溪里,新北市永和區下溪里保安路270號,4,1197.0,新生派出所,,121.50563,25.012258
仁愛寶第,D204000155,中溪里,新北市永和區中溪里保福路二段61號,2,1189.0,新生派出所,,121.51081,25.012268
私人住宅大樓,D204000156,保順里,新北市永和區保順里保順路53號,3,1770.0,新生派出所,,121.50274,25.01112
仁愛春天公寓,D204000157,保安里,新北市永和區保安里仁愛路301號,2,910.0,新生派出所,,121.5038,25.008
私人住宅大樓,D204000158,中溪里,新北市永和區中溪里保福路二段19號,1,71.0,新生派出所,,121.51083,25.011172
比漾廣場,D204000159,保安里,新北市永和區保安里中山路一段236號,5,4802.0,新生派出所,,121.50798,25.008101
仁愛狀元邸,D204000160,中溪里,新北市永和區中溪里保福路二段95號,2,601.0,新生派出所,,121.51045,25.012973
龐畢度大廈,D204000161,中溪里,新北市永和區中溪里中山路一段142號,2,136.0,新生派出所,,121.51007,25.009817
私人住宅大樓,D204000162,中溪村,新北市永和區中溪村中溪村12鄰保福路二段25號,1,61.0,新生派出所,,121.51083,25.01127
私人住宅大樓,D204000163,保順里,新北市永和區保順里保順路11號,3,479.0,新生派出所,,121.50435,25.009563
桂閣櫻花,D204000164,中溪里,新北市永和區中溪里中山路一段128巷1號,2,588.0,新生派出所,,121.51028,25.010122
私人住宅大樓,D204000165,保順里,新北市永和區保順里保順路19號,2,165.0,新生派出所,,121.50357,25.010349
太平洋時代,D204000166,保安里,新北市永和區保安里仁愛路309號,4,3576.0,新生派出所,,121.50349,25.007721
私人住宅大樓,D204000167,保順里,新北市永和區保順里環河西路二段213號,2,209.0,新生派出所,,121.50137,25.01044
私人住宅大樓,D204000168,中溪里,新北市永和區中溪里中山路一段120號,2,476.0,新生派出所,,121.51066,25.010279
