類別,建築物名稱,電腦編號,村里別,地址,"地下樓 層數","可容納 人數",派出所,備註,經度,緯度
公寓,地政事務所,DE01000021,深丘里,新北市板橋區深丘里實踐路1號,1.0,476.0,海山派出所,,121.463532,25.008623
大樓,板橋第一運動場,DE01000038,深丘里,新北市板橋區深丘里漢生東路278號,1.0,3057.0,海山派出所,,121.469292,25.010591
大樓,大豐建築,DE01000082,長安里,新北市板橋區長安里漢生東路193巷25號,1.0,392.0,海山派出所,,121.471037,25.012306
公寓,公寓,DE01000083,玉光里,新北市板橋區玉光里永豐街55巷40-42號,1.0,246.0,海山派出所,,121.472307,25.018462
大樓,大樓,DE01000084,西安里,新北市板橋區西安里中山路二段109號,1.0,309.0,海山派出所,,121.47453,25.016331
大樓,海山分局,DE01000085,民族里,新北市板橋區民族里漢生東路195號,1.0,1177.0,海山派出所,,121.471251,25.008822
公寓,板橋地方法院,DE01000086,東丘里,新北市板橋區東丘里民生路一段30號,1.0,5632.0,海山派出所,,121.476056,25.013522
公寓,兆湖鐵廠,DE01000087,西安里,新北市板橋區西安里觀光街67號,1.0,272.0,海山派出所,,121.470182,25.016495
大樓,榮實開發,DE01000088,深丘里,新北市板橋區深丘里區運路22號,1.0,1109.0,海山派出所,,121.465326,25.009346
公寓,公寓,DE01000089,長安里,新北市板橋區長安里中山路一段186號,1.0,438.0,海山派出所,,121.469397,25.013461
大樓,大樓,DE01000090,福丘里,新北市板橋區福丘里中山路一段91號,1.0,90.0,海山派出所,,121.461589,25.010156
大樓,大樓,DE01000091,福丘里,新北市板橋區福丘里民權路33號,1.0,163.0,海山派出所,,121.462158,25.010902
公寓,調查局,DE01000092,民族里,新北市板橋區民族里漢生東路193巷2號,1.0,348.0,海山派出所,,121.470936,25.01218397
大樓,大樓,DE01000093,海山里,新北市板橋區海山里民生路一段29號,2.0,950.0,海山派出所,,121.475296,25.011857
大樓,大樓,DE01000094,東丘里,新北市板橋區東丘里中山路二段58號,1.0,91.0,海山派出所,,121.473801,25.015607
公寓,名鵬企業,DE01000095,玉光里,新北市板橋區玉光里民生路二段21號,1.0,26.0,海山派出所,,121.471658,25.017271
大樓,大樓,DE01000096,長安里,新北市板橋區長安里板新路29號,2.0,643.0,海山派出所,,121.474478,25.013054
大樓,大樓,DE01000098,民生里,新北市板橋區民生里板新路18號,1.0,477.0,海山派出所,,121.474509,25.013388
大樓,大樓,DE01000099,玉光里,新北市板橋區玉光里民生路二段46號,2.0,350.0,海山派出所,,121.472447,25.017566
大樓,大樓,DE01000100,民族里,新北市板橋區民族里民族路129巷26號,3.0,75.0,海山派出所,,121.467907,25.008833
大樓,大樓,DE01000101,海山里,新北市板橋區海山里長安街138巷1號1,1.0,67.0,海山派出所,,121.472835,25.009913
大樓,久揚天廈,DE01000103,香丘里,新北市板橋區香丘里中山路一段293-2號,2.0,1682.0,海山派出所,,121.470947,25.014561
大樓,大樓,DE01000104,海山里,新北市板橋區海山里民生路一段5號,3.0,8017.0,海山派出所,,121.476026,25.011573
大樓,大樓,DE01000105,介壽里,新北市板橋區介壽里文化路一段270巷3弄3號,1.0,1588.0,海山派出所,,121.468034,25.020964
公寓,大樓,DE01000106,福丘里,新北市板橋區福丘里中山路一段50巷17號,1.0,353.0,海山派出所,,121.46161,25.009115
大樓,大樓,DE01000107,海山里,新北市板橋區海山里民生路一段35號,1.0,191.0,海山派出所,,121.475739,25.012665
大樓,大樓,DE01000108,海山里,新北市板橋區海山里長安街138巷1弄48號,1.0,260.0,海山派出所,,121.473881,25.010029
大樓,大樓,DE01000109,東安里,新北市板橋區東安里中山路二段97號,1.0,661.0,海山派出所,,121.474424,25.01645916
大樓,大樓,DE01000110,深丘里,新北市板橋區深丘里民族路69巷18弄2號,1.0,287.0,海山派出所,,121.465898,25.009965
公寓,板橋地方法院,DE01000111,東丘里,新北市板橋區東丘里民生路一段30號,1.0,755.0,海山派出所,,121.476056,25.013522
大樓,大樓,DE01000112,海山里,新北市板橋區海山里漢生東路335號,1.0,508.0,海山派出所,,121.472094,25.008088
大樓,大樓,DE01000113,深丘里,新北市板橋區深丘里海山路5號,1.0,86.0,海山派出所,,121.469294,25.009356
大樓,大樓,DE01000114,長安里,新北市板橋區長安里板新路27號,2.0,148.0,海山派出所,,121.474716,25.012899
大樓,大樓,DE01000115,深丘里,新北市板橋區深丘里區運路82號,1.0,55.0,海山派出所,,121.466686,25.010354
公寓,大樓,DE01000116,深丘里,新北市板橋區深丘里長安街25巷10號,1.0,126.0,海山派出所,,121.466677,25.009133
大樓,華廈,DE01000117,長安里,新北市板橋區長安里漢生東路171號,1.0,311.0,海山派出所,,121.469483,25.012255
大樓,大樓,DE01000118,華江里,新北市板橋區華江里莊敬路148號,1.0,1998.0,海山派出所,,121.470609,25.022683
大樓,大樓,DE01000119,玉光里,新北市板橋區玉光里民生路二段8號,1.0,1545.0,海山派出所,,121.473503,25.016678
大樓,大樓,DE01000121,海山里,新北市板橋區海山里長安街138巷24號,1.0,155.0,海山派出所,,121.472915,25.008884
公寓,大樓,DE01000122,深丘里,新北市板橋區深丘里民族路100號,1.0,577.0,海山派出所,,121.464417,25.008502
大樓,昇陽建設,DE01000124,福丘里,新北市板橋區福丘里公園街20號,1.0,384.0,海山派出所,,121.462713,25.008892
大樓,永隆建設,DE01000125,福丘里,新北市板橋區福丘里中山路一段69號,1.0,309.0,海山派出所,,121.461255,25.009839
大樓,大樓,DE01000126,海山里,新北市板橋區海山里長安街138巷1弄42號,1.0,162.0,海山派出所,,121.4737,25.00992
大樓,大樓,DE01000127,香丘里,新北市板橋區香丘里板新路202號,2.0,905.0,海山派出所,,121.468968,25.01613
大樓,大樓,DE01000128,民族里,新北市板橋區民族里民族路197號,1.0,816.0,海山派出所,,121.468941,25.007512
大樓,大樓,DE01000129,東安里,新北市板橋區東安里中山路二段133號,1.0,1014.0,海山派出所,,121.475175,25.01678511
大樓,大樓,DE01000130,長安里,新北市板橋區長安里板新路11號,1.0,302.0,海山派出所,,121.475118,25.012645
大樓,大樓,DE01000131,玉光里,新北市板橋區玉光里中山路二段89巷20號,1.0,909.0,海山派出所,,121.473989,25.016602
大樓,大樓,DE01000132,香丘里,新北市板橋區香丘里板新路157號,1.0,793.0,海山派出所,,121.469721,25.015583
大樓,海山閣中,DE01000134,長安里,新北市板橋區長安里板新路17號,1.0,908.0,海山派出所,,121.474922,25.012768
大樓,吉利財星,DE01000136,福丘里,新北市板橋區福丘里民族路40號,1.0,246.0,海山派出所,,121.462162,25.009553
大樓,豐德商業大樓,DE01000137,東丘里,新北市板橋區東丘里中山路二段100號,1.0,700.0,海山派出所,,121.475644,25.016493
大樓,第一家庭,DE01000138,福丘里,新北市板橋區福丘里民族路31號,1.0,445.0,海山派出所,,121.462185,25.009904
大樓,大樓,DE01000139,東安里,新北市板橋區東安里中山路二段123號,1.0,409.0,海山派出所,,121.474805,25.01673405
大樓,中山金典,DE01000141,玉光里,新北市板橋區玉光里民生路二段18號,1.0,213.0,海山派出所,,121.47309,25.016643
大樓,小遠百,DE01000142,深丘里,新北市板橋區深丘里中山路一段152號,1.0,3570.0,海山派出所,,121.464344,25.011114
大樓,民生蓮園,DE01000143,玉光里,新北市板橋區玉光里民生路二段30號,1.0,201.0,海山派出所,,121.472745,25.017166
公寓,市民廣場,DE01000146,福丘里,新北市板橋區福丘里縣民大道二段22號,1.0,686.0,海山派出所,,121.464851,25.013499
大樓,天賜良園,DE01000147,福丘里,新北市板橋區福丘里公園街58號,1.0,112.0,海山派出所,,121.461967,25.007851
大樓,正隆麗池,DE01000149,海山里,新北市板橋區海山里民生路一段1號1,2.0,2452.0,海山派出所,,121.476703,25.011683
大樓,民生公園,DE01000151,東丘里,新北市板橋區東丘里民生路一段30號,1.0,486.0,海山派出所,,121.476056,25.013522
大樓,板橋福音堂,DE01000152,福丘里,新北市板橋區福丘里民族路8號,2.0,233.0,海山派出所,,121.461658,25.009651
大樓,民生經貿大樓,DE01000153,民生里,新北市板橋區民生里民生路一段57號,1.0,233.0,海山派出所,,121.475314,25.013096
公寓,海山高中,DE01000154,深丘里,新北市板橋區深丘里漢生東路215號,1.0,115.0,海山派出所,,121.470886,25.010154
大樓,生活村幼兒園,DE01000155,民族里,新北市板橋區民族里漢生東路350號,1.0,110.0,海山派出所,,121.472017,25.007252
大樓,新北市政府,DE01000156,福丘里,新北市板橋區福丘里中山路一段161號,1.0,9125.0,海山派出所,,121.465654,25.012154
大樓,新站巴黎,DE01000157,長安里,新北市板橋區長安里板新路37號,3.0,1260.0,海山派出所,,121.474269,25.013189
大樓,凱旋門,DE01000158,東丘里,新北市板橋區東丘里中山路二段92-98號,1.0,2177.0,海山派出所,,121.475321,25.016339
大樓,大樓,DE01000159,深丘里,新北市板橋區深丘里海山路1號,1.0,343.0,海山派出所,,121.469437,25.009453
大樓,華府DC社區,DE01000160,福丘里,新北市板橋區福丘里中山路一段139號1,1.0,411.0,海山派出所,,121.463391,25.011103
大樓,大樓,DE01000161,玉光里,新北市板橋區玉光里中山路二段89巷49號,1.0,286.0,海山派出所,,121.473638,25.017343
大樓,台北官邸,DE01000162,深丘里,新北市板橋區深丘里區運路65號,1.0,806.0,海山派出所,,121.466819,25.010714
大樓,國家四季館,DE01000163,深丘里,新北市板橋區深丘里漢生東路276號,1.0,3421.0,海山派出所,,121.469004,25.012069
大樓,新站尊爵,DE01000164,海山里,新北市板橋區海山里漢生東路315號,1.0,692.0,海山派出所,,121.471929,25.008007
大樓,板新華夏,DE01000166,西安里,新北市板橋區西安里板新路126號,1.0,113.0,海山派出所,,121.470958,25.015546
公寓,公寓,DE01000167,東丘里,新北市板橋區東丘里民享街149號,1.0,385.0,海山派出所,,121.477451,25.016981
大樓,馥華時尚會館F1,DE01000168,深丘里,新北市板橋區深丘里新府路66號,1.0,1890.0,海山派出所,,121.465261,25.010983
大樓,巴黎16區,DE01000169,深丘里,新北市板橋區深丘里區運路101號,1.0,2438.0,海山派出所,,121.46851,25.011651
大樓,中山民生社區,DE01000170,民生里,新北市板橋區民生里中山路二段50號,1.0,565.0,海山派出所,,121.473233,25.015339
大樓,權世界,DE01000171,福丘里,新北市板橋區福丘里縣民大道二段86號,2.0,1652.0,海山派出所,,121.466615,25.01477
大樓,新板城,DE01000172,福丘里,新北市板橋區福丘里公園街36號,1.0,2168.0,海山派出所,,121.462293,25.008409
大樓,國鼎,DE01000173,福丘里,新北市板橋區福丘里漢生東路166號,1.0,1715.0,海山派出所,,121.467027,25.014657
大樓,皇翔高更,DE01000174,深丘里,新北市板橋區深丘里中山路一段160號之5,3.0,616.0,海山派出所,,121.4662,25.011975
大樓,站前美麗殿,DE01000175,長安里,新北市板橋區長安里漢生東路161巷5號,1.0,371.0,海山派出所,,121.469799,25.012522
大樓,晝世紀,DE01000176,福丘里,新北市板橋區福丘里漢生東路258號,1.0,1715.0,海山派出所,,121.467839,25.013786
大樓,板信雙子星,DE01000177,福丘里,新北市板橋區福丘里縣民大道二段68號,1.0,2372.0,海山派出所,,121.463438,25.012523
大樓,新東安57,DE01000178,東丘里,新北市板橋區東丘里民生路一段36-1號,1.0,135.0,海山派出所,,121.474585,25.014415
大樓,中山明珠,DE01000179,深丘里,新北市板橋區深丘里中山路1段156號之3,1.0,1464.0,海山派出所,,121.465548,25.011538
大樓,文邑公寓,DE01000180,海山里,新北市板橋區海山里漢生東路281號,3.0,827.0,海山派出所,,121.471497,25.008905
大樓,新都廳,DE01000181,福丘里,新北市板橋區福丘里漢生東路266號,6.0,503.0,海山派出所,,121.468294,25.013324
大樓,皇勝喜悅,DE01000183,民生里,新北市板橋區民生里民生路一段95號,1.0,688.0,海山派出所,,121.474374,25.014004
大樓,史丹佛,DE01000184,福丘里,新北市板橋區福丘里新府路1號,6.0,1929.0,海山派出所,,121.464024,25.012113
大樓,東方富裕,DE01000185,福丘里,新北市板橋區福丘里縣民大道二段80號,5.0,2644.0,海山派出所,,121.46624,25.014521
大樓,花園橋峰,DE01000186,深丘里,新北市板橋區深丘里中山一段168號,2.0,6710.0,海山派出所,,121.467479,25.011933
大樓,新板御賞,DE01000187,玉光里,新北市板橋區玉光里觀光街56-1號,1.0,533.0,海山派出所,,121.470868,25.016498
大樓,板橋大遠百,DE01000188,福丘里,新北市板橋區福丘里新站路28號,1.0,8082.0,海山派出所,,121.466627,25.013622
大樓,三暉謙匯,DE01000189,民族里,新北市板橋區民族里民族路183號,1.0,500.0,海山派出所,,121.468832,25.007564
大樓,領御,DE01000190,福丘里,新北市板橋區福丘里中山一段181號,1.0,690.0,海山派出所,,121.46768,25.013002
大樓,新板宸,DE01000191,福丘里,新北市板橋區福丘里中山一段139號,4.0,3850.0,海山派出所,,121.463391,25.011103
大樓,新板PLUS公寓,DE01000192,玉光里,新北市板橋區玉光里永豐街49巷18號,3.0,568.0,海山派出所,,121.473354,25.017791
大樓,"新板NEW ONE",DE01000193,介壽里,新北市板橋區介壽里民生二段207號,1.0,196.0,海山派出所,,121.469089,25.020653
大樓,上品匯,DE01000194,百壽里,新北市板橋區百壽里文化路一段188巷17號,1.0,284.0,海山派出所,,121.466786,25.019241
公寓,法國翡翠,DE01000195,民族里,新北市板橋區民族里海山路23號,1.0,707.0,海山派出所,,121.468389,25.008974
大樓,新板金融大樓,DE01000196,福丘里,新北市板橋區福丘里中山路一段141號,1.0,833.0,海山派出所,,121.463628,25.01123
大樓,大樓,DE01000197,百壽里,新北市板橋區百壽里文化路一段188巷51號,3.0,918.0,海山派出所,,121.467777,25.018555
大樓,大樓,DE01000198,百壽里,新北市板橋區百壽里文化路一段188巷59號,1.0,1638.0,海山派出所,,121.46853,25.018108
大樓,三輝海山學B區,DE01000199,民族里,新北市板橋區民族里民族路225巷51號,1.0,234.0,海山派出所,,121.469944,25.008065
大樓,大樓,DE01000200,民族里,新北市板橋區民族里民族路225巷60號,1.0,395.0,海山派出所,,121.47013,25.008099
大樓,新板極TOP,DE01000201,民族里,新北市板橋區民族里民族路151巷28之1號,1.0,424.0,海山派出所,,121.469332,25.008321
公寓,海山國小,DE01000202,深丘里,新北市板橋區深丘里漢生東路280號,1.0,4518.0,海山派出所,,121.470863,25.009457
大樓,,DE01000203,介壽里,新北市板橋區介壽里17鄰民生路二段139號2樓,1.0,1384.0,海山派出所,11201,121.470195,25.018988
大樓,,DE01000204,海山里,新北市板橋區海山里2鄰漢生東路279巷36號,1.0,280.0,海山派出所,,121.47266,25.009414
,,DE01000205,深丘里,新北市板橋區深丘里民族路69巷16號,1.0,373.0,海山派出所,,121.465822,25.009713
大樓,十德居,DE02000001,柏翠里,新北市板橋區柏翠里雙十路三段10巷1弄6號,1.0,438.0,江翠派出所,,121.472048,25.031249
公寓,江翠國小,DE02000002,柏翠里,新北市板橋區柏翠里文化路二段413號,1.0,941.0,江翠派出所,,121.473881,25.032039
大樓,儒林居,DE02000003,柏翠里,新北市板橋區柏翠里雙十路三段20號,1.0,308.0,江翠派出所,,121.471385,25.030747
大樓,久泰金華天下,DE02000009,柏翠里,新北市板橋區柏翠里文化路二段451號,1.0,636.0,江翠派出所,,121.475271,25.033516
大樓,公寓,DE02000057,純翠里,新北市板橋區純翠里吳鳳路81巷54號,1.0,222.0,江翠派出所,,121.465103,25.030795
大樓,漢江春曉,DE02000058,純翠里,新北市板橋區純翠里長江路二段2號,1.0,1768.0,江翠派出所,,121.464406,25.031218
大樓,公寓,DE02000059,純翠里,新北市板橋區純翠里吳鳳路81巷22號,1.0,147.0,江翠派出所,,121.466037,25.031105
公寓,江翠國中,DE02000065,文化里,新北市板橋區文化里松江街63號,1.0,1227.0,江翠派出所,,121.468438,25.028945
公寓,台北滿天星,DE02000067,溪頭里,新北市板橋區溪頭里長江路二段211號,1.0,285.0,江翠派出所,,121.467839,25.032438
大樓,金世家,DE02000068,溪頭里,新北市板橋區溪頭里長江路二段69號,1.0,955.0,江翠派出所,,121.464929,25.031582
大樓,大樓,DE02000076,溪頭里,新北市板橋區溪頭里江寧路三段55巷26號,1.0,206.0,江翠派出所,,121.471297,25.033032
大樓,翰林居,DE02000111,江翠里,新北市板橋區江翠里松江街118號,1.0,187.0,江翠派出所,,121.469167,25.030376
大樓,光武第大樓,DE02000114,聯翠里,新北市板橋區聯翠里光武街36巷3號,1.0,389.0,江翠派出所,,121.467564,25.026082
大樓,雙十大樓,DE02000116,柏翠里,新北市板橋區柏翠里雙十路三段6號,1.0,371.0,江翠派出所,,121.472005,25.03032
大樓,文化領袖大樓,DE02000122,江翠里,新北市板橋區江翠里文化路二段311號,1.0,713.0,江翠派出所,,121.471857,25.029786
大樓,文化領域,DE02000127,江翠里,新北市板橋區江翠里文化路二段311號,1.0,713.0,江翠派出所,,121.471857,25.029786
大樓,昇陽立都,DE02000128,江翠里,新北市板橋區江翠里文化路二段285號,1.0,2308.0,江翠派出所,,121.47136,25.029229
大樓,大樓,DE02000129,純翠里,新北市板橋區純翠里光武街136巷9號,1.0,518.0,江翠派出所,,121.465735,25.030232
大樓,大樓,DE02000136,純翠里,新北市板橋區純翠里長江路二段28號,1.0,518.0,江翠派出所,,121.464847,25.031363
大樓,好運道,DE02000137,江翠里,新北市板橋區江翠里長江路二段188號,1.0,698.0,江翠派出所,,121.467031,25.032011
大樓,大樓,DE02000138,柏翠里,新北市板橋區柏翠里文化路二段417巷30號,1.0,325.0,江翠派出所,,121.474012,25.033417
大樓,百仕園,DE02000143,純翠里,新北市板橋區純翠里長江路二段86號,1.0,2322.0,江翠派出所,,121.465254,25.031139
大樓,文化國寶,DE02000145,柏翠里,新北市板橋區柏翠里文化路二段431號,1.0,643.0,江翠派出所,,121.474812,25.033003
大樓,金世紀錄,DE02000146,溪頭里,新北市板橋區溪頭里長江路二段37號,1.0,1140.0,江翠派出所,,121.464224,25.031465
大樓,華廈,DE02000147,純翠里,新北市板橋區純翠里光武街1085號,1.0,77.0,江翠派出所,,121.464919,25.030679
大樓,大樓,DE02000153,純翠里,新北市板橋區純翠里民生路三段170號,1.0,206.0,江翠派出所,,121.465871,25.028022
大樓,正頤,DE02000156,柏翠里,新北市板橋區柏翠里文化路二段321號,1.0,350.0,江翠派出所,,121.472227,25.030191
大樓,民生捷座,DE02000159,純翠里,新北市板橋區純翠里民生路三段240號,1.0,952.0,江翠派出所,,121.464643,25.03053
大樓,大樓,DE02000160,江翠里,新北市板橋區江翠里文化路二段263巷8號,1.0,43.0,江翠派出所,,121.471131,25.029314
大樓,昇陽文化,DE02000161,聯翠里,新北市板橋區聯翠里民生路三段6號,1.0,1712.0,江翠派出所,,121.468149,25.024299
大樓,捷運皇家,DE02000165,柏翠里,新北市板橋區柏翠里雙十路三段12號,1.0,252.0,江翠派出所,,121.471735,25.030496
公寓,江翠國中,DE02000172,文化里,新北市板橋區文化里松江街63號,1.0,1406.0,江翠派出所,,121.468438,25.028945
大樓,翠園豪景,DE02000178,溪頭里,新北市板橋區溪頭里溪頭街324號,1.0,629.0,江翠派出所,,121.467445,25.032552
大樓,大樓,DE02000179,溪頭里,新北市板橋區溪頭里長江路二段256號,1.0,160.0,江翠派出所,,121.469174,25.032613
大樓,家麒金典,DE02000180,江翠里,新北市板橋區江翠里宏國路15號,1.0,752.0,江翠派出所,,121.467485,25.031511
大樓,福林寶典,DE02000189,文化里,新北市板橋區文化里松江街26號,1.0,349.0,江翠派出所,,121.468882,25.026685
大樓,河岸麗第,DE02000193,純翠里,新北市板橋區純翠里長江路二段8號,1.0,179.0,江翠派出所,,121.464742,25.031342
大樓,崇德堂,DE02000195,柏翠里,新北市板橋區柏翠里文化路二段441巷18號,1.0,1135.0,江翠派出所,,121.474272,25.03395
大樓,大樓,DE02000196,純翠里,新北市板橋區純翠里吳鳳路23號,1.0,144.0,江翠派出所,,121.467011,25.030981
大樓,大樓,DE02000197,純翠里,新北市板橋區純翠里吳鳳路17號,1.0,142.0,江翠派出所,,121.467634,25.03075271
大樓,華江儷靜NO.2,DE02000198,柏翠里,新北市板橋區柏翠里長江路三段72號,1.0,793.0,江翠派出所,,121.473959,25.034055
大樓,江翠及第名門,DE02000199,純翠里,新北市板橋區純翠里吳鳳路19-4號,1.0,459.0,江翠派出所,,121.467152,25.030857
大樓,華江一品御品苑,DE02000200,溪頭里,新北市板橋區溪頭里長江路二段181號,1.0,624.0,江翠派出所,,121.466739,25.032138
大樓,麗品苑,DE02000201,溪頭里,新北市板橋區溪頭里長江路二段151號,1.0,1215.0,江翠派出所,,121.465933,25.031896
大樓,第一天下,DE02000202,柏翠里,新北市板橋區柏翠里文化路二段385號1,1.0,910.0,江翠派出所,,121.473323,25.031433
大樓,江翠華府,DE02000203,江翠里,新北市板橋區江翠里長江路二段216號,1.0,176.0,江翠派出所,,121.467883,25.032242
大樓,文化風閣,DE02000204,柏翠里,新北市板橋區柏翠里文化路二段441巷7號,1.0,187.0,江翠派出所,,121.474537,25.033382
公寓,江翠國小,DE02000206,柏翠里,新北市板橋區柏翠里文化二段413號,1.0,48.0,江翠派出所,,121.473881,25.032039
大樓,國家文化館,DE02000207,文化里,新北市板橋區文化里文化二段175號,1.0,1065.0,江翠派出所,,121.470369,25.027908
大樓,文化森美學,DE02000208,文化里,新北市板橋區文化里光武街50巷21號,1.0,512.0,江翠派出所,,121.467662,25.027326
大樓,大樓,DE02000210,明翠里,新北市板橋區明翠里四維路257號,1.0,194.0,江翠派出所,,121.463409,25.028027
大樓,四維社區,DE02000211,明翠里,新北市板橋區明翠里四維路243號,1.0,463.0,江翠派出所,,121.463693,25.0275
大樓,致祥居,DE02000214,明翠里,新北市板橋區明翠里民有街57~59號,1.0,293.0,江翠派出所,,121.464606,25.027947
公寓,公寓,DE02000219,新埔里,新北市板橋區新埔里陽明街22號,1.0,122.0,江翠派出所,,121.466393,25.021814
大樓,捷運陽明,DE02000220,新埔里,新北市板橋區新埔里陽明街46號,1.0,518.0,江翠派出所,,121.4658,25.021993
大樓,帝王家,DE02000222,新埔里,新北市板橋區新埔里民生路三段29巷1號,1.0,950.0,江翠派出所,,121.46669,25.024164
大樓,陽明翠堤,DE02000226,陽明里,新北市板橋區陽明里陽明街94~136號,1.0,2060.0,江翠派出所,,121.463237,25.025123
大樓,四維圖書館,DE02000228,陽明里,新北市板橋區陽明里陽明街168號,1.0,864.0,江翠派出所,,121.463237,25.025123
大樓,大樓,DE02000232,陽明里,新北市板橋區陽明里自由路13~15號,1.0,221.0,江翠派出所,,121.465593,25.02383
大樓,詠勝雅築,DE02000233,陽明里,新北市板橋區陽明里自由路51巷6~8號,1.0,133.0,江翠派出所,,121.464658,25.023351
大樓,寶佳臻峰,DE02000714,文化里,新北市板橋區文化里松江街2號,1.0,1561.0,江翠派出所,,121.469419,25.026237
大樓,富玥,DE02000722,明翠里,新北市板橋區明翠里四維路177巷4弄18號,1.0,162.0,江翠派出所,,121.463558,25.026567
大樓,全陽圓,DE02000725,江翠里,新北市板橋區江翠里吳鳳50巷89號,1.0,587.0,江翠派出所,,121.470303,25.030519
大樓,双盈社區,DE02000726,江翠里,新北市板橋區江翠里宏國路51號,1.0,478.0,江翠派出所,,121.468451,25.031876
大樓,極上美,DE02000727,江翠里,新北市板橋區江翠里吳鳳路88號2樓,1.0,87.0,江翠派出所,,121.467032,25.031636
大樓,江翠ONE社區,DE02000728,柏翠里,新北市板橋區柏翠里華江一路196號,1.0,1444.0,江翠派出所,,121.473649,25.035361
大樓,江翠綻,DE02000729,柏翠里,新北市板橋區柏翠里雙十路三段10巷5號,1.0,184.0,江翠派出所,,121.472002,25.030834
大樓,德霖大樓,DE02000730,溪頭里,新北市板橋區溪頭里長江路二段296號1,1.0,672.0,江翠派出所,,121.470846,25.033057
大樓,聯上涵翠,DE02000731,溪頭里,新北市板橋區溪頭里華江一路500號,1.0,838.0,江翠派出所,,121.466669,25.033155
大樓,興富發大美社區,DE02000732,溪頭里,新北市板橋區溪頭里華江一路501號,1.0,575.0,江翠派出所,,121.466209,25.032805
大樓,荷蘭灣社區,DE02000733,柏翠里,新北市板橋區柏翠里華江三路36號,1.0,1113.0,江翠派出所,,121.478113,25.036609
大樓,新樸香榭,DE02000734,純翠里,新北市板橋區純翠里民生路三段172號,1.0,422.0,江翠派出所,,121.46563,25.028901
大樓,大樓,DE02000735,溪頭里,新北市板橋區溪頭里華江一路375號,1.0,1145.0,江翠派出所,,121.470226,25.034014
大樓,雙江翠,DE02000736,溪頭里,新北市板橋區溪頭里華江一路209號,1.0,1615.0,江翠派出所,,121.472481,25.034478
大樓,雙捷晶品,DE02000737,純翠里,新北市板橋區純翠里長江路二段158號,1.0,133.0,江翠派出所,,121.466341,25.031799
大樓,潤泰峰,DE02000738,溪頭里,新北市板橋區溪頭里華江一路350號,1.0,1066.0,江翠派出所,,121.46815,25.033701
大樓,遠雄江翠,DE02000739,溪頭里,新北市板橋區溪頭里華江八路26號,1.0,848.0,江翠派出所,,121.467525,25.034357
大樓,聯上匯翠,DE02000740,溪頭里,新北市板橋區溪頭里華江一路550號,1.0,3106.0,江翠派出所,,121.46617,25.032961
大樓,大樓,DE02000741,溪頭里,新北市板橋區溪頭里華江八路2號,4.0,942.0,江翠派出所,,121.468284,25.034367
大樓,河藍灣NO2,DE02000742,溪頭里,新北市板橋區溪頭里華江五路101號,2.0,443.0,江翠派出所,,121.472464,25.036148
大樓,勝輝鴻磐,DE02000743,溪頭里,新北市板橋區溪頭里19鄰華江一路300號,1.0,415.0,江翠派出所,,121.470979,25.034457
大樓,寶可麗,DE02000744,江翠里,新北市板橋區江翠里19鄰吳鳳路86號,1.0,154.0,江翠派出所,,121.466923,25.031467
大樓,久泰翠品,DE02000745,溪頭里,新北市板橋區溪頭里24鄰華江一路380號,1.0,1005.0,江翠派出所,,121.467354,25.033377
大樓,德鄰聚,DE02000746,溪頭里,新北市板橋區溪頭里17鄰華江三路300號,1.0,476.0,江翠派出所,,121.47272,25.035839
大樓,江匯Life,DE02000747,溪頭里,新北市板橋區溪頭里14鄰華江一路55號2樓,1.0,1298.0,江翠派出所,,121.472869,25.0347
大樓,遠雄鉑翠,DE02000748,溪頭里,新北市板橋區溪頭里18鄰華江一路185號3樓,1.0,1229.0,江翠派出所,,121.472869,25.0347
大樓,大樓,DE02000749,溪頭里,新北市板橋區溪頭里18鄰華江一路265號3樓,1.0,715.0,江翠派出所,,121.471885,25.034438
大樓,麗寶丹麥琥珀,DE02000750,溪頭里,新北市板橋區溪頭里5鄰華江一路525號,5.0,1799.0,江翠派出所,,121.465791,25.032655
大樓,豐光,DE02000751,溪頭里,新北市板橋區溪頭里23鄰華江八路70號,2.0,528.0,江翠派出所,,121.46692,25.033937
大樓,國泰朋,DE02000752,溪頭里,新北市板橋區溪頭里23鄰華江八路80號2樓,1.0,598.0,江翠派出所,,121.466686,25.034044
大樓,,DE02000753,溪頭里,新北市板橋區溪頭里13鄰華江一路272號3樓,1.0,969.0,江翠派出所,,121.471624,25.034874
大樓,國美翠亨村,DE02000754,溪頭里,新北市板橋區溪頭里13鄰華江六路100號3樓,1.0,2089.0,江翠派出所,,121.470779,25.035923
大樓,麗寶歐洲莊園芬蘭極光,DE02000755,溪頭里,新北市板橋區溪頭里5鄰華江一路610號,4.0,1279.0,江翠派出所,11201,121.465214,25.032653
大樓,謙承高,DE02000756,江翠里,新北市板橋區江翠里19鄰吳鳳路90巷2號二樓,1.0,127.0,江翠派出所,,121.46721,25.031655
大樓,,DE02000757,柏翠里,新北市板橋區柏翠里14鄰華江三路99號,1.0,1283.0,江翠派出所,,121.47623,25.036535
大樓,,DE02000758,純翠里,新北市板橋區純翠里14鄰吳鳳路83號,3.0,707.0,江翠派出所,,121.466602,25.031442
,,DE02000759,純翠里,新北市板橋區純翠里吳鳳路19巷30號,1.0,559.0,江翠派出所,,121.466374,25.030585
,,DE02000760,溪頭里,新北市板橋區溪頭里華江一路115號,,6653.0,江翠派出所,,121.472869,25.0347
公寓,大樓,DE0200724,聯翠里,新北市板橋區聯翠里松江街61號,1.0,924.0,江翠派出所,,,
公寓,公寓,DE03000007,振興里,新北市板橋區振興里中山路二段531巷26-30號,1.0,80.0,埔墘派出所,,121.482944,25.022145
,,DE03000010,光仁里,新北市板橋區懷仁街85巷2弄1號,1.0,99.0,埔墘派出所,,121.477682,25.018435
,,DE03000016,振義里,新北市板橋區振義里中山路2段553巷21-29號,1.0,1033.0,埔墘派出所,,121.483031,25.022698
公寓,公寓,DE03000018,九如里,新北市板橋區九如里三民路二段正隆巷12弄11-15號,1.0,434.0,埔墘派出所,,121.477175,25.014455
公寓,公寓,DE03000020,雙玉里,新北市板橋區雙玉里三民路一段98號,1.0,120.0,埔墘派出所,,121.479148,25.021426
公寓,永林豐五金行,DE03000022,居仁里,新北市板橋區居仁里三民路二段203號,1.0,122.0,埔墘派出所,,121.479193,25.013698
大樓,昀信三民,DE03000025,富貴里,新北市板橋區富貴里三民路二段36號,1.0,18.0,埔墘派出所,,121.478933,25.01804262
公寓,公寓,DE03000030,埔墘里,新北市板橋區埔墘里中山路二段416巷66弄211號,1.0,270.0,埔墘派出所,,121.482501,25.018683
公寓,埔墘所,DE03000033,埔墘里,新北市板橋區埔墘里中山路二段286號,1.0,22.0,埔墘派出所,,,
公寓,公寓,DE03000038,永安里,新北市板橋區永安里縣民大道三段93巷14號,1.0,609.0,埔墘派出所,,121.475357,25.022237
公寓,公寓,DE03000039,福壽里,新北市板橋區福壽里三民路二段245巷35號,1.0,88.0,埔墘派出所,,121.480283,25.012626
大樓,大樓,DE03000040,振興里,新北市板橋區振興里中山路二段443巷54號,1.0,61.0,埔墘派出所,,121.481026,25.021605
公寓,7月11日,DE03000042,廣新里,新北市板橋區廣新里永豐街89巷1號,1.0,564.0,埔墘派出所,,121.473382,25.01926
,,DE03000043,廣新里,新北市板橋區廣新里永豐街89巷3弄18號,1.0,286.0,埔墘派出所,,121.473269,25.019234
,,DE03000046,振興里,新北市板橋區振興里三民路1段31巷10號,1.0,122.0,埔墘派出所,,121.48022,25.023308
,,DE03000048,振義里,新北市板橋區振義里中山路2段541號,,154.0,埔墘派出所,,121.484091,25.021923
大樓,學盟補習班,DE03000068,廣新里,新北市板橋區廣新里永豐街38號,1.0,53.0,埔墘派出所,,121.474615,25.019624
,,DE03000071,廣新里,新北市板橋區永豐街89巷5弄1號,1.0,286.0,埔墘派出所,,121.473123,25.019502
公寓,公寓,DE03000072,居仁里,新北市板橋區居仁里三民路二段181巷13-21號,1.0,204.0,埔墘派出所,,121.480148,25.014445
公寓,大樓,DE03000073,埔墘里,新北市板橋區埔墘里中山路二段371號,1.0,137.0,埔墘派出所,,121.479917,25.019324
公寓,CY.Wpatisseries甜點店,DE03000074,港嘴里,新北市板橋區港嘴里雙十路一段16號,1.0,316.0,埔墘派出所,,121.478138,25.024279
公寓,高閣大樓,DE03000075,莊敬里,新北市板橋區莊敬里莊敬路191號,1.0,1229.0,埔墘派出所,,121.472086,25.021314
公寓,公寓,DE03000076,廣新里,新北市板橋區廣新里永豐街93號,1.0,117.0,埔墘派出所,,121.473644,25.019233
公寓,公寓,DE03000077,光復里,新北市板橋區光復里中山路二段416巷3弄1號,1.0,77.0,埔墘派出所,,121.483493,25.020615
,,DE03000078,富貴里,新北市板橋區富貴里三民路2段21巷6號,,968.0,埔墘派出所,,121.479683,25.018137
大樓,雷世婦產科,DE03000079,九如里,新北市板橋區九如里三民路二段110號,1.0,98.0,埔墘派出所,,121.479068,25.016656
大樓,萬歲新天地,DE03000080,振興里,新北市板橋區振興里中山路二段531巷11號,1.0,1103.0,埔墘派出所,,121.482799,25.021807
大樓,藝術寶第,DE03000081,埤墘里,新北市板橋區埤墘里莒光路219號,1.0,968.0,埔墘派出所,,121.474297,25.02284638
,,DE03000082,光復里,新北市板橋區光復里中山路2段光榮巷25號,1.0,278.0,埔墘派出所,,121.485121,25.020355
,,DE03000083,光復里,新北市板橋區中山路二段416巷15弄19號,1.0,9.0,埔墘派出所,,,
大樓,公寓,DE03000084,埔墘里,新北市板橋區埔墘里中山路二段359號,1.0,185.0,埔墘派出所,,121.479572,25.019089
大樓,家樂福,DE03000085,富貴里,新北市板橋區富貴里三民路二段31號,3.0,1008.0,埔墘派出所,,121.479412,25.01781
公寓,公寓,DE03000086,港嘴里,新北市板橋區港嘴里三民路一段31巷6號,1.0,45.0,埔墘派出所,,121.479801,25.023063
大樓,大樓,DE03000087,埤墘里,新北市板橋區埤墘里莒光路23號,1.0,47.0,埔墘派出所,,121.474051,25.023141
,,DE03000088,莊敬里,新北市板橋區莊敬里莊敬路208巷2弄2號,1.0,315.0,埔墘派出所,,121.471823,25.021255
大樓,公寓,DE03000089,廣新里,新北市板橋區廣新里永豐街91號,1.0,88.0,埔墘派出所,,121.473596,25.019195
大樓,松柏名家社區,DE03000090,埔墘里,新北市板橋區埔墘里中山路二段416巷36號,1.0,546.0,埔墘派出所,,121.483183,25.020083
,,DE03000091,光復里,新北市板橋區光復里中山路2段416巷13-27號,1.0,88.0,埔墘派出所,,121.483279,25.019692
大樓,屈臣氏,DE03000092,富貴里,新北市板橋區富貴里三民路二段97號,1.0,406.0,埔墘派出所,,121.479455,25.017392
大樓,公寓,DE03000093,雙玉里,新北市板橋區雙玉里富山街18巷2號,1.0,454.0,埔墘派出所,,121.478428,25.022051
大樓,公寓,DE03000094,廣新里,新北市板橋區廣新里永豐街97號,1.0,115.0,埔墘派出所,,121.473757,25.01929
,,DE03000095,居仁里,新北市板橋區三民路二段215號,1.0,205.0,埔墘派出所,,121.479127,25.01287
大樓,大樓,DE03000096,振義里,新北市板橋區振義里萬安街53巷23號,1.0,2089.0,埔墘派出所,,121.483111,25.023566
大樓,大樓,DE03000097,光復里,新北市板橋區光復里光復街109號,1.0,262.0,埔墘派出所,,121.484457,25.019428
,,DE03000098,雙玉里,新北市板橋區雙玉里富山街18巷22號,1.0,472.0,埔墘派出所,,121.478394,25.022753
大樓,公寓,DE03000099,雙玉里,新北市板橋區雙玉里富山街18巷12號,1.0,91.0,埔墘派出所,,121.478491,25.022474
大樓,公園世紀,DE03000100,莊敬里,新北市板橋區莊敬里莊敬路220巷29弄1號,1.0,2702.0,埔墘派出所,,121.472591,25.020433
大樓,公園世紀,DE03000101,莊敬里,新北市板橋區莊敬里莊敬路220巷29弄13號,1.0,388.0,埔墘派出所,,121.472601,25.020352
大樓,公寓,DE03000102,九如里,新北市板橋區九如里三民路二段140號,1.0,396.0,埔墘派出所,,121.479054,25.016393
大樓,公寓,DE03000103,莊敬里,新北市板橋區莊敬里莊敬路220巷8號,1.0,2578.0,埔墘派出所,,121.472355,25.020811
大樓,E生活社區,DE03000104,永安里,新北市板橋區永安里萬板路140號,1.0,1660.0,埔墘派出所,,121.475514,25.022956
大樓,大樓,DE03000105,埤墘里,新北市板橋區埤墘里莒光路209號,2.0,50.0,埔墘派出所,,121.474224,25.023117
,,DE03000106,振義里,新北市板橋區中山路二段553巷2號,2.0,1113.0,埔墘派出所,,121.483768,25.021981
大樓,正隆天地,DE03000107,福壽里,新北市板橋區福壽里民生路一段28號,4.0,2749.0,埔墘派出所,,121.476303,25.012726
大樓,甲天下大樓,DE03000108,振興里,新北市板橋區振興里三民路一段63號,3.0,316.0,埔墘派出所,,121.479692,25.0224415
大樓,光仁中學,DE03000109,光仁里,新北市板橋區光仁里中山路二段255巷18號,1.0,706.0,埔墘派出所,,121.47689,25.018139
大樓,法國賞社區,DE03000110,光復里,新北市板橋區光復里光復街18號,1.0,2236.0,埔墘派出所,,121.483769,25.019008
公寓,光復高中,DE03000111,光復里,新北市板橋區光復里光環路一段7號,1.0,3798.0,埔墘派出所,,121.486108,25.017391
大樓,饅頭店,DE03000112,港嘴里,新北市板橋區港嘴里縣民大道三段270巷1號,3.0,194.0,埔墘派出所,,121.478312,25.023393
大樓,大樓,DE03000113,光復里,新北市板橋區光復里光復街54-74號,3.0,951.0,埔墘派出所,,121.483769,25.019008
大樓,公寓,DE03000114,雙玉里,新北市板橋區雙玉里三民路一段210號,3.0,1252.0,埔墘派出所,,121.479068,25.019361
大樓,富山公寓大樓,DE03000115,雙玉里,新北市板橋區雙玉里富山街7巷5號,1.0,269.0,埔墘派出所,,121.478602,25.02157
大樓,大樓,DE03000116,埔墘里,新北市板橋區埔墘里光復街52巷7號,1.0,511.0,埔墘派出所,,121.482075,25.018302
大樓,馥華大台北,DE03000117,埔墘里,新北市板橋區埔墘里中山路二段409號,3.0,3479.0,埔墘派出所,,121.480715,25.019797
大樓,中山首府,DE03000118,埔墘里,新北市板橋區埔墘里中山路二段326號,3.0,1615.0,埔墘派出所,,121.481158,25.019677
大樓,榮耀交響社區,DE03000119,港嘴里,新北市板橋區港嘴里萬板路32-36號,1.0,4808.0,埔墘派出所,,121.477664,25.024986
大樓,寶蓮新象,DE03000120,居仁里,新北市板橋區居仁里三民路二段20號,1.0,70.0,埔墘派出所,,121.479274,25.014876
大樓,大樓,DE03000121,雙玉里,新北市板橋區雙玉里中山路二段309巷8號,1.0,111.0,埔墘派出所,,121.478657,25.018943
大樓,沐夏會館,DE03000122,港嘴里,新北市板橋區港嘴里雙十路一段6號,1.0,1207.0,埔墘派出所,,121.478306,25.02422
大樓,青茵悅大樓,DE03000123,港嘴里,新北市板橋區港嘴里萬板路518號,1.0,176.0,埔墘派出所,,121.480641,25.026324
大樓,新站晶華,DE03000124,永安里,新北市板橋區永安里縣民大道三段101號,2.0,239.0,埔墘派出所,,121.476218,25.022347
大樓,新站晶華,DE03000125,永安里,新北市板橋區永安里縣民大道三段105號,1.0,194.0,埔墘派出所,,121.4764,25.022447
大樓,昇陽大樓,DE03000126,長壽里,新北市板橋區長壽里光環路一段80號,1.0,1096.0,埔墘派出所,,121.481684,25.016864
大樓,湛藍新天地,DE03000127,居仁里,新北市板橋區居仁里光環路二段26號,1.0,2531.0,埔墘派出所,,121.482138,25.014022
大樓,經典榮耀大樓,DE03000128,九如里,新北市板橋區九如里三民路二段72號,1.0,11.0,埔墘派出所,,121.479099,25.017063
大樓,公寓,DE03000129,光復里,新北市板橋區光復里中山路二段412巷29弄11號,1.0,50.0,埔墘派出所,,121.484228,25.020194
大樓,新板圖,DE03000130,埤墘里,新北市板橋區埤墘里莊敬231巷1號,1.0,687.0,埔墘派出所,,121.47229,25.02179253
大樓,大樓,DE03000131,振興里,新北市板橋區振興里中山二段443巷75號,3.0,1250.0,埔墘派出所,,121.480685,25.022525
大樓,頤和邦,DE03000132,振興里,新北市板橋區振興里中山路二段505巷38號,2.0,72.0,埔墘派出所,,121.482065,25.02253
大樓,湛藍幸福時光,DE03000133,居仁里,新北市板橋區居仁里光環路二段46號,1.0,2053.0,埔墘派出所,,121.481621,25.014206
公寓,公寓,DE03000134,振興里,新北市板橋區振興里翠華街6巷73號,1.0,133.0,埔墘派出所,,121.48126,25.025085
大樓,大樓,DE03000135,福壽里,新北市板橋區福壽里三民路二段237號,1.0,273.0,埔墘派出所,,121.479112,25.012729
大樓,大樓,DE03000136,莊敬里,新北市板橋區莊敬里莊敬220巷11-5號,1.0,103.0,埔墘派出所,,121.472607,25.020838
大樓,大樓,DE03000137,永安里,新北市板橋區永安里縣民大道三段103巷7號,2.0,139.0,埔墘派出所,,121.475803,25.022812
大樓,大樓,DE03000138,福壽里,新北市板橋區福壽里三民路2段209號,2.0,114.0,埔墘派出所,,121.479132,25.013046
公寓,公寓,DE03000139,廣新里,新北市板橋區廣新里永豐街89巷5弄1號,1.0,286.0,埔墘派出所,,121.473123,25.019502
大樓,陽明天下大樓,DE04000001,文德里,新北市板橋區文德里文德路19號,1.0,1515.0,新海派出所,,121.462376,25.024142
公寓,公寓,DE04000002,中正里,新北市板橋區中正里中正路413巷15號,1.0,99.0,新海派出所,,121.453506,25.022553
大樓,富臨極品大樓,DE04000003,新翠里,新北市板橋區新翠里雨農路24號,1.0,1455.0,新海派出所,,121.461641,25.024611
大樓,板橋國中自強大樓,DE04000004,中正里,新北市板橋區中正里中正路437號,1.0,376.0,新海派出所,,121.454159,25.024001
公寓,公寓,DE04000006,中正里,新北市板橋區中正里中正路360號,1.0,1620.0,新海派出所,,121.454472,25.0241168
公寓,公寓,DE04000007,新海里,新北市板橋區新海里新海路403巷20-28號,1.0,321.0,新海派出所,,121.457591,25.026334
公寓,公寓,DE04000012,金華里,新北市板橋區新生里新生街23巷1弄5號,1.0,366.0,新海派出所,,121.455847,25.021454
公寓,公寓,DE04000013,新生里,新北市板橋區新生里金華街21巷17號,1.0,530.0,新海派出所,,121.456039,25.020788
大樓,市立聯合醫院,DE04000016,德翠里,新北市板橋區德翠里英士路1巷198號,1.0,1625.0,新海派出所,,,
公寓,公寓,DE04000017,公館里,新北市板橋區公館里文化路一段285巷1弄15號,1.0,263.0,新海派出所,,121.464166,25.018658
公寓,公寓,DE04000018,吉翠里,新北市板橋區吉翠里裕民街41號,1.0,282.0,新海派出所,,121.460782,25.028209
大樓,公寓,DE04000019,吉翠里,新北市板橋區吉翠里長江路一段48巷10弄2號,1.0,124.0,新海派出所,,121.459361,25.028024
公寓,公寓,DE04000020,朝陽里,新北市板橋區朝陽里裕民街9910號,1.0,636.0,新海派出所,,121.459215,25.027362
公寓,公寓,DE04000021,新翠里,新北市板橋區新翠里陽明街279巷26號,1.0,382.0,新海派出所,,121.461076,25.025879
公寓,公寓,DE04000022,新海里,新北市板橋區新海里新海路385巷63號,1.0,3918.0,新海派出所,,121.457548,25.025479
公寓,公寓,DE04000023,新海里,新北市板橋區新海里新海路403巷16-18號,1.0,131.0,新海派出所,,121.457903,25.026503
公寓,致理科技大學,DE04000024,忠誠里,新北市板橋區忠誠里文化路一段313號,1.0,363.0,新海派出所,,121.465198,25.021012
公寓,公寓,DE04000025,新翠里,新北市板橋區新翠里英士路58巷6弄21號,1.0,536.0,新海派出所,,121.461133,25.025211
大樓,公寓,DE04000026,幸福里,新北市板橋區幸福里英士路153號,1.0,184.0,新海派出所,,121.459701,25.023897
公寓,新埔國中仁愛大樓,DE04000027,新海里,新北市板橋區新海里新海路181號,1.0,546.0,新海派出所,,121.459653,25.024897
公寓,板信商銀,DE04000029,公館里,新北市板橋區公館里文化路一段261號,1.0,18.0,新海派出所,,,
公寓,公寓,DE04000033,忠誠里,新北市板橋區忠誠里陽明街73巷12號,1.0,490.0,新海派出所,,121.463864,25.022806
,,DE04000034,忠誠里,新北市板橋區忠誠里陽明街27巷2-1號,1.0,65.0,新海派出所,,121.465558,25.021918
,,DE04000035,忠誠里,新北市板橋區忠誠里陽明街45號,1.0,362.0,新海派出所,,121.464971,25.022201
公寓,公寓,DE04000036,公館里,新北市板橋區公館里國光路1571號,1.0,516.0,新海派出所,,121.462804,25.018584
,,DE04000038,幸福里,新北市板橋區漢生西路165巷101弄1號,,313.0,新海派出所,,121.460152,25.022531
公寓,公寓,DE04000040,中正里,新北市板橋區中正里中正路401號,1.0,48.0,新海派出所,,121.454083,25.02217
公寓,公寓,DE04000042,中正里,新北市板橋區中正里中正路399巷810號,1.0,40.0,新海派出所,,121.452674,25.022602
公寓,公寓,DE04000043,朝陽里,新北市板橋區朝陽里四維路269巷92號,1.0,25.0,新海派出所,,121.459617,25.026662
公寓,新埔國中體育場大樓,DE04000044,新海里,新北市板橋區新海里新海路181號,1.0,619.0,新海派出所,,121.459653,25.024897
公寓,公寓,DE04000045,德翠里,新北市板橋區德翠里龍泉街5858號,1.0,114.0,新海派出所,,121.456959,25.023493
公寓,公寓,DE04000046,德翠里,新北市板橋區德翠里龍泉街5761號,1.0,125.0,新海派出所,,121.456959,25.023493
公寓,公寓,DE04000047,港尾里,新北市板橋區港尾里金華街9巷210號,1.0,623.0,新海派出所,,121.455223,25.020338
公寓,公寓,DE04000048,港尾里,新北市板橋區港尾里金華街9巷17號,1.0,735.0,新海派出所,,121.455223,25.020338
公寓,公寓,DE04000049,德翠里,新北市板橋區德翠里龍泉街54巷2弄13號,1.0,496.0,新海派出所,,121.457166,25.026378
公寓,公寓,DE04000050,德翠里,新北市板橋區德翠里龍泉街54巷1弄17號,1.0,500.0,新海派出所,,121.456961,25.026266
公寓,公寓,DE04000051,新翠里,新北市板橋區新翠里雨農路616號,1.0,299.0,新海派出所,,121.460585,25.024117
大樓,大樓,DE04000052,港尾里,新北市板橋區港尾里新生街616號,1.0,178.0,新海派出所,,121.455597,25.02108
公寓,大樓,DE04000054,金華里,新北市板橋區金華里金華街5157號,1.0,139.0,新海派出所,,121.459802,25.020872
公寓,公寓,DE04000056,德翠里,新北市板橋區德翠里龍泉街55巷8弄226號,1.0,1279.0,新海派出所,,121.45695,25.025505
公寓,公寓,DE04000057,公館里,新北市板橋區公館里國光路211巷32號,1.0,647.0,新海派出所,,121.462153,25.019083
公寓,公寓,DE04000058,公館里,新北市板橋區公館里國光路191號,1.0,551.0,新海派出所,,121.461566,25.018593
大樓,公寓,DE04000059,公館里,新北市板橋區公館里國光路28號,1.0,496.0,新海派出所,,121.461442,25.018654
大樓,公寓,DE04000060,新翠里,新北市板橋區新翠里雨農路20-22號,1.0,193.0,新海派出所,,121.46177,25.024682
大樓,公寓,DE04000061,新翠里,新北市板橋區新翠里雨農路17巷113號,1.0,742.0,新海派出所,,121.462157,25.024444
大樓,凱旋花園,DE04000062,朝陽里,新北市板橋區朝陽里裕民街131號,1.0,1600.0,新海派出所,,121.459215,25.027362
公寓,公寓,DE04000063,港德里,新北市板橋區港德里中正路216巷12號,1.0,286.0,新海派出所,,121.456449,25.01844
公寓,公寓,DE04000064,公館里,新北市板橋區公館里國光路173巷418號,1.0,321.0,新海派出所,,,
公寓,公寓,DE04000065,中正里,新北市板橋區中正里中正路216巷150弄216號,1.0,321.0,新海派出所,,121.452674,25.022602
公寓,公寓,DE04000066,中正里,新北市板橋區中正里中正路216巷150弄1號,1.0,274.0,新海派出所,,121.452674,25.022602
公寓,公寓,DE04000067,中正里,新北市板橋區中正里中正路216巷142號,1.0,160.0,新海派出所,,121.452674,25.022602
公寓,新埔國小,DE04000068,新翠里,新北市板橋區新翠里陽明街206號,1.0,281.0,新海派出所,,121.462594,25.025883
公寓,公寓,DE04000069,公館里,新北市板橋區公館里國光路173巷3弄18號,1.0,242.0,新海派出所,,121.459969,25.01912885
公寓,公寓,DE04000070,文德里,新北市板橋區文德里新海路72巷46弄19號,1.0,587.0,新海派出所,,121.462538,25.023105
公寓,公寓,DE04000071,文德里,新北市板橋區文德里漢生西路165巷34-42號,1.0,213.0,新海派出所,,121.46225,25.023485
公寓,文德國小停車場,DE04000075,幸福里,新北市板橋區幸福里英士路179號,1.0,1116.0,新海派出所,,121.458501,25.02251
大樓,曉樓社區,DE04000077,新翠里,新北市板橋區新翠里英士路58巷15弄51號,1.0,2000.0,新海派出所,,121.460248,25.025461
公寓,公寓,DE04000078,中正里,新北市板橋區中正里中正路399巷6號,1.0,35.0,新海派出所,,121.453799,25.022343
公寓,日安陽明大樓,DE04000079,文德里,新北市板橋區文德里漢生西路163號,1.0,417.0,新海派出所,,121.463187,25.023284
公寓,公寓,DE04000081,文德里,新北市板橋區文德里新海路72巷46弄21號,1.0,283.0,新海派出所,,121.462538,25.023105
公寓,文德國小一心大樓,DE04000082,幸福里,新北市板橋區幸福里英士路179號,1.0,551.0,新海派出所,,121.458501,25.02251
大樓,國泰皇家大樓,DE04000083,吉翠里,新北市板橋區吉翠里裕民街130號,1.0,786.0,新海派出所,,121.458888,25.027424
大樓,中正花都大樓,DE04000084,中正里,新北市板橋區中正里中正路375巷17-27號,1.0,942.0,新海派出所,,121.454021,25.020596
大樓,湯臣華廈大樓,DE04000085,港德里,新北市板橋區港德里中正路216巷12號,1.0,1910.0,新海派出所,,121.456449,25.01844
公寓,忠誠新村社區,DE04000086,忠誠里,新北市板橋區忠誠里陽明街29巷242號,1.0,1156.0,新海派出所,,121.46402,25.022421
公寓,新埔國中懷恩大樓,DE04000088,新海里,新北市板橋區新海里新海路181號,1.0,937.0,新海派出所,,121.459653,25.024897
公寓,新埔國中忠孝大樓,DE04000089,新海里,新北市板橋區新海里新海路181號,1.0,2587.0,新海派出所,,121.459653,25.024897
大樓,公寓,DE04000091,港尾里,新北市板橋區港尾里中正路274號,1.0,567.0,新海派出所,,121.455258,25.019852
公寓,公寓,DE04000092,新生里,新北市板橋區新生里新生街64號,1.0,219.0,新海派出所,,121.457175,25.020917
公寓,公寓,DE04000093,中正里,新北市板橋區中正里中正路375巷48號,1.0,919.0,新海派出所,,121.453538,25.020347
大樓,致理科濟大學圖書館,DE04000094,忠誠里,新北市板橋區忠誠里文化路一段313號,1.0,894.0,新海派出所,,121.465198,25.021012
公寓,公寓,DE04000096,新翠里,新北市板橋區新翠里英士路6064號,1.0,616.0,新海派出所,,121.460294,25.024448
公寓,新埔國小綜合大樓,DE04000097,新翠里,新北市板橋區新翠里陽明街206號,1.0,1309.0,新海派出所,,121.462594,25.025883
大樓,公寓,DE04000099,公館里,新北市板橋區公館里國光路16號,1.0,159.0,新海派出所,,121.461442,25.018654
大樓,公寓,DE04000100,吉翠里,新北市板橋區吉翠里裕民街1121號,1.0,1277.0,新海派出所,,121.458622,25.027035
公寓,新海派出所,DE04000101,吉翠里,新北市板橋區吉翠里英士路151號,1.0,686.0,新海派出所,,,
大樓,公寓,DE04000102,仁翠里,新北市板橋區仁翠里裕民街53-59號,1.0,239.0,新海派出所,,121.461075,25.028363
公寓,警察宿舍(陽明大廈),DE04000104,忠誠里,新北市板橋區忠誠里陽明街25巷2號,1.0,2227.0,新海派出所,,121.465902,25.021698
大樓,文化京華大樓,DE04000105,忠誠里,新北市板橋區忠誠里文化路一段329號,1.0,926.0,新海派出所,,121.466306,25.020667
大樓,鴻運貴族大樓,DE04000106,新翠里,新北市板橋區新翠里文德路46號,1.0,277.0,新海派出所,,121.461868,25.024092
大樓,花園廣場大樓,DE04000108,新翠里,新北市板橋區新翠里陽明街251號,1.0,567.0,新海派出所,,121.462635,25.025162
大樓,太陽社區大樓,DE04000109,德翠里,新北市板橋區德翠里龍泉街90巷1號,1.0,1371.0,新海派出所,,121.456278,25.024962
大樓,公寓,DE04000110,公館里,新北市板橋區公館里漢生西路71號,1.0,464.0,新海派出所,,121.462877,25.018729
大樓,大庭新村,DE04000111,公館里,新北市板橋區公館里國光路33號,1.0,17459.0,新海派出所,,121.461442,25.018654
公寓,傳家寶,DE04000112,德翠里,新北市板橋區德翠里龍泉街114號,1.0,1766.0,新海派出所,,121.456909,25.024396
公寓,公寓,DE04000113,吉翠里,新北市板橋區吉翠里長江路一段106巷12弄14號,2.0,291.0,新海派出所,,121.459733,25.028736
大樓,真善美花園廣場大樓,DE04000114,新翠里,新北市板橋區新翠里新海路362號,1.0,1087.0,新海派出所,,121.459783,25.02524
大樓,公寓,DE04000115,中正里,新北市板橋區中正里中正路413巷12號,1.0,222.0,新海派出所,,121.453554,25.022708
大樓,太陽村一村大樓,DE04000116,德翠里,新北市板橋區德翠里龍泉街90巷4號,1.0,463.0,新海派出所,,121.45625,25.025184
大樓,台北狀元大樓,DE04000117,新翠里,新北市板橋區新翠里新海路348號,1.0,1438.0,新海派出所,,121.460117,25.024675
大樓,青年福利社區,DE04000118,滿翠里,新北市板橋區滿翠里龍泉街103號,1.0,523.0,新海派出所,,121.457167,25.02468603
大樓,百世順大樓,DE04000119,公館里,新北市板橋區公館里國光路183號,1.0,425.0,新海派出所,,121.461442,25.018654
,,DE04000120,溪頭里,新北市板橋區溪頭里長江路2段243號,,70.0,新海派出所,,121.468839,25.032728
大樓,陽明凱旋大樓,DE04000122,新翠里,新北市板橋區新翠里雨農路27巷52號,1.0,831.0,新海派出所,,121.461549,25.023956
大樓,福第社區,DE04000123,幸福里,新北市板橋區幸福里新海路135巷33號,1.0,1562.0,新海派出所,,121.45982,25.022669
大樓,台新銀行,DE04000124,新翠里,新北市板橋區新翠里雨農路21號,1.0,241.0,新海派出所,,,
公寓,公寓,DE04000125,新海里,新北市板橋區新海里新海路454號,1.0,307.0,新海派出所,,121.457874,25.028166
大樓,公寓,DE04000126,幸福里,新北市板橋區幸福里幸福路70巷1號,1.0,209.0,新海派出所,,121.460767,25.020036
大樓,龍鳳雙星大樓,DE04000127,新翠里,新北市板橋區新翠里新海路328號,1.0,1883.0,新海派出所,,121.460466,25.024091
大樓,公寓,DE04000129,文德里,新北市板橋區文德里漢生西路165巷46號,1.0,486.0,新海派出所,,121.461929,25.023629
公寓,公寓,DE04000130,文德里,新北市板橋區文德里新海路72巷64號,1.0,111.0,新海派出所,,121.461803,25.02353
大樓,大地回村大樓,DE04000131,德翠里,新北市板橋區德翠里龍泉街108巷11號,1.0,1153.0,新海派出所,,121.456195,25.024272
大樓,凱旋花園一期,DE04000133,吉翠里,新北市板橋區吉翠里裕民街151號,1.0,1600.0,新海派出所,,121.458622,25.027035
大樓,環遊世界社區,DE04000134,港尾里,新北市板橋區港尾里中正路330號,2.0,1958.0,新海派出所,,121.454487,25.021649
大樓,玫瑰森林社區,DE04000135,德翠里,新北市板橋區德翠里龍泉街108巷26號,1.0,3629.0,新海派出所,,121.455789,25.024636
大樓,太陽村大樓,DE04000136,德翠里,新北市板橋區德翠里龍泉街90巷20號,1.0,439.0,新海派出所,,121.455901,25.024968
大樓,勝輝新象大樓,DE04000138,宏翠里,新北市板橋區宏翠里長江路一段208號,1.0,1433.0,新海派出所,,121.462713,25.030763
大樓,公寓,DE04000139,宏翠里,新北市板橋區宏翠里長江路一段371號,1.0,321.0,新海派出所,,121.461706,25.03067
大樓,板橋我家大樓,DE04000140,文德里,新北市板橋區文德里新海路72巷53號,1.0,177.0,新海派出所,,121.461737,25.023394
大樓,公寓,DE04000141,文德里,新北市板橋區文德里漢生西路40號,1.0,560.0,新海派出所,,121.462513,25.021309
公寓,致理科技大學信義大樓,DE04000142,忠誠里,新北市板橋區忠誠里文化路一段313號,1.0,496.0,新海派出所,,121.465198,25.021012
大樓,家麗寶大樓,DE04000143,幸福里,新北市板橋區幸福里新海路63號,1.0,342.0,新海派出所,,121.461884,25.02148
大樓,公寓,DE04000144,文德里,新北市板橋區文德里新海路28號,1.0,78.0,新海派出所,,121.46235,25.021173
大樓,建霖榮邸,DE04000145,港尾里,新北市板橋區港尾里中正路296號,1.0,639.0,新海派出所,,121.455127,25.020559
大樓,公寓,DE04000146,忠誠里,新北市板橋區忠誠里文化路一段311號,1.0,804.0,新海派出所,,121.465964,25.020329
大樓,非常歐洲大樓,DE04000147,新翠里,新北市板橋區新翠里新海路150號,1.0,1265.0,新海派出所,,121.460656,25.023768
大樓,治理科技大學人文大樓,DE04000148,忠誠里,新北市板橋區忠誠里文化路一段313號,1.0,443.0,新海派出所,,121.465198,25.021012
大樓,日安陽明二期大樓,DE04000149,文德里,新北市板橋區文德里漢生西路165巷17號,1.0,931.0,新海派出所,,121.461856,25.0237437
大樓,維多利亞大樓,DE04000150,中正里,新北市板橋區中正里中正路375巷42號,1.0,142.0,新海派出所,,121.453521,25.020896
大樓,日安陽明大樓二期,DE04000151,文德里,新北市板橋區文德里漢生西路157號,2.0,504.0,新海派出所,,121.463093,25.023105
大樓,致理科技大學排球場,DE04000153,忠誠里,新北市板橋區忠誠里文化路一段313號,1.0,3011.0,新海派出所,,121.465198,25.021012
大樓,建華新城,DE04000154,忠誠里,新北市板橋區忠誠里文化路一段309號,2.0,8406.0,新海派出所,,121.465039,25.02060412
公寓,中正月灣社區,DE04000155,中正里,新北市板橋區中正里中正路4054號,1.0,481.0,新海派出所,,121.45537,25.027322
大樓,巨蛋社區,DE04000156,宏翠里,新北市板橋區宏翠里民生路三段379號,3.0,2956.0,新海派出所,,121.463248,25.031315
大樓,詠英園大樓,DE04000158,新翠里,新北市板橋區新翠里英士路58巷20號1,1.0,845.0,新海派出所,,121.460506,25.025596
公寓,板橋國中停車場,DE04000163,中正里,新北市板橋區中正里中正路437號,1.0,2520.0,新海派出所,,121.454159,25.024001
大樓,永福大樓,DE04000165,新翠里,新北市板橋區新翠里陽明街279巷25-35號,1.0,1176.0,新海派出所,,121.461319,25.025588
大樓,世界之藝社區,DE04000166,港尾里,新北市板橋區港尾里中正路318號,1.0,564.0,新海派出所,,121.454673,25.021043
大樓,富逸社區,DE04000167,港德里,新北市板橋區港德里中正路226號,1.0,849.0,新海派出所,,121.455867,25.018632
大樓,太子學院社區,DE04000168,德翠里,新北市板橋區德翠里龍泉街126號,1.0,1323.0,新海派出所,,121.457121,25.023969
大樓,昇之陽大樓,DE04000169,宏翠里,新北市板橋區宏翠里長江路一段196號,1.0,690.0,新海派出所,,121.462391,25.030653
大樓,公園上品,DE04000172,新翠里,新北市板橋區新翠里英士路26號,1.0,353.0,新海派出所,,121.461766,25.02521
大樓,頂級菲陽社區,DE04000173,新翠里,新北市板橋區新翠里互助街3號,1.0,696.0,新海派出所,,121.463223,25.027633
公寓,新埔國小停車場,DE04000174,新翠里,新北市板橋區新翠里陽明街206號,1.0,1635.0,新海派出所,,121.462594,25.025883
大樓,板橋國中技藝大樓,DE04000175,中正里,新北市板橋區中正里中正路437號,1.0,375.0,新海派出所,,121.454159,25.024001
大樓,芯花開社區,DE04000176,幸福里,新北市板橋區幸福里新海路135巷49號,1.0,264.0,新海派出所,,121.459712,25.02249
大樓,幸大輝煌大樓,DE04000177,幸福里,新北市板橋區幸福里新海路51號,1.0,772.0,新海派出所,,121.462099,25.021163
大樓,清峰社區,DE04000178,中正里,新北市板橋區中正里永翠路102號,1.0,1966.0,新海派出所,,121.452012,25.020911
大樓,新板艾麗大樓二期,DE04000179,文德里,新北市板橋區文德里漢生西路167號,1.0,875.0,新海派出所,,121.462959,25.023884
大樓,新板艾麗大樓一期,DE04000180,文德里,新北市板橋區文德里漢生西路175號,1.0,361.0,新海派出所,,121.462726,25.023482
大樓,新月會館大樓,DE04000181,中正里,新北市板橋區中正里新月三街1號,1.0,483.0,新海派出所,,121.456065,25.026715
大樓,板橋大悅社區,DE04000182,中正里,新北市板橋區中正里藝文街171號,1.0,1598.0,新海派出所,,121.451385,25.021792
大樓,歡喜市大樓,DE04000183,中正里,新北市板橋區中正里藝文街217號,1.0,1309.0,新海派出所,,121.451113,25.021036
大樓,新月天地社區,DE04000184,中正里,新北市板橋區中正里12鄰環河西路5段233號,1.0,3137.0,新海派出所,,121.453097,25.026827
大樓,富江翠社區,DE04000185,中正里,新北市板橋區中正里中正路455號,1.0,1809.0,新海派出所,,121.454094,25.026188
大樓,瑞典月灣大樓,DE04000186,中正里,新北市板橋區中正里環河西路五段159號,1.0,815.0,新海派出所,,121.454523,25.027902
大樓,嘉和大樓,DE04000187,中正里,新北市板橋區中正里藝文街59號,1.0,906.0,新海派出所,,121.45219,25.023208
大樓,國泰田大樓,DE04000188,宏翠里,新北市板橋區宏翠里3鄰環河西路四段2229號2樓,1.0,558.0,新海派出所,,121.460073,25.030961
大樓,,DE04000189,中正里,新北市板橋區中正里14鄰中正路528號,2.0,1106.0,新海派出所,,121.45537,25.027322
大樓,,DE04000190,宏翠里,新北市板橋區宏翠里6鄰環河西路四段2215號2樓,1.0,1600.0,新海派出所,,121.460709,25.03126
大樓,,DE04000191,中正里,新北市板橋區中正里3鄰藝文一街8號,1.0,497.0,新海派出所,,121.452337,25.02258
大樓,國盛富地,DE05000001,文翠里,新北市板橋區文翠里仁化街1號,1.0,540.0,文聖派出所,,121.474426,25.031661
公寓,公寓,DE05000004,文翠里,新北市板橋區文翠里仁化街131號,1.0,214.0,文聖派出所,,121.477153,25.032772
大樓,宏聚大樓,DE05000006,文翠里,新北市板橋區文翠里文化路二段548巷29號,1.0,228.0,文聖派出所,,121.476983,25.033829
公寓,公寓,DE05000007,嵐翠里,新北市板橋區嵐翠里懷德街66巷33號,1.0,120.0,文聖派出所,,121.47654,25.031672
公寓,公寓,DE05000010,青翠里,新北市板橋區青翠里仁化街152巷1號,1.0,140.0,文聖派出所,,121.478095,25.033229
公寓,大樓,DE05000013,青翠里,新北市板橋區青翠里仁化街186號,1.0,142.0,文聖派出所,,121.478715,25.034089
大樓,瑞典月灣大樓,DE05000015,中正里,新北市板橋區中正里環河西路五段159號,1.0,550.0,文聖派出所,,121.454523,25.027902
大樓,大樓,DE05000016,懷翠里,新北市板橋區懷翠里懷德街127巷1號,1.0,396.0,文聖派出所,,121.478915,25.030909
大樓,華廈,DE05000017,懷翠里,新北市板橋區懷翠里民治街73號,1.0,136.0,文聖派出所,,121.479652,25.032519
大樓,吉祥儒邑,DE05000023,松翠里,新北市板橋區松翠里文化路二段410巷2弄16號,1.0,2034.0,文聖派出所,,121.474074,25.03069
大樓,大樓,DE05000025,松柏里,新北市板橋區松柏里松柏街66號,1.0,548.0,文聖派出所,,121.476066,25.030287
大樓,大樓,DE05000026,松翠里,新北市板橋區松翠里文聖街40巷5號,1.0,612.0,文聖派出所,,121.47606,25.031015
大樓,文化馥園,DE05000027,松翠里,新北市板橋區松翠里仁化街40號,1.0,470.0,文聖派出所,,121.475031,25.03158
大樓,文化金都,DE05000029,松翠里,新北市板橋區松翠里文聖街42號,1.0,1113.0,文聖派出所,,121.476472,25.031246
大樓,雙十金星,DE05000031,龍翠里,新北市板橋區龍翠里雙十路二段6號8,1.0,663.0,文聖派出所,,121.477003,25.025982
公寓,雙十金星,DE05000032,龍翠里,新北市板橋區龍翠里大同街8巷10號,1.0,166.0,文聖派出所,,121.477185,25.02690152
大樓,大樓,DE05000033,松柏里,新北市板橋區松柏里松柏街64號,1.0,100.0,文聖派出所,,121.475878,25.03054442
大樓,大樓,DE05000034,松柏里,新北市板橋區松柏里松柏街64號,1.0,113.0,文聖派出所,,121.475878,25.03054442
公寓,公寓,DE05000035,松柏里,新北市板橋區松柏里松柏街90號,1.0,418.0,文聖派出所,,121.476602,25.030597
公寓,文聖國小,DE05000038,松柏里,新北市板橋區松柏里文聖街86號,1.0,646.0,文聖派出所,,121.477474,25.029222
大樓,華南銀行,DE05000039,莒光里,新北市板橋區莒光里文化路二段80號,1.0,511.0,文聖派出所,,,
公寓,公寓,DE05000040,文翠里,新北市板橋區文翠里民治街36號,1.0,71.0,文聖派出所,,121.478295,25.034125
大樓,公寓,DE05000041,嵐翠里,新北市板橋區嵐翠里文聖街89巷34號,1.0,95.0,文聖派出所,,121.478523,25.030395
大樓,大樓,DE05000043,嵐翠里,新北市板橋區嵐翠里文聖街73號,1.0,1702.0,文聖派出所,,121.477307,25.030533
大樓,大富社區,DE05000044,懷翠里,新北市板橋區懷翠里懷德街139巷1號,1.0,2034.0,文聖派出所,,121.479372,25.030545
大樓,好鄰居大貴區,DE05000045,懷翠里,新北市板橋區懷翠里懷德街139巷23號,1.0,1801.0,文聖派出所,,121.480017,25.031208
大樓,公寓,DE05000049,龍翠里,新北市板橋區龍翠里大同街7號,1.0,116.0,文聖派出所,,121.476951,25.026921
大樓,圓與屋Ｂ座,DE05000050,龍翠里,新北市板橋區龍翠里文聖街207號,1.0,409.0,文聖派出所,,121.479696,25.026522
大樓,公寓,DE05000051,龍翠里,新北市板橋區龍翠里大同街5巷1號,1.0,534.0,文聖派出所,,121.476908,25.026992
大樓,圓與屋,DE05000052,龍翠里,新北市板橋區龍翠里文聖街188號,1.0,733.0,文聖派出所,,121.479405,25.026636
大樓,吉祥花園,DE05000053,華翠里,新北市板橋區華翠里莒光路133巷7弄,1.0,1377.0,文聖派出所,,121.472466,25.02460679
公寓,莒光消防分隊,DE05000054,華翠里,新北市板橋區華翠里莒光路161號,1.0,706.0,文聖派出所,,121.473927,25.024302
公寓,莒光國小,DE05000055,華翠里,新北市板橋區華翠里莒光路163號,1.0,331.0,文聖派出所,,121.474229,25.025183
公寓,莒光國小,DE05000056,華翠里,新北市板橋區華翠里莒光路163號,1.0,210.0,文聖派出所,,121.474229,25.025183
公寓,莒光國小,DE05000057,華翠里,新北市板橋區華翠里莒光路163號,1.0,395.0,文聖派出所,,121.474229,25.025183
大樓,莒光雙喜臨門,DE05000058,華翠里,新北市板橋區華翠里莒光路157號,1.0,1153.0,文聖派出所,,121.473573,25.024088
大樓,文化奇蹟,DE05000059,忠翠里,新北市板橋區忠翠里文化路二段182巷3弄33號,1.0,793.0,文聖派出所,,121.472362,25.028703
大樓,文化大地,DE05000061,忠翠里,新北市板橋區忠翠里莊敬路58號,1.0,749.0,文聖派出所,,121.472721,25.026693
大樓,公園新第,DE05000062,華翠里,新北市板橋區華翠里莒光路78巷11號,1.0,288.0,文聖派出所,,121.47179,25.023645
大樓,公寓,DE05000063,文翠里,新北市板橋區文翠里文聖街11巷26號,1.0,96.0,文聖派出所,,121.476247,25.033
大樓,大樓,DE05000064,文翠里,新北市板橋區文翠里文化路二段498號,1.0,1862.0,文聖派出所,,121.475612,25.033255
公寓,公寓,DE05000068,莒光里,新北市板橋區莒光里文化路二段124巷4號,1.0,305.0,文聖派出所,,121.470336,25.025995
大樓,文化大院,DE05000071,文翠里,新北市板橋區文翠里文化路二段548巷30號,1.0,815.0,文聖派出所,,121.476956,25.03353
大樓,福匯常住,DE05000072,龍翠里,新北市板橋區龍翠里大同街16號,1.0,479.0,文聖派出所,,121.477658,25.026926
公寓,公寓,DE05000073,華江里,新北市板橋區華江里莒光路40巷24號,1.0,139.0,文聖派出所,,121.470145,25.023284
大樓,文化大人,DE05000075,忠翠里,新北市板橋區忠翠里文化路二段182巷3弄48號,1.0,1892.0,文聖派出所,,121.472705,25.028783
大樓,台灣世家,DE05000076,忠翠里,新北市板橋區忠翠里莊敬路9號,1.0,4149.0,文聖派出所,,121.474762,25.02763
公寓,公寓,DE05000078,莒光里,新北市板橋區莒光里文化路二段124巷26號,1.0,63.0,文聖派出所,,121.471199,25.025586
大樓,雙十華廈,DE05000079,忠翠里,新北市板橋區忠翠里雙十路二段71號,1.0,442.0,文聖派出所,,121.476201,25.026765
大樓,大樓,DE05000080,忠翠里,新北市板橋區忠翠里雙十路二段79號,1.0,220.0,文聖派出所,,121.476037,25.027023
大樓,興洋名宮,DE05000081,文翠里,新北市板橋區文翠里仁化街83號,1.0,1025.0,文聖派出所,,121.476069,25.032004
大樓,江翠儷學,DE05000082,文聖里,新北市板橋區文聖里懷德街174巷26號,1.0,657.0,文聖派出所,,121.478321,25.029254
大樓,昇陽天廈,DE05000083,忠翠里,新北市板橋區忠翠里莊敬路34號,1.0,2481.0,文聖派出所,,121.473025,25.027421
大樓,龍之邦A區,DE05000084,忠翠里,新北市板橋區忠翠里雙十路二段209號,1.0,1043.0,文聖派出所,,121.47318,25.028897
大樓,龍之邦B區,DE05000085,忠翠里,新北市板橋區忠翠里文化路二段182巷3弄51號,1.0,1295.0,文聖派出所,,121.472451,25.028851
大樓,大樓,DE05000086,青翠里,新北市板橋區青翠里民治街88號,1.0,180.0,文聖派出所,,121.479257,25.031966
大樓,福臨門B區,DE05000088,懷翠里,新北市板橋區懷翠里懷德街139巷20弄50號,1.0,1261.0,文聖派出所,,121.48076,25.030633
大樓,福臨門A區,DE05000089,懷翠里,新北市板橋區懷翠里懷德街181巷1號,1.0,1261.0,文聖派出所,,121.479429,25.030165
大樓,捷運千禧,DE05000090,文翠里,新北市板橋區文翠里文化路二段520號,1.0,333.0,文聖派出所,,121.475949,25.033641
大樓,松柏華廈,DE05000091,松柏里,新北市板橋區松柏里松柏街50巷3號,1.0,470.0,文聖派出所,,121.475835,25.030212
大樓,富貴親家,DE05000092,莒光里,新北市板橋區莒光里莒光路57號,1.0,331.0,文聖派出所,,121.470927,25.024342
大樓,江翠國廣,DE05000093,松翠里,新北市板橋區松翠里文化路二段398號,1.0,768.0,文聖派出所,,121.473765,25.031251
大樓,江翠名門,DE05000094,龍翠里,新北市板橋區龍翠里文聖街163號,1.0,499.0,文聖派出所,,121.479441,25.027138
大樓,文化大街C區,DE05000095,文聖里,新北市板橋區文聖里大同街77號,1.0,157.0,文聖派出所,,121.479669,25.028294
大樓,文聖大街B區,DE05000096,龍翠里,新北市板橋區龍翠里文聖街159號,1.0,475.0,文聖派出所,,121.478882,25.027509
大樓,新富時代,DE05000097,文翠里,新北市板橋區文翠里文化路二段430號,1.0,86.0,文聖派出所,,121.474372,25.031851
大樓,爵士館,DE05000098,忠翠里,新北市板橋區忠翠里莊敬路75巷31號,1.0,94.0,文聖派出所,,121.473865,25.026386
大樓,新北市議會,DE05000099,忠翠里,新北市板橋區忠翠里文化路二段166號,1.0,516.0,文聖派出所,,121.470903,25.027031
大樓,公寓,DE05000100,文聖里,新北市板橋區文聖里大同街95號,1.0,145.0,文聖派出所,,121.480032,25.02846
大樓,雙璽大樓,DE05000101,松柏里,新北市板橋區松柏里雙十路二段108號,1.0,663.0,文聖派出所,,121.474549,25.028533
大樓,格林珍寶,DE05000102,龍翠里,新北市板橋區龍翠里大同街50巷31-53號,1.0,2115.0,文聖派出所,,121.479103,25.026889
大樓,文化遠見,DE05000103,忠翠里,新北市板橋區忠翠里文化路二段182巷1弄16號,1.0,721.0,文聖派出所,,121.471625,25.027946
大樓,五福國廣,DE05000104,懷翠里,新北市板橋區懷翠里懷德街201巷12號,1.0,922.0,文聖派出所,,121.481326,25.029386
大樓,華廈,DE05000105,忠翠里,新北市板橋區忠翠里雙十路二段47巷2弄25號,1.0,123.0,文聖派出所,,121.475282,25.026889
大樓,文化勳章,DE05000106,莒光里,新北市板橋區莒光里文化路二段82號,1.0,1906.0,文聖派出所,,121.469824,25.025478
大樓,大樓,DE05000107,華翠里,新北市板橋區華翠里莊敬路75巷6號,1.0,205.0,文聖派出所,,121.473237,25.026591
大樓,金築賞,DE05000108,忠翠里,新北市板橋區忠翠里文化路二段246號,1.0,471.0,文聖派出所,,121.471031,25.027959
大樓,椰林珍寶,DE05000109,忠翠里,新北市板橋區忠翠里雙十路二段47巷51號,1.0,1193.0,文聖派出所,,121.475015,25.02526
大樓,中國信託,DE05000110,忠翠里,新北市板橋區忠翠里文化路二段242號,1.0,1025.0,文聖派出所,,,
大樓,瑞林珍寶,DE05000111,龍翠里,新北市板橋區龍翠里文聖街179號,1.0,1821.0,文聖派出所,,121.479596,25.027069
大樓,捷運經典,DE05000112,龍翠里,新北市板橋區龍翠里大同街30號,1.0,287.0,文聖派出所,,121.478209,25.027266
大樓,五福國寶二期,DE05000113,懷翠里,新北市板橋區懷翠里懷德街201巷28號,1.0,584.0,文聖派出所,,121.482232,25.029715
大樓,大樓,DE05000114,文聖里,新北市板橋區文聖里大同街97號,1.0,134.0,文聖派出所,,121.480077,25.028488
大樓,雙十珍寶,DE05000115,龍翠里,新北市板橋區龍翠里雙十路二段10號,1.0,513.0,文聖派出所,,121.47661,25.02672
大樓,千囍元,DE05000116,華翠里,新北市板橋區華翠里莒光路152號,1.0,1127.0,文聖派出所,,121.473693,25.023899
大樓,上上願,DE05000117,龍翠里,新北市板橋區龍翠里文聖街158號,1.0,1006.0,文聖派出所,,121.478906,25.027224
大樓,公寓,DE05000118,莒光里,新北市板橋區莒光里莒光路15巷5號,1.0,85.0,文聖派出所,,121.469978,25.025144
大樓,家麒文化,DE05000119,忠翠里,新北市板橋區忠翠里莊敬路39號,1.0,3150.0,文聖派出所,,121.473322,25.027043
大樓,大樓,DE05000120,忠翠里,新北市板橋區忠翠里莊敬路75巷10號,1.0,140.0,文聖派出所,,121.473865,25.026386
大樓,大樓,DE05000121,青翠里,新北市板橋區青翠里民治街45號,1.0,334.0,文聖派出所,,121.478962,25.033895
大樓,仰德珍寶,DE05000122,松柏里,新北市板橋區松柏里松柏街50巷41號,1.0,6299.0,文聖派出所,,121.476094,25.029561
大樓,永福大樓,DE05000123,龍翠里,新北市板橋區龍翠里大同街41號,4.0,288.0,文聖派出所,,121.478155,25.027434
大樓,文化儷園,DE05000124,華江里,新北市板橋區華江里文化路一段286巷3號,1.0,216.0,文聖派出所,,121.467789,25.021481
大樓,民生千禧,DE05000125,華江里,新北市板橋區華江里民生路二段206號,1.0,645.0,文聖派出所,,121.469746,25.021186
大樓,大樓,DE05000126,華江里,新北市板橋區華江里民生路二段188號,1.0,346.0,文聖派出所,,121.470051,25.020833
大樓,捷和藍京,DE05000127,華江里,新北市板橋區華江里民生路二段229號,1.0,598.0,文聖派出所,,121.468596,25.021407
大樓,窈窕屋,DE05000128,華江里,新北市板橋區華江里民生路二段226巷8弄22號,1.0,297.0,文聖派出所,,121.470204,25.021585
大樓,生活品味,DE05000129,華江里,新北市板橋區華江里民生路二段226巷19號,1.0,361.0,文聖派出所,,121.47068,25.022054
公寓,公寓,DE05000130,華江里,新北市板橋區華江里民生路二段234巷67號,1.0,101.0,文聖派出所,,121.470082,25.022606
大樓,鑑築,DE05000131,華江里,新北市板橋區華江里莊敬路160號,1.0,727.0,文聖派出所,,121.471377,25.022623
大樓,新巨蛋,DE05000132,華江里,新北市板橋區華江里文化路一段360巷號,1.0,3000.0,文聖派出所,,121.468655,25.023422
大樓,民生大道,DE05000133,華江里,新北市板橋區華江里民生路二段214號,1.0,465.0,文聖派出所,,121.469428,25.02164
大樓,福匯常安,DE05000134,龍翠里,新北市板橋區龍翠里大同街17號,1.0,172.0,文聖派出所,,121.477251,25.027012
大樓,寶第花園,DE05000135,忠翠里,新北市板橋區忠翠里雙十路二段69巷12號,1.0,166.0,文聖派出所,,121.474631,25.02638
大樓,風和樹,DE05000136,忠翠里,新北市板橋區忠翠里雙十路二段25號,1.0,374.0,文聖派出所,,121.47667,25.025552
大樓,幸福MRT,DE05000137,松翠里,新北市板橋區松翠里文化路二段410巷26號,3.0,387.0,文聖派出所,,121.47447,25.030729
大樓,三暉岱門,DE05000138,忠翠里,新北市板橋區忠翠里文化路二段288號,3.0,950.0,文聖派出所,,121.47202,25.029231
大樓,大樓,DE05000139,華翠里,新北市板橋區華翠里萬板路101號,1.0,471.0,文聖派出所,,121.472717,25.023632
大樓,家甫建設,DE05000140,華翠里,新北市板橋區華翠里9鄰莒光路81號2樓,1.0,710.0,文聖派出所,,121.47196,25.024276
大樓,,DE05000141,華江里,新北市板橋區華江里11鄰民生路二段240巷68號2樓,1.0,1296.0,文聖派出所,,121.469963,25.022641
大樓,,DE05000142,懷翠里,新北市板橋區懷翠里田單北街61號2樓,1.0,547.0,文聖派出所,,121.481487,25.030541
大樓,公寓,D101000003,自強里,新北市板橋區自強里自強新村82號,1.0,66.0,板橋派出所,,121.454338,25.012807
大樓,公寓,D101000004,自強里,新北市板橋區自強里自強新村73-1號,1.0,54.0,板橋派出所,,121.454718,25.012911
大樓,公寓,D101000005,自強里,新北市板橋區自強里自強新村78-1號,1.0,42.0,板橋派出所,,121.454744,25.012685
大樓,公寓,D101000009,自強里,新北市板橋區自強里自強新村22-77號,1.0,57.0,板橋派出所,,121.454747,25.014336
大樓,公寓,D101000010,自強里,新北市板橋區自強里自強新村57號,1.0,42.0,板橋派出所,,121.454587,25.013522
大樓,公寓,D101000011,自強里,新北市板橋區自強里自強新村72號,1.0,68.0,板橋派出所,,121.454135,25.013221
公寓,公寓,D101000015,自強里,新北市板橋區自強里自強新村75-1號,1.0,56.0,板橋派出所,,121.454305,25.012984
公寓,公寓,D101000016,自強里,新北市板橋區自強里自強新村58號,1.0,41.0,板橋派出所,,121.454427,25.01355
大樓,公寓,D101000019,自強里,新北市板橋區自強里自強新村45-46號,1.0,176.0,板橋派出所,,121.454727,25.013815
公寓,公寓,D101000020,自強里,新北市板橋區自強里自強新村52號,1.0,61.0,板橋派出所,,121.45453,25.013694
大樓,公寓,D101000021,自強里,新北市板橋區自強里自強新村45號,1.0,176.0,板橋派出所,,121.454746,25.013933
公寓,公寓,D101000022,自強里,新北市板橋區自強里自強新村63號,1.0,46.0,板橋派出所,,121.45457,25.013288
公寓,公寓,D101000023,自強里,新北市板橋區自強里自強新村67號,1.0,50.0,板橋派出所,,121.453976,25.013383
公寓,公寓,D101000024,自強里,新北市板橋區自強里自強新村74號,1.0,91.0,板橋派出所,,121.454564,25.012946
公寓,公寓,D101000028,自強里,新北市板橋區自強里自強新村53號,1.0,113.0,板橋派出所,,121.454349,25.013732
公寓,公寓,D101000030,光榮里,新北市板橋區光榮里南雅西路二段102-106號,1.0,96.0,板橋派出所,,121.452311,25.011795
大樓,公寓,D101000033,自強里,新北市板橋區自強里自強新村76號,1.0,46.0,板橋派出所,,121.454213,25.012975
公寓,公寓,D101000034,自強里,新北市板橋區自強里自強新村62號,1.0,53.0,板橋派出所,,121.454709,25.013277
公寓,公寓,D101000035,自強里,新北市板橋區自強里自強新村88號,1.0,95.0,板橋派出所,,121.454327,25.012558
公寓,公寓,D101000037,自強里,新北市板橋區自強里自強新村95號,1.0,74.0,板橋派出所,,121.455488,25.013232
公寓,公寓,D101000040,自強里,新北市板橋區自強里自強新村66號,1.0,54.0,板橋派出所,,121.454141,25.013382
大樓,公寓,D101000041,自強里,新北市板橋區自強里自強新村66號,1.0,54.0,板橋派出所,,121.454141,25.013382
大樓,公寓,D101000044,自強里,新北市板橋區自強里自強新村42號,1.0,88.0,板橋派出所,,121.455241,25.013872
公寓,公寓,D101000056,光華里,新北市板橋區光華里光華街4-6號,1.0,123.0,板橋派出所,,121.454273,25.011375
公寓,公寓,D101000057,自強里,新北市板橋區自強里自強新村79號,1.0,43.0,板橋派出所,,121.454595,25.012809
大樓,公寓,D101000058,漢生里,新北市板橋區漢生里光正街12號,1.0,200.0,板橋派出所,,121.463032,25.017171
公寓,中央大樓,D101000059,流芳里,新北市板橋區流芳里館前西路139號,1.0,710.0,板橋派出所,,121.45636,25.00776
公寓,公寓,D101000063,自立里,新北市板橋區自立里大智街61號,1.0,293.0,板橋派出所,,121.453913,25.015435
大樓,公寓,D101000067,社後里,新北市板橋區社後里中正路313號,1.0,507.0,板橋派出所,,121.455084,25.019804
公寓,公寓,D101000079,光華里,新北市板橋區光華里光華街24巷4號,1.0,85.0,板橋派出所,,121.454279,25.012219
公寓,公寓,D101000080,光華里,新北市板橋區光華里光華街13巷36-38號,1.0,286.0,板橋派出所,,121.452958,25.011332
公寓,公寓,D101000083,光華里,新北市板橋區光華里南雅西路二段80-82號,1.0,92.0,板橋派出所,,121.452611,25.010838
公寓,公寓,D101000084,光榮里,新北市板橋區光榮里南雅西路二段110巷42號,1.0,43.0,板橋派出所,,121.452826,25.01337
公寓,公寓,D101000085,光華里,新北市板橋區光華里光華街15巷37-39號,1.0,124.0,板橋派出所,,121.45289,25.011509
大樓,林園天廈,D101000089,光華里,新北市板橋區光華里南雅西路二段2-1號,1.0,352.0,板橋派出所,,121.45322,25.008954
大樓,日順府前大廈,D101000091,新興里,新北市板橋區新興里館前西路207號,1.0,229.0,板橋派出所,,121.454827,25.008352
大樓,林家花園廣場大廈,D101000093,留侯里,新北市板橋區留侯里府中路171號,1.0,1724.0,板橋派出所,,121.454828,25.009208
公寓,公寓,D101000097,光榮里,新北市板橋區光榮里光華街39巷13號,1.0,56.0,板橋派出所,,121.453332,25.013038
大樓,公寓,D101000099,漢生里,新北市板橋區漢生里文化路一段215-217號,1.0,223.0,板橋派出所,,121.463483,25.017093
公寓,公寓,D101000102,光榮里,新北市板橋區光榮里光華街19巷20-22號,1.0,121.0,板橋派出所,,121.453529,25.01239
公寓,板橋高中,D101000104,黃石里,新北市板橋區黃石里文化路一段25號,1.0,1011.0,板橋派出所,,121.4591,25.011684
公寓,公寓,D101000106,流芳里,新北市板橋區流芳里大東街30-32號,1.0,37.0,板橋派出所,,121.456484,25.00894
大樓,公寓,D101000107,流芳里,新北市板橋區流芳里大東街31號,1.0,298.0,板橋派出所,,121.456603,25.008811
大樓,公寓,D101000108,流芳里,新北市板橋區流芳里大東街25-27號,1.0,706.0,板橋派出所,,121.456614,25.008922
公寓,公寓,D101000110,民安里,新北市板橋區民安里民權路202巷7弄23號,1.0,56.0,板橋派出所,,121.459143,25.014936
公寓,公寓,D101000111,民安里,新北市板橋區民安里民權路202巷7弄25號,1.0,50.0,板橋派出所,,121.459077,25.014951
公寓,公寓,D101000112,民安里,新北市板橋區民安里民權路202巷7弄1號,1.0,43.0,板橋派出所,,121.460025,25.014721
公寓,公寓,D101000113,民安里,新北市板橋區民安里民權路202巷1弄9-11號,1.0,34.0,板橋派出所,,121.459138,25.014348
公寓,大樓,D101000114,光華里,新北市板橋區光華里光華街1巷2-8號,1.0,1092.0,板橋派出所,,121.45399,25.011294
大樓,泰昌公寓大廈,D101000115,留侯里,新北市板橋區留侯里館前西路145號,1.0,177.0,板橋派出所,,121.456224,25.007874
大樓,財星大樓,D101000117,新興里,新北市板橋區新興里南雅南路一段55號,1.0,95.0,板橋派出所,,121.45594,25.005988
大樓,大順小財神,D101000118,新興里,新北市板橋區新興里南雅東路8號,3.0,1282.0,板橋派出所,,121.455178,25.005981
大樓,大樓,D101000119,香雅里,新北市板橋區香雅里南雅西路二段219-221號,2.0,134.0,板橋派出所,,121.451506,25.013858
大樓,大樓,D101000120,香社里,新北市板橋區香社里大勇街9巷8號,1.0,819.0,板橋派出所,,121.453833,25.016675
大樓,大樓,D101000121,民安里,新北市板橋區民安里民權路186號,1.0,238.0,板橋派出所,,121.45932,25.013673
大樓,公寓,D101000122,民安里,新北市板橋區民安里民權路252-254號,2.0,170.0,板橋派出所,,121.458226,25.014825
大樓,大福地,D101000124,留侯里,新北市板橋區留侯里館前西路138號,1.0,76.0,板橋派出所,,121.456318,25.008066
大樓,南雅尊邸,D101000125,湳興里,新北市板橋區湳興里南雅南路一段106號,1.0,281.0,板橋派出所,,121.454838,25.004436
大樓,大樓,D101000127,光華里,新北市板橋區光華里南雅西路二段78號,1.0,343.0,板橋派出所,,121.452702,25.01056
大樓,中山國中,D101000129,新民里,新北市板橋區新民里文化路一段188巷56號,1.0,2384.0,板橋派出所,,121.467476,25.018554
大樓,大樓,D101000131,漢生里,新北市板橋區漢生里文化路一段189號,1.0,150.0,板橋派出所,,121.463062,25.016556
大樓,揚昇河畔,D101000132,湳興里,新北市板橋區湳興里館前西路275號,1.0,810.0,板橋派出所,,121.452713,25.008431
大樓,馥都飯店,D101000133,流芳里,新北市板橋區流芳里縣民大道一段189號,1.0,472.0,板橋派出所,,121.458225,25.007459
大樓,儷緻華園,D101000134,挹秀里,新北市板橋區挹秀里明德街15-17號,1.0,201.0,板橋派出所,,121.459893,25.010625
大樓,金阪神社區,D101000135,新興里,新北市板橋區新興里南雅東路22號,1.0,1078.0,板橋派出所,,121.454499,25.006252
大樓,公寓,D101000136,新民里,新北市板橋區新民里文化路一段106號,1.0,97.0,板橋派出所,,121.464807,25.018159
大樓,新站歐洲,D101000137,湳興里,新北市板橋區湳興里南雅東路27-1號,1.0,1365.0,板橋派出所,,121.454673,25.00596
大樓,新站歐洲,D101000138,湳興里,新北市板橋區湳興里南雅東路1號,1.0,1338.0,板橋派出所,,121.455352,25.005668
大樓,昇陽府中棧,D101000139,流芳里,新北市板橋區流芳里館前西路66號,1.0,622.0,板橋派出所,,121.457788,25.007103
大樓,麗寶百貨,D101000140,新民里,新北市板橋區新民里縣民大道二段3號,1.0,2326.0,板橋派出所,,121.462215,25.012143
大樓,府中15,D101000141,挹秀里,新北市板橋區挹秀里府中路15號,1.0,283.0,板橋派出所,,121.459517,25.009487
大樓,大凱臻品,D101000143,光榮里,新北市板橋區光榮里南雅西路二段142號,1.0,203.0,板橋派出所,,121.451985,25.013021
大樓,樂業安居社區,D101000144,漢生里,新北市板橋區漢生里光正街67號,1.0,177.0,板橋派出所,,121.461583,25.018232
大樓,囍市社區,D101000145,新興里,新北市板橋區新興里縣民大道一段111號,1.0,141.0,板橋派出所,,121.456558,25.005512
大樓,府中青年社會住宅,D101000146,挹秀里,新北市板橋區挹秀里府後街2號,1.0,330.0,板橋派出所,,121.459284,25.010048
大樓,昇陽文薈社區,D101000147,黃石里,新北市板橋區黃石里北門街13號,2.0,998.0,板橋派出所,,121.456922,25.01096
大樓,府中贊,D101000148,赤松里,新北市板橋區赤松里府中路54號,1.0,529.0,板橋派出所,,121.45711,25.009649
大樓,源邸社區,D101000149,自強里,新北市板橋區自強里中正路65號,1.0,731.0,板橋派出所,,121.456139,25.013785
大樓,帝后花園,D101000150,社後里,新北市板橋區社後里中正路151號,1.0,1211.0,板橋派出所,,121.456487,25.015882
大樓,大禾社區,D101000151,香雅里,新北市板橋區香雅里藝文街366號,1.0,1571.0,板橋派出所,,121.450164,25.018527
大樓,囍堂社區,D101000152,新興里,新北市板橋區新興里縣民大道一段121號,1.0,120.0,板橋派出所,,121.456658,25.005647
公寓,柏克萊公園社區,D101000153,香社里,新北市板橋區香社里永翠路342號,1.0,1762.0,板橋派出所,,121.450861,25.018209
大樓,皇翔來青社區,D101000155,漢生里,新北市板橋區漢生里民權路172號,1.0,1492.0,板橋派出所,,121.459976,25.013186
大樓,公寓,D101000747,社後里,新北市板橋區社後里中正路107號,1.0,96.0,板橋派出所,,121.456423,25.014927
大樓,百揮首璽,D101000883,挹秀里,新北市板橋區挹秀里民權路85號,1.0,138.0,板橋派出所,,121.460826,25.011807
大樓,府中商業大樓,D101000884,挹秀里,新北市板橋區挹秀里府中路67號,1.0,157.0,板橋派出所,,121.457941,25.009309
大樓,一品陞月,D101000885,新興里,新北市板橋區新興里南雅南路1段23號,1.0,507.0,板橋派出所,,121.456428,25.006803
大樓,國稅局,D101000886,挹秀里,新北市板橋區挹秀里文化路1段48號,1.0,940.0,板橋派出所,,121.460033,25.012068
大樓,新板時尚,D101000913,新興里,新北市板橋區新興里新興路22號,1.0,572.0,板橋派出所,,121.455914,25.007094
大樓,御極大樓,D101000917,社後里,新北市板橋區社後里中正路106號,1.0,291.0,板橋派出所,,121.456788,25.015542
大樓,馥華雲鼎,D101000919,挹秀里,新北市板橋區挹秀里縣民大道1段295號,1.0,1432.0,板橋派出所,,121.460853,25.010603
大樓,新北市政府警察局,D101000920,挹秀里,新北市板橋區挹秀里府中路32號,1.0,1250.0,板橋派出所,,121.458456,25.009864
公寓,公寓,D102000027,國泰里,新北市板橋區國泰里國泰街75巷28弄19號,1.0,66.0,後埔派出所,,121.467798,25.004886
公寓,公寓,D102000028,國泰里,新北市板橋區國泰里國泰街107號,1.0,63.0,後埔派出所,,121.466621,25.006362
公寓,彰化銀行,D102000045,景星里,新北市板橋區景星里中山路一段22號,1.0,205.0,後埔派出所,,121.460207,25.008095
大樓,大樓,D102000046,鄉雲里,新北市板橋區鄉雲里中山路一段5-7號,1.0,60.0,後埔派出所,,121.459856,25.007982
大樓,台電,D102000048,福星里,新北市板橋區福星里四川路一段287號,1.0,780.0,後埔派出所,,121.458939,25.000684
公寓,公寓,D102000053,後埔里,新北市板橋區後埔里館前東路96號,1.0,1378.0,後埔派出所,,121.462169,25.007412
公寓,公寓,D102000054,景星里,新北市板橋區景星里成都街51-56號,1.0,127.0,後埔派出所,,121.461502,25.005052
公寓,誠品生活,D102000056,景星里,新北市板橋區景星里中山路一段46號,1.0,1315.0,後埔派出所,,121.46086,25.008888
公寓,公寓,D102000057,景星里,新北市板橋區景星里重慶路112號,1.0,234.0,後埔派出所,,121.462062,25.005269
公寓,公寓,D102000058,景星里,新北市板橋區景星里後埔街46-52號,1.0,118.0,後埔派出所,,121.46044,25.006027
公寓,公寓,D102000060,景星里,新北市板橋區景星里重慶路12巷5-9號,1.0,96.0,後埔派出所,,121.460682,25.007696
大樓,大樓,D102000063,後埔里,新北市板橋區後埔里實踐路38-40號,1.0,117.0,後埔派出所,,121.463603,25.006798
公寓,公寓,D102000066,廣德里,新北市板橋區廣德里忠孝路174巷39號,1.0,36.0,後埔派出所,,121.464571,25.001492
公寓,公寓,D102000071,廣德里,新北市板橋區廣德里忠孝路196巷17號,1.0,241.0,後埔派出所,,121.465484,25.002265
公寓,公寓,D102000072,後埔里,新北市板橋區後埔里實踐路32巷3-17號,1.0,588.0,後埔派出所,,121.463203,25.007069
公寓,公寓,D102000073,景星里,新北市板橋區景星里重慶路60號,1.0,164.0,後埔派出所,,121.461712,25.007064
公寓,公寓,D102000078,鄉雲里,新北市板橋區鄉雲里大華街10-20號,1.0,502.0,後埔派出所,,121.458803,25.006254
大樓,大樓,D102000079,景星里,新北市板橋區景星里中山路一段26號,1.0,260.0,後埔派出所,,121.46043,25.008378
公寓,公寓,D102000080,景星里,新北市板橋區景星里成都街21號,1.0,83.0,後埔派出所,,121.460839,25.004942
公寓,公寓,D102000082,景星里,新北市板橋區景星里成都街25-27號,1.0,220.0,後埔派出所,,121.460891,25.004954
公寓,公寓,D102000084,景星里,新北市板橋區景星里重慶路88巷10號,1.0,223.0,後埔派出所,,121.461604,25.006016
公寓,金福輪大廈,D102000086,景星里,新北市板橋區景星里中山路一段2號,1.0,203.0,後埔派出所,,121.459669,25.007347
公寓,公寓,D102000087,大豐里,新北市板橋區大豐里重慶路278號,1.0,54.0,後埔派出所,,121.463053,24.999482
公寓,公寓,D102000091,後埔里,新北市板橋區後埔里重慶路93巷9-15號,1.0,235.0,後埔派出所,,121.462512,25.005855
公寓,公寓,D102000092,後埔里,新北市板橋區後埔里重慶路93巷17-31號,1.0,215.0,後埔派出所,,121.462745,25.005888
公寓,公寓,D102000096,景星里,新北市板橋區景星里後埔街76-80號,1.0,156.0,後埔派出所,,121.460623,25.005102
大樓,大樓,D102000101,後埔里,新北市板橋區後埔里實踐路36號,1.0,165.0,後埔派出所,,121.463584,25.006875
公寓,公寓,D102000102,大豐里,新北市板橋區大豐里仁愛路9號,1.0,87.0,後埔派出所,,121.458608,24.999568
公寓,公寓,D102000104,景星里,新北市板橋區景星里後埔街54-60號,1.0,277.0,後埔派出所,,121.460494,25.005785
大樓,公寓,D102000108,景星里,新北市板橋區景星里重慶路104號,1.0,263.0,後埔派出所,,121.461985,25.005634
大樓,大樓,D102000109,福星里,新北市板橋區福星里忠孝路61-63號,1.0,298.0,後埔派出所,,121.461526,25.002186
公寓,公寓,D102000111,景星里,新北市板橋區景星里重慶路98號,1.0,75.0,後埔派出所,,121.461918,25.005945
公寓,公寓,D102000113,景星里,新北市板橋區景星里成都街9-11號,1.0,253.0,後埔派出所,,121.460348,25.004874
公寓,公寓,D102000114,福星里,新北市板橋區福星里忠孝路48巷2弄8號,1.0,234.0,後埔派出所,,121.460721,25.001578
公寓,公寓,D102000115,大豐里,新北市板橋區大豐里重慶路276-1號,1.0,193.0,後埔派出所,,121.462938,25.000273
大樓,大樓,D102000117,福祿里,新北市板橋區福祿里國泰街29-37號,1.0,621.0,後埔派出所,,121.468846,25.006707
大樓,大樓,D102000122,福德里,新北市板橋區福德里忠孝路196-1號,1.0,265.0,後埔派出所,,121.465593,25.002625
公寓,公寓,D102000123,廣德里,新北市板橋區廣德里重慶路269巷26-28號,1.0,245.0,後埔派出所,,121.465057,24.998745
公寓,公寓,D102000125,後埔里,新北市板橋區後埔里重慶路91巷9-11號,1.0,53.0,後埔派出所,,121.462569,25.006227
大樓,公寓,D102000129,福祿里,新北市板橋區福祿里國泰街17-21號,1.0,214.0,後埔派出所,,121.469365,25.006787
公寓,公寓,D102000133,福德里,新北市板橋區福德里重慶路155巷41號,1.0,137.0,後埔派出所,,121.463625,25.004231
公寓,公寓,D102000134,鄉雲里,新北市板橋區鄉雲里大華街49-55號,1.0,201.0,後埔派出所,,121.459521,25.003639
公寓,公寓,D102000138,鄉雲里,新北市板橋區鄉雲里大華街160號,1.0,176.0,後埔派出所,,121.45937,25.004088
大樓,公寓,D102000140,景星里,新北市板橋區景星里重慶路60號,1.0,191.0,後埔派出所,,121.461712,25.007064
大樓,大樓,D102000141,福星里,新北市板橋區福星里忠孝路84-88號,1.0,482.0,後埔派出所,,121.46154,25.001945
公寓,公寓,D102000142,福星里,新北市板橋區福星里光明街19-31號,1.0,818.0,後埔派出所,,121.460549,25.002652
大樓,大樓,D102000145,後埔里,新北市板橋區後埔里重慶路77號,1.0,231.0,後埔派出所,,121.461958,25.006599
公寓,公寓,D102000147,景星里,新北市板橋區景星里景福路36號,1.0,37.0,後埔派出所,,121.46163,25.005696
大樓,公寓,D102000148,廣德里,新北市板橋區廣德里忠孝路176巷23-25號,1.0,222.0,後埔派出所,,121.465226,25.001768
公寓,公寓,D102000149,廣德里,新北市板橋區廣德里忠孝路132巷30-32號,1.0,85.0,後埔派出所,,121.46351,25.001196
大樓,豪美館前大廈,D102000150,後埔里,新北市板橋區後埔里館前東路100-110號,1.0,1656.0,後埔派出所,,121.462736,25.00749
大樓,大樓,D102000151,鄉雲里,新北市板橋區鄉雲里四川路二段16巷1-10號,1.0,3393.0,後埔派出所,,121.455835,24.996506
公寓,公寓,D102000152,景星里,新北市板橋區景星里四川路一段87巷75號,1.0,67.0,後埔派出所,,121.46071,25.006299
公寓,公寓,D102000153,大豐里,新北市板橋區大豐里大豐街108號,1.0,81.0,後埔派出所,,121.461732,25.000719
大樓,大樓,D102000154,廣德里,新北市板橋區廣德里忠孝路196巷27號,1.0,273.0,後埔派出所,,121.465619,25.001847
大樓,大傑大樓,D102000155,後埔里,新北市板橋區後埔里實踐路32巷1號,1.0,385.0,後埔派出所,,121.4633,25.007084
公寓,國泰世華銀行,D102000156,大豐里,新北市板橋區大豐里重慶路260-262號,1.0,675.0,後埔派出所,,121.462842,25.000669
大樓,大樓,D102000157,大豐里,新北市板橋區大豐里重慶路308巷19號,1.0,559.0,後埔派出所,,121.463364,24.999162
大樓,大樓,D102000158,福星里,新北市板橋區福星里成都街10號,1.0,206.0,後埔派出所,,121.460329,25.004718
大樓,大樓,D102000159,景星里,新北市板橋區景星里中山路一段48號,1.0,206.0,後埔派出所,,121.460907,25.009003
大樓,大樓,D102000160,景星里,新北市板橋區景星里重慶路59-61號,1.0,253.0,後埔派出所,,121.461733,25.006985
公寓,公寓,D102000161,福星里,新北市板橋區福星里校前街7-10號,1.0,240.0,後埔派出所,,121.460436,25.003164
公寓,公寓,D102000163,福德里,新北市板橋區福德里重慶路155巷47號,1.0,25.0,後埔派出所,,121.463842,25.004283
大樓,大樓,D102000165,福德里,新北市板橋區福德里忠孝路201巷57-59號,1.0,282.0,後埔派出所,,121.464776,25.003953
大樓,大樓,D102000166,福星里,新北市板橋區福星里忠孝路58號,1.0,132.0,後埔派出所,,121.461017,25.001901
大樓,三信商業大樓,D102000167,景星里,新北市板橋區景星里重慶路66號,1.0,1592.0,後埔派出所,,121.461841,25.006454
大樓,成都綠洲,D102000168,福德里,新北市板橋區福德里忠孝路201巷89號,1.0,377.0,後埔派出所,,121.46466,25.004604
大樓,大樓,D102000169,廣德里,新北市板橋區廣德里忠孝路196巷26號,1.0,594.0,後埔派出所,,121.465457,25.001587
大樓,大樓,D102000170,福德里,新北市板橋區福德里忠孝路219號,1.0,130.0,後埔派出所,,121.465566,25.002826
大樓,四川天下,D102000171,福星里,新北市板橋區福星里四川路一段269號,1.0,243.0,後埔派出所,,121.459637,25.002107
大樓,怡寶大樓,D102000172,景星里,新北市板橋區景星里中山路一段10號,1.0,1048.0,後埔派出所,,121.460122,25.007961
大樓,翰學園,D102000173,後埔里,新北市板橋區後埔里重慶路69巷10號,1.0,1611.0,後埔派出所,,121.462448,25.006889
大樓,大樓,D102000174,福德里,新北市板橋區福德里實踐路93巷10號,1.0,516.0,後埔派出所,,121.46448,25.005418
大樓,大樓,D102000175,福星里,新北市板橋區福星里忠孝路52號,1.0,172.0,後埔派出所,,121.460896,25.001884
大樓,大樓,D102000176,福星里,新北市板橋區福星里忠孝路50號,1.0,185.0,後埔派出所,,121.460811,25.001864
公寓,站前銀座,D102000177,景星里,新北市板橋區景星里四川路一段57號,1.0,222.0,後埔派出所,,121.459657,25.006208
公寓,大樓,D102000178,福星里,新北市板橋區福星里四川路一段159號,1.0,194.0,後埔派出所,,121.460048,25.004022
大樓,大樓,D102000179,華興里,新北市板橋區華興里貴興路38-40號,1.0,500.0,後埔派出所,,121.457312,25.003597
大樓,前元建設華夏,D102000181,景星里,新北市板橋區景星里四川路一段25號,1.0,538.0,後埔派出所,,121.459544,25.006795
大樓,大樓,D102000182,廣德里,新北市板橋區廣德里重慶路327巷7弄2號,1.0,348.0,後埔派出所,,121.464297,24.998626
大樓,新寶天第,D102000183,景星里,新北市板橋區景星里四川路一段107號,1.0,652.0,後埔派出所,,121.459866,25.005088
大樓,大樓,D102000184,景星里,新北市板橋區景星里重慶路78號,1.0,457.0,後埔派出所,,121.4618785,25.0063548
大樓,大樓,D102000185,後埔里,新北市板橋區後埔里實踐路30號,1.0,1016.0,後埔派出所,,121.463505,25.007293
大樓,三甲好禮社區,D102000187,華興里,新北市板橋區華興里稚暉街20號,1.0,282.0,後埔派出所,,121.455872,25.004328
大樓,大樓,D102000188,福德里,新北市板橋區福德里實踐路128號,1.0,406.0,後埔派出所,,121.464357,25.002884
大樓,大樓,D102000189,華興里,新北市板橋區華興里貴興路48號,1.0,457.0,後埔派出所,,121.457115,25.003279
大樓,三甲好禮社區,D102000190,華興里,新北市板橋區華興里稚暉街20號,1.0,2020.0,後埔派出所,,121.455872,25.004328
公寓,大樓,D102000191,華興里,新北市板橋區華興里南雅南路二段3號,1.0,1705.0,後埔派出所,,121.454596,25.002981
大樓,大樓,D102000192,華興里,新北市板橋區華興里南雅南路二段11巷5號,2.0,1051.0,後埔派出所,,121.454865,25.00239
大樓,大樓,D102000193,國泰里,新北市板橋區國泰里實踐路93巷43弄3號,1.0,452.0,後埔派出所,,121.465738,25.005384
大樓,大樓,D102000194,後埔里,新北市板橋區後埔里成都街93號,1.0,753.0,後埔派出所,,121.463087,25.005342
大樓,大樓,D102000195,後埔里,新北市板橋區後埔里實踐路34號,1.0,482.0,後埔派出所,,121.463539,25.007085
大樓,大樓,D102000196,廣德里,新北市板橋區廣德里重慶路269巷18號,1.0,164.0,後埔派出所,,121.46449,24.99896
大樓,板橋京都公寓大廈,D102000197,廣德里,新北市板橋區廣德里重慶路269巷79號,1.0,1941.0,後埔派出所,,121.465534,24.999698
大樓,大樓,D102000198,廣德里,新北市板橋區廣德里重慶路269巷18號,1.0,186.0,後埔派出所,,121.46449,24.99896
大樓,大樓,D102000199,鄉雲里,新北市板橋區鄉雲里四川路一段286巷2號,1.0,815.0,後埔派出所,,121.458508,25.000934
大樓,大樓,D102000200,福星里,新北市板橋區福星里忠孝路19號,1.0,1288.0,後埔派出所,,121.460382,25.002003
大樓,大樓,D102000201,後埔里,新北市板橋區後埔里重慶路71號,1.0,302.0,後埔派出所,,121.461918,25.006796
大樓,擎天大廈,D102000202,廣德里,新北市板橋區廣德里重慶路247號,1.0,1520.0,後埔派出所,,121.463374,25.000521
大樓,大樓,D102000203,後埔里,新北市板橋區後埔里館前東路106號,1.0,1302.0,後埔派出所,,121.462971,25.007532
大樓,大樓,D102000204,景星里,新北市板橋區景星里館前東路1號,1.0,868.0,後埔派出所,,121.459648,25.007216
公寓,公寓,D102000205,景星里,新北市板橋區景星里後埔街79號,1.0,193.0,後埔派出所,,121.460696,25.005406
大樓,大樓,D102000206,廣德里,新北市板橋區廣德里重慶路245巷26號,1.0,84.0,後埔派出所,,121.464485,25.000772
大樓,台電,D102000207,福星里,新北市板橋區福星里四川路一段285號,1.0,527.0,後埔派出所,,121.459367,25.001372
大樓,大樓,D102000208,福德里,新北市板橋區福德里實踐路93巷26號,1.0,167.0,後埔派出所,,121.465082,25.005247
大樓,大樓,D102000209,華興里,新北市板橋區華興里貴興路52號,1.0,197.0,後埔派出所,容量數修正,121.457004,25.003199
大樓,大樓,D102000211,福星里,新北市板橋區福星里四川路一段155號,1.0,19.0,後埔派出所,,121.460031,25.004145
大樓,大樓,D102000212,福星里,新北市板橋區福星里四川路一段131號,1.0,218.0,後埔派出所,,121.459944,25.004635
大樓,大樓,D102000213,華興里,新北市板橋區華興里貴興路94號,1.0,325.0,後埔派出所,,121.455803,25.002693
大樓,尊品公寓大廈,D102000214,福星里,新北市板橋區福星里四川路一段257號,1.0,630.0,後埔派出所,,121.459776,25.002371
大樓,冠君大飯店,D102000215,後埔里,新北市板橋區後埔里重慶路91-1號,1.0,330.0,後埔派出所,,121.462078,25.005945
大樓,大樓,D102000216,福祿里,新北市板橋區福祿里國泰街39巷6弄1號,1.0,795.0,後埔派出所,,121.468514,25.005609
大樓,大樓,D102000217,福星里,新北市板橋區福星里四川路一段255號,1.0,18.0,後埔派出所,,121.459777,25.00257
大樓,大樓,D102000218,福德里,新北市板橋區福德里忠孝路237號,3.0,1016.0,後埔派出所,,121.46606,25.002909
大樓,大樓,D102000219,廣德里,新北市板橋區廣德里重慶路245巷11號,2.0,779.0,後埔派出所,,121.463759,25.000798
大樓,大樓,D102000220,福祿里,新北市板橋區福祿里民族路192號,1.0,180.0,後埔派出所,,121.467982,25.007573
大樓,大樓,D102000221,廣德里,新北市板橋區廣德里重慶路287號,1.0,338.0,後埔派出所,,121.463651,24.999278
大樓,大樓,D102000222,景星里,新北市板橋區景星里成都街43號,1.0,259.0,後埔派出所,,121.461308,25.005036
大樓,土地銀行,D102000223,福祿里,新北市板橋區福祿里民族路212號,1.0,1059.0,後埔派出所,,121.468429,25.007417
大樓,狀元紅社區,D102000224,國泰里,新北市板橋區國泰里國泰街75巷28弄52號,2.0,245.0,後埔派出所,,121.467657,25.004835
大樓,成都府社區,D102000225,景星里,新北市板橋區景星里成都街29號,2.0,940.0,後埔派出所,,121.461007,25.00499
大樓,網路花園社區,D102000226,國泰里,新北市板橋區國泰里實踐路93巷65號,2.0,1168.0,後埔派出所,,121.467475,25.004958
大樓,大樓,D102000227,福星里,新北市板橋區福星里校前街42號,1.0,63.0,後埔派出所,,121.46119,25.003183
大樓,大樓,D102000228,廣德里,新北市板橋區廣德里重慶路245巷32弄5號,1.0,471.0,後埔派出所,,121.464747,25.000586
大樓,忠孝敦煌B區,D102000229,福德里,新北市板橋區福德里忠孝路241號,1.0,945.0,後埔派出所,,121.466283,25.002939
大樓,大樓,D102000230,景星里,新北市板橋區景星里館前東路2號,1.0,270.0,後埔派出所,,121.459565,25.006989
大樓,重慶晶鑽大樓,D102000231,景星里,新北市板橋區景星里重慶路8號,3.0,356.0,後埔派出所,,121.460631,25.008016
大樓,大樓,D102000232,大豐里,新北市板橋區大豐里重慶路300號,2.0,311.0,後埔派出所,,121.463756,24.998483
大樓,台北經典社區,D102000233,福星里,新北市板橋區福星里忠孝路31號,3.0,1242.0,後埔派出所,,121.460717,25.002042
大樓,南雅邑品社區,D102000234,華興里,新北市板橋區華興里貴興路106巷7號,1.0,1078.0,後埔派出所,,121.455234,25.00273
大樓,站前凱悅,D102000235,鄉雲里,新北市板橋區鄉雲里中山路一段1號,5.0,2128.0,後埔派出所,,121.459371,25.007416
大樓,大樓,D102000236,景星里,新北市板橋區景星里四川路一段105號,1.0,223.0,後埔派出所,,121.459817,25.005203
大樓,長生大樓,D102000237,鄉雲里,新北市板橋區鄉雲里中山路一段3號,3.0,334.0,後埔派出所,,121.459733,25.007805
大樓,大樓,D102000238,鄉雲里,新北市板橋區鄉雲里大華街22號,2.0,517.0,後埔派出所,,121.458875,25.006092
大樓,帝寶大樓,D102000239,福祿里,新北市板橋區福祿里民族路228號,1.0,382.0,後埔派出所,,121.468812,25.007285
大樓,忠孝七期社區,D102000241,福德里,新北市板橋區福德里忠孝路206號,2.0,568.0,後埔派出所,,121.465935,25.00269
大樓,怡園社區,D102000242,鄉雲里,新北市板橋區鄉雲里大華街128號,2.0,464.0,後埔派出所,,121.459295,25.004989
大樓,大樓,D102000243,後埔里,新北市板橋區後埔里成都街71巷2號,2.0,281.0,後埔派出所,,121.462389,25.005298
大樓,大樓,D102000244,福星里,新北市板橋區福星里忠孝路96號,2.0,1805.0,後埔派出所,,121.461825,25.002015
公寓,新站21合康愛樂社區,D102000245,國泰里,新北市板橋區國泰里實踐路65巷41號,1.0,524.0,後埔派出所,,121.465093,25.006507
公寓,公寓,D102000246,景星里,新北市板橋區景星里重慶路78號,1.0,362.0,後埔派出所,,121.461905,25.006115
大樓,大樓,D102000247,廣德里,新北市板橋區廣德里重慶路245巷22弄15號,1.0,94.0,後埔派出所,,121.464547,25.000289
公寓,公寓,D102000248,大豐里,新北市板橋區大豐里忠孝路48巷36號,1.0,289.0,後埔派出所,,121.460936,25.00051
大樓,金富天廈社區,D102000249,福德里,新北市板橋區福德里忠孝路263號,1.0,1514.0,後埔派出所,,121.466966,25.003089
大樓,大樓,D102000251,後埔里,新北市板橋區後埔里重慶路93巷26號,3.0,1075.0,後埔派出所,,121.463094,25.00581
大樓,國泰晶華社區,D102000252,福祿里,新北市板橋區福祿里國泰街75巷29號,2.0,806.0,後埔派出所,,121.467977,25.005513
大樓,大樓,D102000253,福德里,新北市板橋區福德里忠孝路255號,2.0,427.0,後埔派出所,,121.466544,25.002989
大樓,大樓,D102000254,廣德里,新北市板橋區廣德里忠孝路190巷6號,1.0,479.0,後埔派出所,,121.465523,25.002433
大樓,台北遠東通訊園區TPKA研發大樓,D102000255,鄉雲里,新北市板橋區鄉雲里四川路一段332號,2.0,3525.0,後埔派出所,,121.458004,25.00012
大樓,吉峻園首,D102000256,廣德里,新北市板橋區廣德里重慶路245巷50弄36號,1.0,85.0,後埔派出所,,121.464949,24.999724
大樓,浩市達社區,D102000257,鄉雲里,新北市板橋區鄉雲里大華街30號,3.0,390.0,後埔派出所,,121.458779,25.005777
大樓,金腹帝寶,D102000258,廣德里,新北市板橋區廣德里重慶路245巷80號,1.0,1315.0,後埔派出所,,121.466139,25.000927
大樓,新板京王社區,D102000259,鄉雲里,新北市板橋區鄉雲里華興街18號,1.0,409.0,後埔派出所,,121.459266,25.004716
大樓,大樓,D102000260,鄉雲里,新北市板橋區鄉雲里四川路一段210-222號,1.0,690.0,後埔派出所,,121.45942,25.002211
大樓,玖原富都,D102000261,華興里,新北市板橋區華興里貴興路6-1號,4.0,967.0,後埔派出所,,121.457616,25.004395
大樓,大樓,D102000262,福星里,新北市板橋區福星里四川路一段207號,1.0,104.0,後埔派出所,,121.460118,25.003556
大樓,大樓,D102000263,景星里,新北市板橋區景星里景福路28號,1.0,64.0,後埔派出所,,121.461466,25.005682
大樓,大樓,D102000264,國泰里,新北市板橋區國泰里國泰街75巷28弄2號,1.0,79.0,後埔派出所,,121.467574,25.005442
大樓,府中臻藏,D102000265,福星里,新北市板橋區福星里四川路一段205號,1.0,63.0,後埔派出所,,121.460274,25.00362
大樓,大樓,D102000266,後埔里,新北市板橋區後埔里實踐路42號,1.0,284.0,後埔派出所,,121.463624,25.006675
大樓,海山花園社區,D102000267,福祿里,新北市板橋區福祿里8鄰民族路236號,1.0,541.0,後埔派出所,,121.46899,25.00722
大樓,嘉廷臻園,D102000268,廣德里,新北市板橋區廣德里忠孝路196巷6號,2.0,410.0,後埔派出所,,121.465097,25.00234
大樓,家泰A+社區,D102000269,廣德里,新北市板橋區廣德里13鄰忠孝路154巷18號二樓,1.0,285.0,後埔派出所,,121.463915,25.001936
大樓,忠孝國中,D102000270,福星里,新北市板橋區福星里3鄰成都街30號,1.0,452.0,後埔派出所,,121.460875,25.004774
大樓,後埔國小,D102000271,福星里,新北市板橋區福星里重慶路157號,1.0,4911.0,後埔派出所,,121.462699,25.003346
公寓,金福輪大廈,D102000393,景星里,新北市板橋區景星里中山路一段2號,1.0,395.0,後埔派出所,,121.459669,25.007347
大樓,新北市政府消防局板橋分隊,D102000882,廣德里,新北市板橋區廣德里重慶路293號,1.0,281.0,後埔派出所,,121.463378,24.999116
大樓,大將首悅,D102000887,廣德里,新北市板橋區廣德里重慶路245巷9弄1號,1.0,548.0,後埔派出所,,121.46354,25.0009
大樓,金品雅緻,D102000888,廣德里,新北市板橋區廣德里重慶路269巷77號,1.0,70.0,後埔派出所,,121.46561,24.999165
大樓,府中晶品,D102000901,景星里,新北市板橋區景星里四川路一段67-69號,1.0,893.0,後埔派出所,,121.460165,25.006107
大樓,大樓,D102000902,福祿里,新北市板橋區福祿里國泰街39巷5弄18號,1.0,57.0,後埔派出所,,121.468914,25.006032
公寓,愛買,D102000904,華貴里,新北市板橋區華貴里貴興路101號,1.0,4869.0,後埔派出所,,121.456587,25.002002
大樓,極上學,D102000907,國泰里,新北市板橋區國泰里實踐路93巷43弄13號,3.0,272.0,後埔派出所,,121.466034,25.006014
大樓,永捷貴築,D102000915,廣德里,新北市板橋區廣德里重慶路269巷2號,1.0,151.0,後埔派出所,,121.464126,24.999132
公寓,中山國小,D103000003,中山里,新北市板橋區中山里大觀路二段59巷31號,1.0,206.0,大觀派出所,,121.447687,25.002304
公寓,台灣藝術大學美術系大工坊,D103000004,復興里,新北市板橋區復興里大觀路二段28號,1.0,11.0,大觀派出所,,121.446295,25.00232
公寓,公寓,D103000006,龍安里,新北市板橋區龍安里大觀路二段148巷22弄1號,1.0,261.0,大觀派出所,,121.442147,24.99997
公寓,台灣藝術大學美術系大工坊,D103000007,復興里,新北市板橋區復興里大觀路二段28號,1.0,355.0,大觀派出所,,121.446295,25.00232
公寓,板橋榮民之家,D103000010,復興里,新北市板橋區復興里大觀路二段32號,1.0,402.0,大觀派出所,,121.445531,25.001225
公寓,大觀國小,D103000022,浮洲里,新北市板橋區浮洲里大觀路一段30號,1.0,270.0,大觀派出所,,121.44935,25.008611
公寓,公寓,D103000023,華中里,新北市板橋區華中里僑中一街124巷9弄8號,1.0,286.0,大觀派出所,,121.44554,25.012847
公寓,公寓,D103000024,大安里,新北市板橋區大安里大觀路二段153巷39弄1號,1.0,159.0,大觀派出所,,121.446863,25.000548
公寓,台灣藝術大學,D103000026,浮洲里,新北市板橋區浮洲里大觀路一段59號,1.0,1392.0,大觀派出所,,121.447569,25.005889
公寓,公寓,D103000029,大安里,新北市板橋區大安里大觀路二段163巷2號,1.0,415.0,大觀派出所,,121.445605,25.000385
公寓,大觀國小,D103000031,浮洲里,新北市板橋區浮洲里大觀路一段30號,1.0,635.0,大觀派出所,,121.44935,25.008611
公寓,公寓,D103000032,浮洲里,新北市板橋區浮洲里僑中三街1號,1.0,642.0,大觀派出所,,121.446845,25.004481
公寓,公寓,D103000034,大安里,新北市板橋區大安里大觀路二段185號,1.0,369.0,大觀派出所,,121.444905,24.999868
公寓,公寓,D103000038,浮洲里,新北市板橋區浮洲里僑中三街2-40號,1.0,652.0,大觀派出所,,121.446919,25.004627
公寓,公寓,D103000044,華中里,新北市板橋區華中里僑中一街102巷3弄2-18號,1.0,286.0,大觀派出所,,121.446686,25.012404
公寓,公寓,D103000045,大觀里,新北市板橋區大觀里僑中二街100巷2-32號,1.0,591.0,大觀派出所,,121.445894,25.008563
公寓,公寓,D103000047,復興里,新北市板橋區復興里大觀路二段22巷33號,1.0,603.0,大觀派出所,,121.444903,25.003604
公寓,公寓,D103000060,大觀里,新北市板橋區大觀里僑中二街8巷1號,1.0,853.0,大觀派出所,,121.446992,25.011181
公寓,公寓,D103000061,大觀里,新北市板橋區大觀里僑中二街92巷3號,1.0,763.0,大觀派出所,,121.446107,25.008891
公寓,公寓,D103000062,浮洲里,新北市板橋區浮洲里僑中一街80巷6弄3號,1.0,966.0,大觀派出所,,121.447895,25.012059
公寓,公寓,D103000068,歡園里,新北市板橋區歡園里僑中一街125巷6弄2-18號,1.0,2578.0,大觀派出所,,121.445398,25.01145
公寓,台灣藝術大學美術系大工坊,D103000070,復興里,新北市板橋區復興里大觀路二段28號,1.0,27.0,大觀派出所,,121.446295,25.00232
公寓,中山國小,D103000071,中山里,新北市板橋區中山里大觀路二段59巷31號,1.0,735.0,大觀派出所,,121.447687,25.002304
公寓,公寓,D103000072,僑中里,新北市板橋區僑中里僑中二街114巷24-36號,1.0,858.0,大觀派出所,,121.444629,25.006972
公寓,公寓,D103000074,僑中里,新北市板橋區僑中里僑中二街114巷24-36號,1.0,859.0,大觀派出所,,121.444629,25.006972
公寓,台灣藝術大學,D103000076,浮洲里,新北市板橋區浮洲里大觀路一段59號,1.0,3494.0,大觀派出所,,121.447569,25.005889
公寓,台灣藝術大學,D103000077,浮洲里,新北市板橋區浮洲里大觀路一段59號,1.0,508.0,大觀派出所,,121.447569,25.005889
公寓,大觀路郵局,D103000078,浮洲里,新北市板橋區浮洲里大觀路一段47號,1.0,188.0,大觀派出所,,121.448179,25.007651
公寓,幸福美滿家園社區,D103000082,僑中里,新北市板橋區僑中里僑中二街126巷2-28號,1.0,2778.0,大觀派出所,,121.445173,25.005193
大樓,大觀派出所,D103000084,大安里,新北市板橋區大安里大觀路二段127號,1.0,1950.0,大觀派出所,,121.445957,25.001453
大樓,龍都緣社區,D103000085,聚安里,新北市板橋區聚安里龍興街103巷2號,1.0,3190.0,大觀派出所,,121.44437,25.003557
公寓,台灣藝術大學古蹟修護學系,D103000086,浮洲里,新北市板橋區浮洲里大觀路一段29巷2弄5號,1.0,73.0,大觀派出所,,121.450117,25.007954
大樓,台灣藝術大學,D103000087,浮洲里,新北市板橋區浮洲里大觀路一段59號,1.0,545.0,大觀派出所,,121.447569,25.005889
大樓,大觀國中,D103000088,浮洲里,新北市板橋區浮洲里僑中一街1號,1.0,3384.0,大觀派出所,,121.448524,25.011251
大樓,大觀國中,D103000089,浮洲里,新北市板橋區浮洲里僑中一街1號,1.0,865.0,大觀派出所,,121.448524,25.011251
大樓,久泰花園社區,D103000090,聚安里,新北市板橋區聚安里大觀路二段174巷138號,1.0,2518.0,大觀派出所,,121.44154,25.002534
大樓,新大觀公寓大廈,D103000091,大觀里,新北市板橋區大觀里僑中二街20號,1.0,1161.0,大觀派出所,,121.445991,25.010661
大樓,浮洲合宜住宅A2社區,D103000092,中山里,新北市板橋區中山里合安一路21號,1.0,5002.0,大觀派出所,,121.447294,24.999768
大樓,浮洲合宜住宅A3社區,D103000094,中山里,新北市板橋區中山里合宜路69號,1.0,17690.0,大觀派出所,,121.447046,24.997421
大樓,浮洲合宜住宅A6社區,D103000095,福安里,新北市板橋區福安里合宜路1號,1.0,46895.0,大觀派出所,,121.445551,24.995699
大樓,馥華原美公寓大廈,D103000096,浮洲里,新北市板橋區浮洲里大觀路一段38巷26號,1.0,1495.0,大觀派出所,,121.445143,25.004416
大樓,寶格麗公寓大廈,D103000097,華中里,新北市板橋區華中里僑中一街80巷5號,2.0,374.0,大觀派出所,,121.447745,25.012314
大樓,馥華原鄉公寓大廈,D103000107,僑中里,新北市板橋區僑中里僑中二街118號,1.0,765.0,大觀派出所,,121.444724,25.006297
大樓,大樓,D104000046,溪北里,新北市板橋區溪北里溪北路43-45號,1.0,236.0,沙崙派出所,,121.427484,24.990096
大樓,天照商業大樓,D104000054,崑崙里,新北市板橋區崑崙里大觀路三段236號,1.0,802.0,沙崙派出所,,121.429796,24.992225
大樓,含翠雙星社區,D104000056,崑崙里,新北市板橋區崑崙里大觀路三段212巷2-12號,1.0,384.0,沙崙派出所,,121.430472,24.992501
大樓,大樓,D104000057,崑崙里,新北市板橋區崑崙里大觀路三段212巷14-36號,1.0,455.0,沙崙派出所,,121.430104,24.992783
大樓,板橋學園社區,D104000059,堂春里,新北市板橋區堂春里金門街253巷2弄18-28號,1.0,815.0,沙崙派出所,,121.431754,24.988204
大樓,大樓,D104000060,溪福里,新北市板橋區溪福里金門街347號,1.0,351.0,沙崙派出所,,121.428998,24.985249
大樓,皇家望族社區,D104000061,堂春里,新北市板橋區堂春里金門街217-233號,1.0,398.0,沙崙派出所,,121.432487,24.989868
大樓,百福吉祥社區,D104000063,成和里,新北市板橋區成和里金門街21號,1.0,204.0,沙崙派出所,,121.433508,24.994679
大樓,板橋新都市社區,D104000064,溪福里,新北市板橋區溪福里篤行路二段161巷2-30號,1.0,2786.0,沙崙派出所,,121.429669,24.987561
大樓,松園社區,D104000066,崑崙里,新北市板橋區崑崙里大觀路三段160巷20號,1.0,1283.0,沙崙派出所,,121.430451,24.993839
大樓,麒麟天地A區,D104000067,溪福里,新北市板橋區溪福里金門街260巷2號,1.0,1137.0,沙崙派出所,,121.429844,24.986912
大樓,碧瑤江山第三期,D104000068,溪福里,新北市板橋區溪福里金門街278號,1.0,213.0,沙崙派出所,,121.429542,24.986123
大樓,碧瑤江山第二期,D104000069,溪福里,新北市板橋區溪福里金門街305-1號,2.0,2350.0,沙崙派出所,,121.43013,24.986256
大樓,大觀明園社區,D104000070,崑崙里,新北市板橋區崑崙里大觀路三段87號,2.0,1781.0,沙崙派出所,,121.433301,24.994796
大樓,麒麟天地東區,D104000071,溪福里,新北市板橋區溪福里金門街291號,2.0,3149.0,沙崙派出所,,121.430401,24.986769
大樓,板橋大公園社區,D104000072,崑崙里,新北市板橋區崑崙里大觀路三段227-1號,2.0,294.0,沙崙派出所,,121.431076,24.992363
大樓,台北大第社區,D104000073,堂春里,新北市板橋區堂春里金門街215巷6-22號,2.0,1609.0,沙崙派出所,,121.433005,24.989644
大樓,新宿花園社區,D104000074,崑崙里,新北市板橋區崑崙里篤行路一段32號,1.0,1018.0,沙崙派出所,,121.431818,24.993882
大樓,松園社區,D104000075,崑崙里,新北市板橋區崑崙里大觀路三段160巷36號,1.0,898.0,沙崙派出所,,121.429936,24.994059
大樓,大樓,D104000076,崑崙里,新北市板橋區崑崙里大觀路三段220巷16號,1.0,336.0,沙崙派出所,,121.429941,24.992639
大樓,福德雙星社區,D104000077,溪福里,新北市板橋區溪福里篤行路三段32號,1.0,490.0,沙崙派出所,,121.428219,24.986641
大樓,大聯盟社區,D104000078,崑崙里,新北市板橋區崑崙里金門街18號,1.0,2256.0,沙崙派出所,,121.433345,24.994341
大樓,大樓,D104000079,溪福里,新北市板橋區溪福里金門街363號,1.0,53.0,沙崙派出所,,121.428535,24.984818
大樓,金門華夏,D104000080,溪福里,新北市板橋區溪福里金門街328號,1.0,81.0,沙崙派出所,,121.428385,24.984857
大樓,板橋學園,D104000081,溪福里,新北市板橋區溪福里金門街421巷1號,1.0,1122.0,沙崙派出所,,121.427498,24.983539
公寓,公寓,D104000082,溪福里,新北市板橋區溪福里金門街369巷42弄2號,1.0,177.0,沙崙派出所,,121.428243,24.982779
大樓,榮華社區,D104000083,崑崙里,新北市板橋區崑崙里大觀路三段160巷27號,1.0,961.0,沙崙派出所,,121.430423,24.993747
大樓,興頤園社區,D104000084,堂春里,新北市板橋區堂春里溪北路166號,2.0,528.0,沙崙派出所,,121.430769,24.987998
大樓,玉平雙公園社區,D104000085,溪福里,新北市板橋區溪福里篤行路三段66號,1.0,709.0,沙崙派出所,,121.427123,24.985786
大樓,陽光庭園社區,D104000086,崑崙里,新北市板橋區崑崙里大觀路三段212巷38號,1.0,1145.0,沙崙派出所,,121.42973,24.993123
大樓,江山美人社區,D104000087,崑崙里,新北市板橋區崑崙里大觀路三段160巷34弄5號,2.0,1097.0,沙崙派出所,,121.43015,24.994357
大樓,全家福社區,D104000088,成和里,新北市板橋區成和里金門街215巷21號,1.0,506.0,沙崙派出所,,121.433122,24.990167
大樓,富貴社區,D104000089,崑崙里,新北市板橋區崑崙里大觀路三段160巷11弄2號,1.0,1418.0,沙崙派出所,,121.431021,24.993434
大樓,板橋仕社區,D104000092,崑崙里,新北市板橋區崑崙里大觀路三段50巷81號,1.0,611.0,沙崙派出所,,121.431381,24.996321
大樓,金美滿,D104000093,溪北里,新北市板橋區溪北里滿平街75號,1.0,756.0,沙崙派出所,,121.427835,24.989065
大樓,溪城社區,D104000094,溪福里,新北市板橋區溪福里溪城路91號,2.0,815.0,沙崙派出所,,121.427224,24.983169
大樓,溪崑華夏社區,D104000096,崑崙里,新北市板橋區崑崙里金門街106號,1.0,272.0,沙崙派出所,,121.433023,24.992204
大樓,新家社區,D104000097,崑崙里,新北市板橋區崑崙里沙崙街31號,1.0,272.0,沙崙派出所,,121.430822,24.99428
大樓,永貫傑座社區,D104000098,崑崙里,新北市板橋區崑崙里篤行路二段113號,1.0,15.0,沙崙派出所,,121.431467,24.991009
大樓,大樓,D104000099,崑崙里,新北市板橋區崑崙里存德街64號,2.0,286.0,沙崙派出所,,121.431056,24.99132
大樓,米蘭小鎮B區社區,D104000100,溪福里,新北市板橋區溪福里金門街351號,1.0,486.0,沙崙派出所,,121.428895,24.985169
大樓,大樓,D104000101,溪福里,新北市板橋區溪福里篤行路三段2號,1.0,486.0,沙崙派出所,,121.42925,24.987915
大樓,大樓,D104000102,溪北里,新北市板橋區溪北里溪崑二街64號,1.0,59.0,沙崙派出所,,121.42788,24.99047
大樓,玉平三公園社區,D104000103,溪福里,新北市板橋區溪福里篤行路三段67號,2.0,847.0,沙崙派出所,,121.427545,24.985659
大樓,米蘭小鎮A區,D104000104,溪福里,新北市板橋區溪福里金門街312號,2.0,563.0,沙崙派出所,,121.428741,24.985226
大樓,板橋學園三期,D104000105,溪福里,新北市板橋區溪福里金門街405號,2.0,824.0,沙崙派出所,,121.427464,24.983964
大樓,溪北地王社區,D104000106,溪北里,新北市板橋區溪北里溪北路8號,1.0,453.0,沙崙派出所,,121.426557,24.990453
大樓,公園王A區,D104000107,溪洲里,新北市板橋區溪洲里溪崑二街130巷2號,2.0,2807.0,沙崙派出所,,121.42566,24.988009
大樓,公園王B區,D104000108,溪洲里,新北市板橋區溪洲里溪崑二街130巷1號,2.0,513.0,沙崙派出所,,121.425448,24.988012
大樓,碧瑤江山第四期社區,D104000109,溪福里,新北市板橋區溪福里金門街356號,2.0,2430.0,沙崙派出所,,121.427611,24.984252
大樓,金門花園社區,D104000110,成和里,新北市板橋區成和里金門街31巷2號,2.0,2378.0,沙崙派出所,,121.433456,24.9938
大樓,松都日麗社區,D104000111,溪福里,新北市板橋區溪福里金門街324巷6號,1.0,431.0,沙崙派出所,,121.428348,24.985179
大樓,大樓,D104000112,堂春里,新北市板橋區堂春里金門街253巷16弄13號,2.0,472.0,沙崙派出所,,121.432753,24.987759
大樓,富家園社區,D104000113,堂春里,新北市板橋區堂春里金門街215-1號,1.0,105.0,沙崙派出所,,121.432563,24.989935
大樓,艾菲爾社區,D104000114,溪福里,新北市板橋區溪福里篤行路三段81號,1.0,2388.0,沙崙派出所,,121.426978,24.985026
大樓,大樓,D104000115,成和里,新北市板橋區成和里金門街43號,1.0,428.0,沙崙派出所,,121.433368,24.993588
大樓,艾菲爾社區B區,D104000116,溪福里,新北市板橋區溪福里篤行路三段88號,2.0,563.0,沙崙派出所,,121.426312,24.984947
大樓,台北紅不讓社區,D104000117,溪福里,新北市板橋區溪福里篤行路三段43號,1.0,88.0,沙崙派出所,,121.428289,24.986634
大樓,篤行社區,D104000119,崑崙里,新北市板橋區崑崙里篤行路一段30號,2.0,77.0,沙崙派出所,,121.431845,24.994092
大樓,松都風和社區,D104000121,溪福里,新北市板橋區溪福里金門街324巷1號,2.0,1245.0,沙崙派出所,,121.428307,24.985034
大樓,大樓,D104000122,溪福里,新北市板橋區溪福里金門街423號,1.0,90.0,沙崙派出所,,121.427154,24.983623
大樓,大樓,D104000123,溪洲里,新北市板橋區溪洲里溪崑二街98號,1.0,125.0,沙崙派出所,,121.426669,24.988946
大樓,五福臨門社區,D104000124,溪北里,新北市板橋區溪北里篤行路二段136號,2.0,542.0,沙崙派出所,,121.42977,24.988491
大樓,板橋大學城社區,D104000125,溪福里,新北市板橋區溪福里篤行路三段34號,2.0,1915.0,沙崙派出所,,121.428129,24.986545
大樓,一品家園,D104000126,溪北里,新北市板橋區溪北里溪崑二街43號,1.0,647.0,沙崙派出所,,121.428412,24.990906
公寓,板樹體育館,D104000127,溪福里,新北市板橋區溪福里溪城路90號,1.0,2150.0,沙崙派出所,,121.427875,24.981283
大樓,大樓,D104000128,溪北里,新北市板橋區溪北里溪北路2號,1.0,280.0,沙崙派出所,,121.426466,24.990505
大樓,溪州王社區,D104000129,溪福里,新北市板橋區溪福里篤行路三段16號,1.0,611.0,沙崙派出所,,121.428813,24.987404
大樓,中央公園B區社區,D104000130,溪福里,新北市板橋區溪福里篤行路三段77號,1.0,611.0,沙崙派出所,,121.427043,24.985204
大樓,中央公園A區社區,D104000131,溪福里,新北市板橋區溪福里篤行路三段78號,1.0,810.0,沙崙派出所,,121.426542,24.985151
大樓,大樓,D104000132,崑崙里,新北市板橋區崑崙里沙崙街23號,1.0,144.0,沙崙派出所,,121.43143,24.994179
公寓,公寓,D104000134,溪福里,新北市板橋區溪福里金門街365號,1.0,113.0,沙崙派出所,,121.428441,24.984734
公寓,公寓,D104000135,溪福里,新北市板橋區溪福里金門街337巷7弄30號,1.0,107.0,沙崙派出所,,121.430797,24.9853
大樓,觀愛社區,D104000136,崑崙里,新北市板橋區崑崙里沙崙街29號,2.0,3520.0,沙崙派出所,,121.431204,24.994196
公寓,世界公園社區,D104000137,溪福里,新北市板橋區溪福里金門街376號,1.0,127.0,沙崙派出所,,121.42697,24.983856
大樓,麗池花園B社區,D104000138,成和里,新北市板橋區成和里金門街67巷7號,1.0,586.0,沙崙派出所,,121.433574,24.992693
大樓,麗池花園A社區,D104000139,成和里,新北市板橋區成和里金門街51號,1.0,2135.0,沙崙派出所,,121.433405,24.993156
大樓,吉品名家,D104000140,溪福里,新北市板橋區溪福里金門街317巷16號,1.0,961.0,沙崙派出所,,121.430176,24.985566
大樓,麗池花園C社區,D104000141,崑崙里,新北市板橋區崑崙里金門街42號,2.0,1509.0,沙崙派出所,,121.433131,24.993343
大樓,首人尊邸社區,D104000142,溪洲里,新北市板橋區溪洲里溪崑二街108號,2.0,922.0,沙崙派出所,,121.426475,24.988702
大樓,碧瑤麗園社區,D104000143,溪福里,新北市板橋區溪福里溪城路63號,1.0,190.0,沙崙派出所,,121.426451,24.984443
大樓,白宮御花園,D104000144,溪福里,新北市板橋區溪福里金門街297巷27號,2.0,1264.0,沙崙派出所,,121.431452,24.985898
大樓,白宮御花園B區社區,D104000145,溪福里,新北市板橋區溪福里金門街297巷26號,1.0,358.0,沙崙派出所,,121.430774,24.985566
大樓,白宮御花園C區社區,D104000146,溪福里,新北市板橋區溪福里金門街317巷10號,1.0,101.0,沙崙派出所,,121.429977,24.985745
大樓,麗池經典社區,D104000147,成和里,新北市板橋區成和里金門街47巷8號,3.0,2110.0,沙崙派出所,,121.43374,24.993265
大樓,大樓,D104000148,崑崙里,新北市板橋區崑崙里沙崙街15號,1.0,192.0,沙崙派出所,,121.432539,24.994012
沙崙派出所,沙崙派出所,D104000149,堂春里,新北市板橋區堂春里溪北路111號,1.0,238.0,沙崙派出所,,121.43049,24.988496
大樓,金厝社區,D104000150,溪福里,新北市板橋區溪福里金門街369巷73號,1.0,270.0,沙崙派出所,,121.42877,24.983237
大樓,大樓,D104000151,溪福里,新北市板橋區溪福里金門街339-1號,1.0,200.0,沙崙派出所,,121.429244,24.98554
大樓,真情社區,D104000152,崑崙里,新北市板橋區崑崙里大觀路三段150-1號,1.0,648.0,沙崙派出所,,121.431287,24.993788
大樓,全家樂高社區,D104000153,崑崙里,新北市板橋區崑崙里大觀路三段135號,1.0,226.0,沙崙派出所,,121.432401,24.993963
大樓,白宮御花園二期,D104000154,溪福里,新北市板橋區溪福里金門街351-1號,1.0,324.0,沙崙派出所,,121.429048,24.985014
大樓,白宮御花園二期,D104000155,溪福里,新北市板橋區溪福里金門街347-1號,1.0,597.0,沙崙派出所,,121.42916,24.985108
大樓,公園大賞,D104000156,成和里,新北市板橋區成和里金門街153號,2.0,1896.0,沙崙派出所,,121.432706,24.990524
大樓,公園賞社區,D104000157,崑崙里,新北市板橋區崑崙里大觀路三段212巷60號,1.0,649.0,沙崙派出所,,121.430032,24.993283
大樓,臻愛SMART社區,D104000158,溪福里,新北市板橋區溪福里金門街369巷27號,2.0,392.0,沙崙派出所,,121.429027,24.984466
大樓,板橋金城社區,D104000159,溪福里,新北市板橋區溪福里溪城路85號,2.0,561.0,沙崙派出所,,121.42703,24.983495
大樓,大樓,D104000160,溪北里,新北市板橋區溪北里溪崑二街61號,1.0,653.0,沙崙派出所,,121.428236,24.990435
大樓,大樓,D104000161,溪北里,新北市板橋區溪北里溪崑二街57號,1.0,206.0,沙崙派出所,,121.428217,24.990661
大樓,金品尊爵社區,D104000162,堂春里,新北市板橋區堂春里金門街287巷39號,1.0,145.0,沙崙派出所,,121.43279,24.987361
大樓,京安社區,D104000163,溪福里,新北市板橋區溪福里金門街298號,2.0,495.0,沙崙派出所,,121.429067,24.98563
大樓,今銘豪邸社區,D104000164,溪福里,新北市板橋區溪福里金門街306號,2.0,853.0,沙崙派出所,,121.428846,24.985429
大樓,松板大府1期,D104000166,溪福里,新北市板橋區溪福里金門街282號,2.0,1107.0,沙崙派出所,,121.429236,24.986076
大樓,全家好室多社區,D104000167,成和里,新北市板橋區成和里金門街49號,1.0,476.0,沙崙派出所,,121.433527,24.993223
大樓,松坂大府2期,D104000168,溪洲里,新北市板橋區溪洲里滿平街110巷20號,2.0,1002.0,沙崙派出所,,121.427765,24.988054
大樓,松坂大府3期,D104000170,溪福里,新北市板橋區溪福里金門街260巷50號,2.0,801.0,沙崙派出所,,121.428752,24.986174
大樓,青木賞閱青區社區,D104000171,崑崙里,新北市板橋區崑崙里金門街82巷10號,3.0,351.0,沙崙派出所,,121.432768,24.993192
公寓,公寓,D104000175,成和里,新北市板橋區成和里金門街215巷33號,1.0,887.0,沙崙派出所,,121.433117,24.989805
大樓,新月麗都,D104000186,溪北里,新北市板橋區溪北里溪崑一街30巷1號,2.0,437.0,沙崙派出所,,121.429925,24.99102
大樓,青木賞樂青區社區,D104000187,崑崙里,新北市板橋區崑崙里篤行路二段1巷1-5號,2.0,476.0,沙崙派出所,,121.43245,24.993304
大樓,欣岳淳境社區,D104000188,溪福里,新北市板橋區溪福里金門街369巷28號,1.0,601.0,沙崙派出所,,121.428039,24.983389
大樓,公寓,D104000189,崑崙里,新北市板橋區崑崙里存德街95號,1.0,125.0,沙崙派出所,,121.432259,24.991048
大樓,大樓,D104000190,溪北里,新北市板橋區溪北里溪崑二街68號,2.0,139.0,沙崙派出所,,121.42783,24.990369
大樓,華盛頓社區,D104000191,成和里,新北市板橋區成和里莊崑路69號,1.0,2667.0,沙崙派出所,,121.432549,24.999233
大樓,植木賞社區,D104000192,堂春里,新北市板橋區堂春里金門街253巷2弄15號,1.0,339.0,沙崙派出所,,121.432269,24.988173
大樓,青木賞賞青區社區,D104000880,成和里,新北市板橋區成和里金門街79號,1.0,812.0,沙崙派出所,,121.433318,24.99269
大樓,寶捷麗社區,D104000881,溪福里,新北市板橋區溪福里金門街369巷10號,1.0,522.0,沙崙派出所,,121.428914,24.983758
大樓,麗池香榭社區,D104000895,成和里,新北市板橋區成和里金門街67巷28號,1.0,1707.0,沙崙派出所,,121.434199,24.992478
大樓,欣岳逸境,D104000898,溪福里,新北市板橋區溪福里金門街369巷12號,1.0,917.0,沙崙派出所,,121.428679,24.983635
大樓,大樓,D104000900,溪福里,新北市板橋區溪福里篤行路三段17號,1.0,73.0,沙崙派出所,,121.429054,24.987266
大樓,馥麗社區,D104000914,溪福里,新北市板橋區溪福里篤行路三段23號,1.0,198.0,沙崙派出所,,121.428946,24.98711
大樓,遠東新世界社區,D105000045,華東里,新北市板橋區華東里南雅南路二段144巷1-21號,1.0,2263.0,信義派出所,,121.451468,24.996015
大樓,遠東世貿一期,D105000046,華東里,新北市板橋區華東里南雅南路二段142巷9-23號,1.0,475.0,信義派出所,,121.451615,24.997009
公寓,公寓,D105000051,仁愛里,新北市板橋區仁愛里仁愛路49巷19-21號,1.0,46.0,信義派出所,,121.460188,25.000008
公寓,公寓,D105000065,華德里,新北市板橋區華德里四川路二段245巷34號,1.0,513.0,信義派出所,,121.451495,24.992703
公寓,公寓,D105000067,華德里,新北市板橋區華德里四川路245巷19弄1-29號,1.0,1365.0,信義派出所,,121.451258,24.993346
大樓,亞東醫院,D105000077,華東里,新北市板橋區華東里南雅南路二段21號,1.0,3458.0,信義派出所,,121.452312,24.997313
大樓,亞東醫院,D105000080,華東里,新北市板橋區華東里南雅南路二段21號,1.0,1951.0,信義派出所,,121.452312,24.997313
大樓,中華電信,D105000084,重慶里,新北市板橋區重慶里信義路45號,1.0,1244.0,信義派出所,,121.457153,24.996079
大樓,遠揚名家社區,D105000089,華貴里,新北市板橋區華貴里南雅南路二段144巷51-67號,1.0,2316.0,信義派出所,,121.450415,24.995388
大樓,大樓,D105000092,五權里,新北市板橋區五權里和平路182-188號,1.0,518.0,信義派出所,,121.463602,24.995744
大樓,大樓,D105000093,五權里,新北市板橋區五權里和平路190巷2-8號,1.0,841.0,信義派出所,,121.463846,24.995652
大樓,板橋世貿園區社區,D105000094,廣福里,新北市板橋區廣福里信義路163巷161-165號,1.0,4624.0,信義派出所,,121.459852,24.992356
公寓,公寓,D105000095,華東里,新北市板橋區華東里南雅南路二段34巷22號,1.0,146.0,信義派出所,,121.453434,25.003005
公寓,展華精密工業,D105000096,廣福里,新北市板橋區廣福里和平路14巷20-1號,1.0,412.0,信義派出所,,121.461473,24.992404
大樓,大樓,D105000097,廣福里,新北市板橋區廣福里信義路237號,1.0,112.0,信義派出所,,121.460036,24.991106
大樓,豐收季節社區,D105000098,華德里,新北市板橋區華德里四川路二段245巷63號,1.0,797.0,信義派出所,,121.452499,24.9922
大樓,重慶台北住戶社區,D105000099,重慶里,新北市板橋區重慶里國慶路184號,1.0,1374.0,信義派出所,,121.462984,24.996263
公寓,旺族社區,D105000100,廣福里,新北市板橋區廣福里干城路161號,1.0,634.0,信義派出所,,121.460892,24.991983
大樓,甜蜜寶貝社區,D105000101,重慶里,新北市板橋區重慶里重慶路308巷10號,1.0,288.0,信義派出所,,121.463557,24.997832
公寓,板橋郵局郵務大樓,D105000103,重慶里,新北市板橋區重慶里國慶路158巷2號,1.0,1865.0,信義派出所,,121.461828,24.995749
公寓,公寓,D105000104,廣福里,新北市板橋區廣福里信義路115號,1.0,59.0,信義派出所,,121.457734,24.993486
大樓,大樓,D105000105,重慶里,新北市板橋區重慶里國慶路201號,1.0,152.0,信義派出所,,121.46333,24.996926
大樓,生活樂章社區,D105000107,信義里,新北市板橋區信義里信義路38號,1.0,204.0,信義派出所,,121.456942,24.99476
大樓,大樓,D105000108,重慶里,新北市板橋區重慶里國慶路161號,1.0,53.0,信義派出所,,121.461816,24.99621
大樓,藝術學院社區,D105000110,重慶里,新北市板橋區重慶里國慶路170號,1.0,1230.0,信義派出所,,121.462514,24.99615
公寓,公寓,D105000111,重慶里,新北市板橋區重慶里信義路53號,1.0,5035.0,信義派出所,,121.457145,24.995836
大樓,雙冠軍,D105000112,重慶里,新北市板橋區重慶里國慶路213巷13號,1.0,1349.0,信義派出所,,121.46286,24.997072
大樓,青年福利園,D105000113,重慶里,新北市板橋區重慶里國慶路182巷16號,1.0,558.0,信義派出所,,121.463003,24.995966
大樓,大鎮江山社區,D105000119,重慶里,新北市板橋區重慶里國慶路175號,1.0,2700.0,信義派出所,,121.462427,24.996332
大樓,大阪城綠寶石社區,D105000120,華德里,新北市板橋區華德里四川路二段245巷37弄3號,1.0,2050.0,信義派出所,,121.45215,24.993025
大樓,大阪城紅寶石社區,D105000121,華德里,新北市板橋區華德里四川路二段245巷19弄26號,1.0,1340.0,信義派出所,,121.451733,24.993518
大樓,大樓,D105000122,華德里,新北市板橋區華德里四川路二段245巷66號,1.0,325.0,信義派出所,,121.453048,24.991102
大樓,金原工商大吉第,D105000124,廣福里,新北市板橋區廣福里干城路158號,1.0,929.0,信義派出所,,121.46029,24.992272
大樓,大樓,D105000125,廣福里,新北市板橋區廣福里干城路160號,1.0,378.0,信義派出所,,121.460494,24.992034
大樓,鄰家花園社區,D105000126,廣福里,新北市板橋區廣福里廣權路23號,1.0,1161.0,信義派出所,,121.462115,24.991612
公寓,鴻龍社區,D105000127,信義里,新北市板橋區信義里四川路二段1號,1.0,268.0,信義派出所,,121.456543,24.996032
大樓,鴻龍社區,D105000128,信義里,新北市板橋區信義里四川路二段1號,1.0,2029.0,信義派出所,,121.456543,24.996032
大樓,溫莎名園,D105000129,重慶里,新北市板橋區重慶里重慶路346巷5號,1.0,1015.0,信義派出所,,121.463899,24.99711
大樓,信義大亨,D105000130,廣福里,新北市板橋區廣福里廣權路9號,1.0,168.0,信義派出所,,121.460662,24.991445
大樓,皇邸社區,D105000131,華德里,新北市板橋區華德里四川路47巷2號,1.0,503.0,信義派出所,,121.453908,24.995137
大樓,藍寶石社區,D105000132,華德里,新北市板橋區華德里四川路二段123號,1.0,1085.0,信義派出所,,121.451147,24.994016
公寓,親石庭社區,D105000133,華東里,新北市板橋區華東里南雅南路二段4巷26號,1.0,165.0,信義派出所,,121.453436,25.003348
大樓,親石庭社區,D105000134,華東里,新北市板橋區華東里南雅南路二段18號,1.0,204.0,信義派出所,,121.454429,25.00351
大樓,綠亭居,D105000135,廣福里,新北市板橋區廣福里信義路243號,1.0,629.0,信義派出所,,121.460117,24.99108
公寓,榮耀之星,D105000136,廣福里,新北市板橋區廣福里信義路167號,1.0,2631.0,信義派出所,,121.458917,24.992181
大樓,亞東新都廳,D105000137,華東里,新北市板橋區華東里四川路二段98號,1.0,1039.0,信義派出所,,121.450929,24.994437
大樓,遠揚新站,D105000138,華東里,新北市板橋區華東里南雅南路二段27號,1.0,1375.0,信義派出所,,121.451625,24.995099
大樓,信義計劃,D105000139,廣福里,新北市板橋區廣福里信義路235號,1.0,1793.0,信義派出所,,121.459929,24.991202
大樓,亞東科技大學,D105000140,華東里,新北市板橋區華東里四川路二段28號,1.0,3592.0,信義派出所,,121.454158,24.995598
大樓,重慶光點社區,D105000141,重慶里,新北市板橋區重慶里國慶路182巷28號,1.0,1091.0,信義派出所,,121.463073,24.995599
大樓,領袖歐洲威登社區,D105000142,五權里,新北市板橋區五權里五權街30巷37弄2-1號,1.0,1088.0,信義派出所,,121.463347,24.99267
大樓,新站宏築,D105000143,和平里,新北市板橋區和平里廣和街33-2號,1.0,1666.0,信義派出所,,121.463128,24.993832
大樓,捷克的院子,D105000144,和平里,新北市板橋區和平里廣和街92號,1.0,523.0,信義派出所,,121.46233,24.993805
大樓,美捷市社區,D105000145,華東里,新北市板橋區華東里華東街300號,1.0,1420.0,信義派出所,,121.453052,25.002667
大樓,福容麗池社區,D105000146,和平里,新北市板橋區和平里和平路72號,4.0,2570.0,信義派出所,,121.461901,24.994143
大樓,皇翔帝國大廈,D105000147,華德里,新北市板橋區華德里四川路二段247號,1.0,2843.0,信義派出所,,121.450339,24.992971
大樓,公園禮社區,D105000148,信義里,新北市板橋區信義里信義路150巷55號,1.0,753.0,信義派出所,,121.457242,24.991428
大樓,三煇心悅,D105000149,和平里,新北市板橋區和平里和平路51號,1.0,365.0,信義派出所,,121.460881,24.994897
大樓,重慶大戶,D105000150,重慶里,新北市板橋區重慶里國慶路213巷3號,1.0,360.0,信義派出所,,121.463228,24.997215
大樓,勤樸富邑,D105000151,華東里,新北市板橋區華東里南雅南路二段104號,4.0,667.0,信義派出所,,121.453311,25.001245
大樓,和平公園管理中心,D105000152,重慶里,新北市板橋區重慶里重慶路346巷1號,1.0,200.0,信義派出所,,121.464139,24.997057
大樓,麗麒朝陽,D105000153,五權里,新北市板橋區五權里廣權路53號,1.0,324.0,信義派出所,,121.463235,24.99205
大樓,松下雲品,D105000154,重慶里,新北市板橋區重慶里國慶路182巷9號,1.0,218.0,信義派出所,,121.463149,24.996031
大樓,盤郡社區,D105000155,和平里,新北市板橋區和平里和平路49號,1.0,359.0,信義派出所,,121.460541,24.994591
大樓,,D105000156,和平里,新北市板橋區和平里4鄰國慶路60號3樓,1.0,425.0,信義派出所,,121.460322,24.995057
大樓,遠揚之森,D105000157,華東里,新北市板橋區華東里6鄰遠東路72號2樓,1.0,1045.0,信義派出所,,121.453603,25.00065
大樓,停車場,D105000158,華東里,新北市板橋區華東里8鄰高爾富路303號,1.0,2006.0,信義派出所,,121.454515,24.997638
大樓,大樓,D105000521,廣福里,新北市板橋區廣福里干城路142號,1.0,694.0,信義派出所,,121.459481,24.993296
大樓,遠揚加州,D105000879,華東里,新北市板橋區華東里南雅南路二段120號,1.0,4142.0,信義派出所,,121.452641,24.999606
大樓,敦美社區,D105000889,和平里,新北市板橋區和平里國慶路158巷26號,1.0,1333.0,信義派出所,,121.46068,24.995363
大樓,宸園社區,D105000892,信義里,新北市板橋區信義里信義路150巷43-43號,1.0,94.0,信義派出所,,121.457778,24.991702
大樓,新北市政府消防局,D105000893,華東里,新北市板橋區華東里南雅南路二段15號,1.0,1989.0,信義派出所,,121.453934,25.001136
大樓,勝輝築苑,D105000897,五權里,新北市板橋區五權里五權街1-8號,1.0,132.0,信義派出所,,121.463729,24.995174
大樓,亞東醫院,D105000903,華東里,新北市板橋區華東里高爾富路300號,1.0,14312.0,信義派出所,,121.453639,24.99779
大樓,東玥社區,D105000905,華東里,新北市板橋區華東里華東路260號,1.0,801.0,信義派出所,,121.452801,25.001262
大樓,中華電信,D105000911,重慶里,新北市板橋區重慶里信義路83號,3.0,6795.0,信義派出所,,121.457236,24.994135
大樓,家傳社區,D105000912,華東里,新北市板橋區華東里華東路296號,4.0,1547.0,信義派出所,,121.452979,25.0023
大樓,信義樂章,D105000916,信義里,新北市板橋區信義里信義路196號,4.0,636.0,信義派出所,,121.459588,24.991009
