類別,建築物名稱,電腦編號,村里別,地址,"地下樓 層數","可容納 人數",派出所,備註,經度,緯度
公寓,公寓,D601000004,百福里,新北市新店區百福里福園街5巷6號,1,564.0,碧潭派出所,,121.5334,24.97248
公寓,公寓,D601000006,百福里,新北市新店區百福里福園街5巷7號,1,1418.0,碧潭派出所,,121.5338,24.97276
大樓,崇光大廈,D601000007,中華里,新北市新店區中華里三民路31號,1,758.0,碧潭派出所,,121.5379,24.97036
公寓,公寓,D601000009,文明里,新北市新店區文明里檳榔路22巷2號,1,147.0,碧潭派出所,,121.5411,24.96415
公寓,公寓,D601000012,國校里,新北市新店區國校里國校路45號,1,302.0,碧潭派出所,,121.5381,24.95515
大樓,能仁家商,D601000019,文中里,新北市新店區文中里文中路53巷10號,1,291.0,碧潭派出所,,121.5404,24.95692
大樓,中央名仕園,D601000020,福德里,新北市新店區福德里百忍街66巷11號,1,208.0,碧潭派出所,,121.5332,24.97719
公寓,公寓,D601000021,福德里,新北市新店區福德里中正路399巷20號,1,252.0,碧潭派出所,,121.534,24.97684
大樓,名仕大廈,D601000026,新生里,新北市新店區新生里環河路68號,1,649.0,碧潭派出所,,121.5372,24.96293
大樓,啟昇商業大樓,D601000031,新德里,新北市新店區新德里北新路一段351號,1,105.0,碧潭派出所,,121.5418,24.96932
公寓,公寓,D601000033,張北里,新北市新店區張北里中興路二段121巷1號,1,377.0,碧潭派出所,,121.5473,24.97235
公寓,公寓,D601000038,五峰里,新北市新店區五峰里五峰路61巷5號,1,812.0,碧潭派出所,,121.5488,24.96974
大樓,新店中正閱覽室,D601000039,中正里,新北市新店區中正里中正路275巷17號之1,1,145.0,碧潭派出所,,121.5372,24.9735
大樓,星殿社區,D601000040,國校里,新北市新店區國校里國校路49巷112號,1、2,1946.0,碧潭派出所,,121.5386,24.95489
大樓,捷運新廈,D601000041,文明里,新北市新店區文明里光明街140號,1,246.0,碧潭派出所,,121.5394,24.96141
大樓,富仕名廈,D601000042,新生里,新北市新店區新生里環河路12號,1,474.0,碧潭派出所,,121.5381,24.96194
大樓,華廈,D601000051,國校里,新北市新店區國校里北宜路一段80號,1,210.0,碧潭派出所,,121.5385,24.95568
大樓,中正國宅,D601000052,中正里,新北市新店區中正里中正路265巷2-14號,1,905.0,碧潭派出所,,121.538,24.97391
大樓,華廈,D601000054,新德里,新北市新店區新德里中華路53號,1,156.0,碧潭派出所,,121.5399,24.96794
大樓,新店國小,D601000055,國校里,新北市新店區國校里國校路67號,1,521.0,碧潭派出所,,121.5388,24.95331
大樓,嘉新林園大樓,D601000056,中興里,新北市新店區中興里中興路一段302號,2,749.0,碧潭派出所,,121.54642,24.9697003
大樓,國民黨黨部大樓,D601000057,五峰里,新北市新店區五峰里中正路37號,1,164.0,碧潭派出所,不張貼標誌牌,,
大樓,法務部調查局,D601000058,中華里,新北市新店區中華里中華路125號,2,1456.0,碧潭派出所,不張貼標誌牌,,
大樓,中興金典,D601000059,中興里,新北市新店區中興里中興路一段289號,1,236.0,碧潭派出所,,121.5454,24.9689
大樓,維多利亞大廈,D601000060,中正里,新北市新店區中正里三民路2號,1,693.0,碧潭派出所,,121.5397,24.97259
大樓,北新花園大廈,D601000061,張北里,新北市新店區張北里德正街27巷22-26號,1、2,951.0,碧潭派出所,,121.5453,24.97125
大樓,碧園華廈,D601000062,新店里,新北市新店區新店里新店路192號,1,370.0,碧潭派出所,,121.5372,24.95617
大樓,大樓,D601000063,新店里,新北市新店區新店里新店路82號,1,55.0,碧潭派出所,,121.5373,24.95404
大樓,華廈,D601000065,國校里,新北市新店區國校里國校路69號,1,247.0,碧潭派出所,,121.5387,24.95275
大樓,大樓,D601000066,新店里,新北市新店區新店里新店路66號,1,149.0,碧潭派出所,,121.5374,24.95371
大樓,大樓,D601000067,新店里,新北市新店區新店里新店路70號,1,106.0,碧潭派出所,,121.5374,24.95381
大樓,華廈,D601000068,新店里,新北市新店區新店里新店後街52-54號,1,143.0,碧潭派出所,,121.5378,24.9539
大樓,大樓,D601000069,新店里,新北市新店區新店里新店路155號,1,68.0,碧潭派出所,,121.537,24.95504
大樓,名家二期,D601000070,福民里,新北市新店區福民里中央路107號,1,1150.0,碧潭派出所,,121.53099,24.974656
大樓,藍天大地,D601000071,長春里,新北市新店區長春里新坡一街82號,2,1446.0,碧潭派出所,,121.5484,24.9626
大樓,大樓,D601000072,建國里,新北市新店區建國里中正路280巷5號,1,99.0,碧潭派出所,,121.5392,24.97449
大樓,總棧大廈,D601000073,張南里,新北市新店區張南里北宜路一段60-72號,1,652.0,碧潭派出所,,121.5383,24.95617
大樓,涵煙翠,D601000074,長春里,新北市新店區長春里新坡一街101號,1,2308.0,碧潭派出所,,121.5476,24.96276
大樓,電捷新境大樓,D601000075,文中里,新北市新店區文中里文中路40號,1,466.0,碧潭派出所,,121.5398,24.95645
大樓,東坡小雅,D601000076,長春里,新北市新店區長春里新坡一街1號,1,2993.0,碧潭派出所,,121.5492,24.96247
大樓,華廈,D601000077,百和里,新北市新店區百和里中正路418巷4號,1,127.0,碧潭派出所,,121.5346,24.97798
大樓,法務部調查局,D601000078,中正里,新北市新店區中正里中華路74號,1,4131.0,碧潭派出所,不張貼標誌牌,,
大樓,大樓,D601000079,建國里,新北市新店區建國里中正路284巷4弄3號之6,1,170.0,碧潭派出所,,121.5384,24.97482
大樓,台北國際學舍,D601000080,長春里,新北市新店區長春里新坡一街102號,2,644.0,碧潭派出所,,121.5486,24.96353
大樓,馬公友誼運動公園,D601000082,新生里,新北市新店區新生里北新路一段92號,2,4657.0,碧潭派出所,,121.5425,24.96857
大樓,大樓,D601000083,國校里,新北市新店區國校里國校路75號,2,156.0,碧潭派出所,,121.5387,24.95243
大樓,大樓,D601000084,文中里,新北市新店區文中里北宜路一段105巷4弄5號,1,438.0,碧潭派出所,,121.5401,24.95554
大樓,萊茵河畔,D601000085,新生里,新北市新店區新生里環河路60號,1,351.0,碧潭派出所,,121.5371,24.9626
大樓,中興花都,D601000086,中興里,新北市新店區中興里中興路一段267號之1,1,315.0,碧潭派出所,,121.544974,24.967919
大樓,儷園,D601000088,五峰里,新北市新店區五峰里五峰路61巷16號,1,321.0,碧潭派出所,,121.5491,24.96942
大樓,中正雅築,D601000089,福德里,新北市新店區福德里中正路409巷1號,1,86.0,碧潭派出所,,121.5341,24.97744
大樓,山水儷園,D601000090,新店里,新北市新店區新店里新店後街6號之1,1,201.0,碧潭派出所,,121.5381,24.95296
大樓,國家名人巷,D601000091,福民里,新北市新店區福民里中央路139巷2弄1號,2,638.0,碧潭派出所,,121.5305,24.97325
大樓,大樓,D601000092,百和里,新北市新店區百和里中正路418巷26號,1,83.0,碧潭派出所,,121.535,24.97853
大樓,中華傑座,D601000093,新德里,新北市新店區新德里中華路3號,2,581.0,碧潭派出所,,121.5408,24.9673
大樓,雄霸雙星,D601000095,百和里,新北市新店區百和里中正路434號,4,1543.0,碧潭派出所,,121.5343,24.97825
大樓,國家名人巷,D601000096,福民里,新北市新店區福民里中央路127巷4號,2,446.0,碧潭派出所,,121.5308,24.97388
大樓,大樓,D601000098,新店里,新北市新店區新店里新店路159號,1,269.0,碧潭派出所,,121.537,24.95525
大樓,大樓,D601000100,新店里,新北市新店區新店里新店路62號,1,138.0,碧潭派出所,,121.5374,24.95361
大樓,春池吉品,D601000101,中興里,新北市新店區中興里中興路一段266號之1,2,1061.0,碧潭派出所,,121.54501,24.967389
大樓,大樓,D601000102,新店里,新北市新店區新店里新店路118號之8,1,187.0,碧潭派出所,,121.5372,24.95482
大樓,國家名人巷,D601000103,福民里,新北市新店區福民里中央路127巷1號,3,1495.0,碧潭派出所,,121.5309,24.97399
大樓,大樓,D601000104,五峰里,新北市新店區五峰里大新街7巷23號,1,151.0,碧潭派出所,,121.5443,24.9679
大樓,新城市,D601000106,國校里,新北市新店區國校里北宜路一段164號,2,254.0,碧潭派出所,,121.5404,24.9533
大樓,耕莘護專,D601000107,百和里,新北市新店區百和里民族路112號,1,1587.0,碧潭派出所,,121.5355,24.97615
大樓,捷運首席,D601000109,文中里,新北市新店區文中里北宜路一段107號之1,2,487.0,碧潭派出所,,121.5394,24.95524
大樓,中央新春,D601000110,福德里,新北市新店區福德里中央路45號,2,631.0,碧潭派出所,,121.5329,24.97752
大樓,凱薩我家社區,D601000111,中興里,新北市新店區中興里中興路一段168號,2,242.0,碧潭派出所,,121.5429,24.9643
大樓,大樓,D601000112,新店里,新北市新店區新店里新店路129號,2,119.0,碧潭派出所,,121.5371,24.95442
大樓,大樓,D601000114,中興里,新北市新店區中興里檳榔路5巷6號,1,106.0,碧潭派出所,,121.5413,24.96506
大樓,大樓,D601000115,建國里,新北市新店區建國里中正路284巷4弄1號,1,135.0,碧潭派出所,,121.5383,24.97487
大樓,大廈,D601000116,廣明里,新北市新店區廣明里光明街112號,1,252.0,碧潭派出所,,121.5391,24.96074
大樓,中興豪邸,D601000117,文明里,新北市新店區文明里中興路一段105號,1,270.0,碧潭派出所,,121.5411,24.96251
大樓,臨潭樓,D601000119,國校里,新北市新店區國校里國校路82號,1,435.0,碧潭派出所,,121.5386,24.95274
大樓,新店家事法院,D601000120,中興里,新北市新店區中興里中興路一段248號,1,1356.0,碧潭派出所,,121.544604,24.966167
大樓,三民停車場,D601000121,中正里,新北市新店區中正里三民路20號之1,1、2,2844.0,碧潭派出所,,121.5373,24.97091
大樓,華廈,D601000122,新店里,新北市新店區新店里新店後街47號,1,154.0,碧潭派出所,,121.5375,24.95462
大樓,柏園南棟大樓,D601000123,新生里,新北市新店區新生里北新路一段145號,2,318.0,碧潭派出所,,121.5396,24.96339
公寓,文山國中,D601000124,文中里,新北市新店區文中里文中路38號,1,607.0,碧潭派出所,,121.5392,24.95675
大樓,柏園北棟大樓,D601000125,新生里,新北市新店區新生里北新路一段157號,2,432.0,碧潭派出所,,121.5397,24.96367
大樓,天闊,D601000126,新生里,新北市新店區新生里環河路14號,3,3179.0,碧潭派出所,,121.5377,24.96181
大樓,福華天廈,D601000127,中興里,新北市新店區中興里北新路一段10號,3,949.0,碧潭派出所,,121.5409,24.9654
大樓,潤泰遠景,D601000128,中興里,新北市新店區中興里中興路一段181號,2,2083.0,碧潭派出所,,121.543,24.9649
大樓,大樓,D601000129,五峰里,新北市新店區五峰里中興路一段285號,1,278.0,碧潭派出所,,121.5453,24.96862
大樓,棟樑商業大樓,D601000130,張南里,新北市新店區張南里北新路一段89號,3,307.0,碧潭派出所,,121.5385,24.96132
大樓,愛兒兒童發展中心,D601000131,中正里,新北市新店區中正里中正路263巷16號,1,328.0,碧潭派出所,,121.538,24.97292
大樓,現代啟示,D601000132,中興里,新北市新店區中興里中興路一段282號,3,1652.0,碧潭派出所,,121.544,24.9656
大樓,大樓,D601000133,福德里,新北市新店區福德里中央路63號,2,267.0,碧潭派出所,,121.5327,24.97704
大樓,新店高中(教室),D601000134,福民里,新北市新店區福民里中央路93號,1,1364.0,碧潭派出所,,121.5318,24.97561
大樓,同泰大庭園,D601000135,張南里,新北市新店區張南里環河路19巷8號,1,133.0,碧潭派出所,,121.5373,24.96082
大樓,大樓,D601000136,新店里,新北市新店區新店里新店路139號,1,80.0,碧潭派出所,,121.537,24.95467
大樓,蒲陽世家,D601000137,仁愛里,新北市新店區仁愛里北新路2段29巷2弄2號,1,439.0,碧潭派出所,,121.5423,24.9728
大樓,啟昇貴築,D601000139,中興里,新北市新店區中興里行政街43號,3,850.0,碧潭派出所,,121.5432,24.96571
大樓,北新國小,D601000140,張北里,新北市新店區張北里寶橋路8號,1,1395.0,碧潭派出所,,121.5439,24.97371
大樓,康和儷舍,D601000141,百和里,新北市新店區百和里中正路360號,2,947.0,碧潭派出所,,121.5356,24.97589
大樓,歐堡庭苑,D601000142,文中里,新北市新店區文中里北宜路一段111號,3,765.0,碧潭派出所,,121.5401,24.95462
大樓,鼎新電腦,D601000143,五峰里,新北市新店區五峰里中興路一段222號,3,725.0,碧潭派出所,,121.544297,24.966024
大樓,薪寶商業大樓,D601000144,張北里,新北市新店區張北里寶橋路48號,2,583.0,碧潭派出所,,121.5453,24.97473
大樓,中正吉品,D601000145,中正里,新北市新店區中正里中正路263巷18號,1,433.0,碧潭派出所,,121.538,24.97278
大樓,中正國小,D601000146,中正里,新北市新店區中正里三民路36號,1,433.0,碧潭派出所,,121.5366,24.97174
大樓,市中座,D601000147,福德里,新北市新店區福德里百忍街19號,1,431.0,碧潭派出所,,121.534,24.97558
大樓,文藝中興光明大廈,D601000148,中興里,新北市新店區中興里中興路一段159號,3,538.0,碧潭派出所,,121.5424,24.96416
大樓,文藝中興,D601000149,中興里,新北市新店區中興里中興路一段156號,3,791.0,碧潭派出所,,121.5426,24.96387
大樓,TR大道,D601000150,國校里,新北市新店區國校里北宜路一段121號,3,1068.0,碧潭派出所,,121.5404,24.95395
大樓,群星會,D601000151,張北里,新北市新店區張北里寶橋路66號,2,1973.0,碧潭派出所,,121.5458,24.9748
大樓,大樓,D601000152,百和里,新北市新店區百和里中正路328巷9號,1,95.0,碧潭派出所,,121.5373,24.97545
大樓,五峰國中,D601000153,五峰里,新北市新店區五峰里中興路一段253號,1,619.0,碧潭派出所,,121.544,24.96638
大樓,如意園,D601000154,福德里,新北市新店區福德里百忍街46號,1,184.0,碧潭派出所,,121.5335,24.976
大樓,耕莘醫院,D601000155,百和里,新北市新店區百和里中正路362號,2,1301.0,碧潭派出所,不張貼標誌牌,,
大樓,都會通,D601000156,新德里,新北市新店區新德里北新路一段293號,4,736.0,碧潭派出所,,121.5412,24.96755
大樓,大佳園,D601000157,福德里,新北市新店區福德里百忍街50巷2弄1號,2,1676.0,碧潭派出所,,121.5336,24.97622
大樓,立法院檔案典藏館,D601000158,中華里,新北市新店區中華里力行路100號,1,656.0,碧潭派出所,,121.5383,24.96725
大樓,如意園,D601000159,百和里,新北市新店區百和里中正路328巷27-29號,1,255.0,碧潭派出所,,121.5376,24.97589
大樓,大樓,D601000160,文明里,新北市新店區文明里中興路一段93-95號,1,144.0,碧潭派出所,,121.5409,24.96216
大樓,水雲間,D601000161,國校里,新北市新店區國校里北宜路一段143號,2,207.0,碧潭派出所,,121.5412,24.95307
大樓,司法院檔案大樓,D601000162,五峰里,新北市新店區五峰里大新街1號,1,439.0,碧潭派出所,,121.5437,24.96889
大樓,裕文花園,D601000163,張北里,新北市新店區張北里寶橋路78巷2號,2,402.0,碧潭派出所,,121.547,24.97472
大樓,大樓,D601000164,新店里,新北市新店區新店里新店路121號,1,61.0,碧潭派出所,,121.5371,24.95422
大樓,潭星,D601000165,文中里,新北市新店區文中里能仁路16號,1,185.0,碧潭派出所,,121.5406,24.95538
大樓,雙重奏,D601000166,中興里,新北市新店區中興里中興路一段140號,1,331.0,碧潭派出所,,121.5424,24.96363
大樓,大樓,D601000167,新店里,新北市新店區新店里新店路123號,1,97.0,碧潭派出所,,121.5371,24.95428
大樓,涵碧賞,D601000168,新店里,新北市新店區新店里新店路135號,1,166.0,碧潭派出所,,121.537,24.95452
大樓,青景澤,D601000169,文中里,新北市新店區文中里北宜路一段105巷2號,2,308.0,碧潭派出所,,121.5394,24.95532
大樓,陽光樂活,D601000170,五峰里,新北市新店區五峰里五峰路129號,1,788.0,碧潭派出所,,121.5449,24.9661
大樓,尊榮皇家,D601000171,五峰里,新北市新店區五峰里大新街7巷21號,1,129.0,碧潭派出所,,121.5442,24.96796
大樓,新店高中(活動中心),D601000172,福民里,新北市新店區福民里中央路93號,1,1262.0,碧潭派出所,,121.5318,24.97561
大樓,大樓,D601000173,新店里,新北市新店區新店里新店路158號,1,171.0,碧潭派出所,,121.5373,24.95553
大樓,捷運HOYA大廈,D601000174,新德里,新北市新店區新德里北新路一段297巷10號,2,153.0,碧潭派出所,,121.541,24.96778
大樓,新店基督長老教會,D601000175,國校里,新北市新店區國校里國校路22號,1,283.0,碧潭派出所,,121.5378,24.95494
大樓,霞飛大廈,D601000176,新生里,新北市新店區新生里北新路一段271巷45號,2,431.0,碧潭派出所,,121.5395,24.96737
大樓,中正川普大樓,D601000177,建國里,新北市新店區建國里中正路280巷21號,3,1582.0,碧潭派出所,,121.5392,24.97466
大樓,碧潭臻堡,D601000178,新店里,新北市新店區新店里新店後街63號,1,50.0,碧潭派出所,,121.5375,24.95509
大樓,科芬園,D601000179,百忍里,新北市新店區百忍里中正路307巷15號,3,764.0,碧潭派出所,,121.536,24.97368
大樓,愛上碧潭,D601000180,文中里,新北市新店區文中里北宜路一段105巷4弄2號之1,2,272.0,碧潭派出所,,121.54,24.95536
大樓,園上園,D601000181,張北里,新北市新店區張北里中興路二段123號,2,1946.0,碧潭派出所,,121.5475,24.97291
大樓,碧潭有約,D601000182,張南里,新北市新店區張南里新店路256號,1,10293.0,碧潭派出所,,121.5373,24.95714
公寓,公寓,D601000183,中正里,新北市新店區中正里三民路11號,2,656.0,碧潭派出所,,121.54,24.9723
大樓,松漢大雅,D601000184,中興里,新北市新店區中興里北新路1段2號,3,597.0,碧潭派出所,,121.5408,24.9652
大樓,大樓,D601000185,中華里,新北市新店區中華里中華路49號,1,152.0,碧潭派出所,,121.5393,24.96879
大樓,三和苑,D601000186,中正里,新北市新店區中正里中正路225號,1,887.0,碧潭派出所,,121.5395,24.97299
大樓,霞飛大道,D601000187,新生里,新北市新店區新生里北新路一段271巷37號,1,422.0,碧潭派出所,,121.5397,24.9672
大樓,碧潭星光大樓,D601000188,新店里,新北市新店區新店里新店路190號,1,140.0,碧潭派出所,,121.5372,24.95612
大樓,大樓,D601000189,廣明里,新北市新店區廣明里中興路一段59號,1,92.0,碧潭派出所,,121.54,24.96073
大樓,長虹峰華,D601000190,五峰里,新北市新店區五峰里中正路75巷71號,1,673.0,碧潭派出所,,121.5432,24.9691
大樓,養心殿,D601000191,五峰里,新北市新店區五峰里北新路一段96巷21號,1,977.0,碧潭派出所,,121.5427,24.96897
大樓,崇光女中,D601000192,中正里,新北市新店區中正里三民路18號,1,1271.0,碧潭派出所,,121.5391,24.97177
大樓,碧潭捷市,D601000193,廣明里,新北市新店區廣明里北新路一段2號之18,1,175.0,碧潭派出所,,121.5386,24.96008
大樓,美河市,D601000194,福民里,新北市新店區福民里中央路153號,1,38566.0,碧潭派出所,,121.5299,24.97297
大樓,山河院,D601000195,廣明里,新北市新店區廣明里中興路一段48號,1,308.0,碧潭派出所,,121.5391,24.95925
大樓,碧潭國璽,D601000196,廣明里,新北市新店區廣明里中興路一段12號,1,777.0,碧潭派出所,,121.5385,24.95793
大樓,御藏,D601000197,五峰里,新北市新店區五峰里大新街7巷19號,1,111.0,碧潭派出所,,121.544,24.96802
大樓,小惠國,D601000198,張北里,新北市新店區張北里中興路2段99巷2號,1,58.0,碧潭派出所,,121.5467,24.97208
大樓,大樓,D601000199,新德里,新北市新店區新德里中華路47巷2弄15號,1,171.0,碧潭派出所,,121.5392,24.96807
大樓,玉上園,D601000200,張北里,新北市新店區張北里寶橋路78巷10號,1,4782.0,碧潭派出所,,121.5472,24.97428
大樓,廣乙星城,D601000201,中興里,新北市新店區中興里檳榔路53巷2號,1,861.0,碧潭派出所,,121.5434,24.9631
大樓,名水漾,D601000202,張南里,新北市新店區張南里環河路1號之1,1,357.0,碧潭派出所,,121.5381,24.96137
大樓,美麗殿,D601000203,五峰里,新北市新店區五峰里北新路一段126巷21號,1,716.0,碧潭派出所,,121.5434,24.96946
大樓,大樓,D601000204,新店里,新北市新店區新店里新店路162號,1,169.0,碧潭派出所,,121.5372,24.95558
大樓,大樓,D601000205,百和里,新北市新店區百和里中正路418巷18號,1,32.0,碧潭派出所,,121.5348,24.97831
大樓,新店地區農會,D601000206,廣明里,新北市新店區廣明里光明街98號之1,1,346.0,碧潭派出所,不張貼標誌牌,,
大樓,碧潭之丘,D601000207,文中里,新北市新店區文中里能仁路12號,1,120.0,碧潭派出所,,121.5406,24.95552
大樓,舞立方,D601000208,中正里,新北市新店區中正里中正路247巷25弄7號,1,101.0,碧潭派出所,,121.5389,24.97246
大樓,極麗社區,D601000209,國校里,新北市新店區國校里北宜路一段76號,1,346.0,碧潭派出所,,121.5385,24.95576
大樓,吉美君品,D601000210,五峰里,新北市新店區五峰里中正路67號,1,719.0,碧潭派出所,,121.5439,24.96993
大樓,中華聖母堂,D601000211,福德里,新北市新店區福德里中正路367號,1,343.0,碧潭派出所,,121.5348,24.97639
大樓,新店消防分隊,D601000212,五峰里,新北市新店區五峰里北新路一段98號,1,345.0,碧潭派出所,,121.5422,24.96911
大樓,碧潭新境,D601000213,文中里,新北市新店區文中里北宜路一段39巷27號,1,173.0,碧潭派出所,,121.5395,24.95811
大樓,協之達,D601000214,中正里,新北市新店區中正里中正路409巷50號,1,58.0,碧潭派出所,,121.5375,24.97432
大樓,國泰雙璽,D601000215,文明里,新北市新店區文明里光明街226號,1,1409.0,碧潭派出所,,121.5402,24.96314
大樓,碧潭水悅,D601000216,新店里,新北市新店區新店里新店路128號,1,149.0,碧潭派出所,,121.5372,24.95508
大樓,百景,D601000217,五峰里,新北市新店區五峰里北新路一段100號,1,464.0,碧潭派出所,,121.5423,24.9693
大樓,巴黎皇宮,D601000218,張北里,新北市新店區張北里中興路二段37-53號,1,965.0,碧潭派出所,,121.5461,24.96992
大樓,圓頂社區,D601000219,張北里,新北市新店區張北里中興路二段147號,1,1239.0,碧潭派出所,,121.5476,24.97263
大樓,北新官邸,D601000220,五峰里,新北市新店區五峰里北新路一段128號,1,756.0,碧潭派出所,,121.5425,24.96993
大樓,富琚大樓,D601000221,新德里,新北市新店區新德里中華路41號,1,255.0,碧潭派出所,,121.5402,24.96768
大樓,琢青住商大廈,D601000222,五峰里,新北市新店區五峰里北新路一段136號,1,1377.0,碧潭派出所,,121.5427,24.97032
大樓,寶穩安邸,D601000225,仁愛里,新北市新店區仁愛里北新路二段27之3號,1,134.0,碧潭派出所,,121.5428,24.97218
大樓,法樂社區,D601000226,張北里,新北市新店區張北里中興路二段31巷16號,1,842.0,碧潭派出所,,121.5457,24.97005
大樓,美力社區,D601000227,中興里,新北市新店區中興里北新路一段64巷41號,1,138.0,碧潭派出所,,121.5423,24.96563
大樓,捷運楓華大樓,D601000228,新德里,新北市新店區新德里中華路22號,1,405.0,碧潭派出所,,121.5404,24.96775
大樓,一間,D601000229,五峰里,新北市新店區五峰里五峰路120號,1,92.0,碧潭派出所,,121.545,24.96652
大樓,W太子,D601000230,五峰里,新北市新店區五峰里北新路一段108號,1,359.0,碧潭派出所,,121.5423,24.96961
大樓,新店行政園區,D601000231,中興里,新北市新店區中興里北新路一段82號,2,4055.0,碧潭派出所,,121.5416,24.96754
大樓,晶璽社區,D601000232,文明里,新北市新店區文明里檳榔路22號,1,127.0,碧潭派出所,,121.5413,24.96415
大樓,微笑碧潭,D601000233,文中里,新北市新店區文中里文中路58號,1,190.0,碧潭派出所,,121.5403,24.95649
大樓,友座紳鄰,D601000234,中華里,新北市新店區中華里三民路63號,2,703.0,碧潭派出所,,121.5364,24.97116
大樓,怡廬,D601000235,五峰里,新北市新店區五峰里24鄰五峰路89號,1,81.0,碧潭派出所,,121.5463,24.96733
大樓,日日和,D601000236,仁愛里,新北市新店區仁愛里建國路16號,2,104.0,碧潭派出所,,121.5402,24.97375
大樓,鼎隆江晏,D601000237,廣明里,新北市新店區廣明里光明街138巷8號,4,450.0,碧潭派出所,,121.5398,24.96115
大樓,鼎新電腦,D601000238,五峰里,新北市新店區中興路一段222之1號,3,289.0,碧潭派出所,,121.5442,24.966146
公寓,公寓,D602000008,國豐里,新北市新店區國豐里明德路71號之1,1,78.0,江陵派出所,,121.5414,24.97765
大樓,大豐國小,D602000010,大豐里,新北市新店區大豐里民族路108號,1,292.0,江陵派出所,,121.5382,24.97758
公寓,公寓,D602000019,國豐里,新北市新店區國豐里建安街44號之2,1,121.0,江陵派出所,,121.5393,24.9757
公寓,公寓,D602000027,國豐里,新北市新店區國豐里建興街4號,1,43.0,江陵派出所,,121.5401,24.97656
公寓,公寓,D602000028,國豐里,新北市新店區國豐里建國路97巷24號,1,43.0,江陵派出所,,121.5393,24.97736
大樓,公寓,D602000036,忠誠里,新北市新店區忠誠里北新路二段139巷9號之1,1,32.0,江陵派出所,,121.5421,24.9756
大樓,華廈,D602000039,大同里,新北市新店區大同里二十張路33巷5-9號,1,443.0,江陵派出所,,121.5387,24.98152
大樓,日安台北,D602000043,寶興里,新北市新店區寶興里中興路三段134-138號,3,6621.0,江陵派出所,,121.5449,24.97977
大樓,華廈,D602000044,大豐里,新北市新店區大豐里二十張路129巷2弄2號,2,652.0,江陵派出所,,121.536,24.9789
大樓,今皓實業股份有限公司,D602000045,寶福里,新北市新店區寶福里寶興路53號,1,735.0,江陵派出所,,121.5498,24.9728
大樓,寶中大廈,D602000046,寶福里,新北市新店區寶福里寶中路121-137號,1,803.0,江陵派出所,,121.5497,24.9795
大樓,台北公館,D602000047,信義里,新北市新店區信義里復興路10號之1,2,556.0,江陵派出所,,121.5402,24.98687
大樓,江陵京都,D602000048,江陵里,新北市新店區江陵里二十張路40-46號之1,2,1706.0,江陵派出所,,121.5375,24.98094
大樓,香奈爾大廈,D602000049,信義里,新北市新店區信義里順安街75號,1,227.0,江陵派出所,,121.5407,24.98696
大樓,華廈,D602000050,大同里,新北市新店區大同里大豐路26-28號,1,222.0,江陵派出所,,121.5406,24.98011
大樓,華廈,D602000052,中央里,新北市新店區中央里中央路196-198號,1,236.0,江陵派出所,,121.5307,24.97461
大樓,華廈,D602000054,國豐里,新北市新店區國豐里建國路97巷23號,1,154.0,江陵派出所,,121.539,24.97701
大樓,富園華廈,D602000055,江陵里,新北市新店區江陵里民權路127巷1號,2,1491.0,江陵派出所,,121.5354,24.98189
大樓,極景大廈,D602000056,寶興里,新北市新店區寶興里北新路二段230號,2,165.0,江陵派出所,,121.544,24.9776
大樓,華廈,D602000057,中央里,新北市新店區中央里中央三街54號,1,82.0,江陵派出所,,121.5273,24.97463
大樓,華廈,D602000058,中央里,新北市新店區中央里中央三街58號,1,90.0,江陵派出所,,121.5271,24.97476
大樓,中央浸信會,D602000059,中央里,新北市新店區中央里中央三街15號,1,147.0,江陵派出所,,121.5292,24.97374
大樓,雙興天廈,D602000060,信義里,新北市新店區信義里寶慶街37號,1,307.0,江陵派出所,,121.543,24.98655
大樓,華廈,D602000062,大豐里,新北市新店區大豐里建國路217號,2,182.0,江陵派出所,,121.5376,24.98081
大樓,佳典星鑽,D602000063,明德里,新北市新店區明德里民族路48巷4號,1,272.0,江陵派出所,,121.5402,24.97921
大樓,忠孝新城,D602000064,忠孝里,新北市新店區忠孝里中正路680巷1號,2,3599.0,江陵派出所,,121.5344,24.98999
大樓,華廈,D602000065,寶興里,新北市新店區寶興里寶橋路69號,1,136.0,江陵派出所,,121.545336,24.975396
大樓,華廈,D602000066,忠孝里,新北市新店區忠孝里中正路663巷1弄17號,1,263.0,江陵派出所,,121.5327,24.98967
大樓,民族雅園,D602000067,明德里,新北市新店區明德里民族路47號,2,468.0,江陵派出所,,121.5404,24.97856
大樓,一品門第,D602000068,大豐里,新北市新店區大豐里建國路164號,2,213.0,江陵派出所,,121.5385,24.97953
大樓,極景藍區,D602000069,寶興里,新北市新店區寶興里北新路二段252號,3,4757.0,江陵派出所,,121.5429,24.97801
大樓,江陵資訊大樓,D602000070,復興里,新北市新店區復興里民權路96號,3,2103.0,江陵派出所,,121.5366,24.98303
大樓,捷運新公館,D602000071,信義里,新北市新店區信義里中興路三段227號,3,908.0,江陵派出所,,121.543,24.98329
大樓,康軒文教事業股份有限公司,D602000072,寶福里,新北市新店區寶福里中興路二段218巷11號,1,1393.0,江陵派出所,,121.5489,24.97514
大樓,華廈,D602000073,信義里,新北市新店區信義里中興路三段237號,1,330.0,江陵派出所,,121.5428,24.98364
大樓,信園大廈,D602000075,江陵里,新北市新店區江陵里建國路219號之1,2,229.0,江陵派出所,,121.5376,24.98101
大樓,中正大道,D602000076,復興里,新北市新店區復興里中正路619號,2,406.0,江陵派出所,,121.534,24.98776
大樓,富綠地,D602000077,忠孝里,新北市新店區忠孝里中正路680巷51弄11號,1,431.0,江陵派出所,,121.5352,24.98946
大樓,大豐國小,D602000078,大豐里,新北市新店區大豐里民族路108號,1,187.0,江陵派出所,,121.5382,24.97758
大樓,甜蜜一生華廈,D602000079,明德里,新北市新店區明德里建國路148號,1,188.0,江陵派出所,,121.5389,24.97912
大樓,新店感應,D602000080,忠誠里,新北市新店區忠誠里北新路二段97巷10弄1號,2,2241.0,江陵派出所,,121.5421,24.97459
大樓,大樓,D602000081,大同里,新北市新店區大同里二十張路33巷2弄2號,2,607.0,江陵派出所,,121.5387,24.98152
大樓,全球贏家科技中心,D602000082,寶福里,新北市新店區寶福里寶中路119號,2,1201.0,江陵派出所,,121.5495,24.97983
大樓,白聖紀念大樓,D602000083,寶福里,新北市新店區寶福里中興路二段186號,3,768.0,江陵派出所,,121.5482,24.97265
大樓,聯府御庭,D602000084,大豐里,新北市新店區大豐里建國路209號,2,243.0,江陵派出所,,121.5376,24.98032
大樓,大樓,D602000085,寶安里,新北市新店區寶安里北新路三段106號,1,172.0,江陵派出所,,121.5418,24.98132
大樓,台灣科技總部,D602000086,寶福里,新北市新店區寶福里中興路二段190號,3,1822.0,江陵派出所,,121.5485,24.9731
大樓,日安雅族NO2,D602000087,大同里,新北市新店區大同里二十張路33巷2弄1號,2,385.0,江陵派出所,,121.5387,24.98152
大樓,大樓,D602000088,寶安里,新北市新店區寶安里北新路三段104號,1,74.0,江陵派出所,,121.5419,24.9812
大樓,華廈,D602000089,中央里,新北市新店區中央里中央三街73號,1,100.0,江陵派出所,,121.5264,24.97542
大樓,華廈,D602000090,中央里,新北市新店區中央里中央三街81號,1,100.0,江陵派出所,,121.5261,24.97559
大樓,中央容園,D602000091,中央里,新北市新店區中央里中央四街28號,1,225.0,江陵派出所,,121.5288,24.97424
大樓,捷運天下,D602000092,寶安里,新北市新店區寶安里北新路3段202號,2,194.0,江陵派出所,,121.5413,24.98413
大樓,華廈,D602000093,中央里,新北市新店區中央里中央三街42號,1,100.0,江陵派出所,,121.5277,24.9743
大樓,華廈,D602000094,大豐里,新北市新店區大豐里建國路183號,1,65.0,江陵派出所,,121.5381,24.97954
大樓,中央誠品,D602000095,中央里,新北市新店區中央里中央五街30號,1,122.0,江陵派出所,,121.5288,24.9747
大樓,中央新都,D602000097,中央里,新北市新店區中央里中央三街60號,1,207.0,江陵派出所,,121.527,24.97481
大樓,大樓,D602000098,寶福里,新北市新店區寶福里寶高路120巷1號,1,146.0,江陵派出所,,121.5546,24.97603
大樓,南強工商(辦公室),D602000099,寶安里,新北市新店區寶安里文化路42號,1,398.0,江陵派出所,,121.5448,24.98116
大樓,大樓,D602000100,大豐里,新北市新店區大豐里二十張路91號,2,447.0,江陵派出所,,121.5369,24.98019
大樓,華廈,D602000101,中央里,新北市新店區中央里中央六街6號,1,156.0,江陵派出所,,121.5302,24.9744
大樓,華廈,D602000102,中央里,新北市新店區中央里中央五街53號,1,103.0,江陵派出所,,121.5279,24.97554
大樓,大樓,D602000103,中央里,新北市新店區中央里中央五街32號,1,243.0,江陵派出所,,121.5287,24.97475
大樓,環球科技大樓,D602000104,復興里,新北市新店區復興里復興路111號,2,414.0,江陵派出所,,121.5342,24.98778
大樓,華廈,D602000105,中央里,新北市新店區中央里中央三街66號,1,197.0,江陵派出所,,121.5267,24.97498
大樓,華廈,D602000106,中央里,新北市新店區中央里中央三街18號,1,103.0,江陵派出所,,121.529,24.97364
大樓,王侯居,D602000107,中央里,新北市新店區中央里中央三街38號,1,242.0,江陵派出所,,121.528,24.9742
大樓,華廈,D602000108,中央里,新北市新店區中央里中央六街28號,2,104.0,江陵派出所,,121.5293,24.97494
大樓,豪景天下,D602000109,新安里,新北市新店區新安里北新路二段198號,2,315.0,江陵派出所,,121.5431,24.97668
大樓,中央如意園,D602000110,中央里,新北市新店區中央里中央五街63號,1,229.0,江陵派出所,,121.5274,24.97579
大樓,捷和創世紀,D602000111,寶安里,新北市新店區寶安里中興路三段219號,4,1372.0,江陵派出所,,121.5432,24.98214
大樓,華廈,D602000112,中央里,新北市新店區中央里中央三街56號,1,233.0,江陵派出所,,121.5272,24.97468
大樓,台北畫堤,D602000113,寶福里,新北市新店區寶福里寶高路108號,1,279.0,江陵派出所,,121.5543,24.97622
大樓,向日葵,D602000114,中央里,新北市新店區中央里中央四街81號,1,493.0,江陵派出所,,121.5264,24.97589
大樓,向日葵,D602000115,中央里,新北市新店區中央里中央五街10號,1,238.0,江陵派出所,,121.5298,24.9741
大樓,大樓,D602000116,中央里,新北市新店區中央里中央五街25號,1,240.0,江陵派出所,,121.5292,24.97472
大樓,中央大地,D602000117,中央里,新北市新店區中央里中央三街48號,2,219.0,江陵派出所,,121.5275,24.97447
大樓,大樓,D602000118,中央里,新北市新店區中央里中央五街31號,1,240.0,江陵派出所,,121.5289,24.97496
大樓,華廈,D602000119,中央里,新北市新店區中央里中央二街49號,1,110.0,江陵派出所,,121.5273,24.97434
大樓,中央雙星,D602000120,中央里,新北市新店區中央里中央三街47號,1,488.0,江陵派出所,,121.5276,24.97466
大樓,花開富貴,D602000121,復興里,新北市新店區復興里中正路485號,1,837.0,江陵派出所,,121.5336,24.98204
大樓,大樓,D602000122,中央里,新北市新店區中央里中央五街7號,1,218.0,江陵派出所,,121.53,24.97423
大樓,華廈,D602000123,中央里,新北市新店區中央里中央三街61號,2,100.0,江陵派出所,,121.527,24.97505
大樓,公寓,D602000124,寶安里,新北市新店區寶安里中興路三段224號,1,342.0,江陵派出所,,121.5438,24.98306
大樓,華廈,D602000125,大同里,新北市新店區大同里大同街6號,2,70.0,江陵派出所,,121.54,24.98027
大樓,大樓,D602000126,中央里,新北市新店區中央里中央五街35號,1,75.0,江陵派出所,,121.5287,24.97504
大樓,中央如意園,D602000127,中央里,新北市新店區中央里中央四街65號,1,483.0,江陵派出所,,121.5271,24.97547
大樓,空間大賞,D602000128,忠孝里,新北市新店區忠孝里中正路635號,2,499.0,江陵派出所,,121.5338,24.98931
大樓,華廈,D602000129,中央里,新北市新店區中央里中央二街64號,2,106.0,江陵派出所,,121.5266,24.97453
大樓,華廈,D602000130,中央里,新北市新店區中央里中央四街29號,1,96.0,江陵派出所,,121.5287,24.97448
大樓,遠東世紀ABC科學園區,D602000131,寶福里,新北市新店區寶福里寶橋路235巷121號,2,8433.0,江陵派出所,,121.5506,24.98316
大樓,華廈,D602000132,中央里,新北市新店區中央里中央三街57號,1,100.0,江陵派出所,,121.5272,24.97496
大樓,中央龍園,D602000133,中央里,新北市新店區中央里中央三街74號,1,220.0,江陵派出所,,121.5263,24.97518
大樓,現代君址,D602000134,寶福里,新北市新店區寶福里寶興路42巷15號,3,2079.0,江陵派出所,,121.5484,24.97231
大樓,中央福座,D602000135,中央里,新北市新店區中央里中央三街75號,1,209.0,江陵派出所,,121.5263,24.97545
大樓,華廈,D602000136,中央里,新北市新店區中央里中央三街20號,1,119.0,江陵派出所,,121.5289,24.97366
大樓,希望之河,D602000137,中央里,新北市新店區中央里中央三街111號,3,2282.0,江陵派出所,,121.5251,24.97625
大樓,上河圖,D602000138,信義里,新北市新店區信義里寶慶街2號,4,3761.0,江陵派出所,,121.544,24.9871
大樓,華廈,D602000139,中央里,新北市新店區中央里中央五街77號,1,103.0,江陵派出所,,121.5268,24.97614
大樓,大鵬華城,D602000140,大鵬里,新北市新店區大鵬里中正路700巷1號,2,20348.0,江陵派出所,,121.5341,24.99128
大樓,華廈,D602000141,中央里,新北市新店區中央里中央五街76號,1,360.0,江陵派出所,,121.5267,24.97591
大樓,池畔書香,D602000142,國豐里,新北市新店區國豐里建國路60巷3號,1,189.0,江陵派出所,,121.5411,24.97579
大樓,華廈,D602000143,中央里,新北市新店區中央里中央七街86號,2,238.0,江陵派出所,,121.5267,24.97697
大樓,景星靜園,D602000144,大同里,新北市新店區大同里北新路三段65巷34弄26號,1,104.0,江陵派出所,,121.5401,24.98177
大樓,景星靜園,D602000145,大同里,新北市新店區大同里北新路三段65巷34弄27號,1,120.0,江陵派出所,,121.54,24.98192
大樓,華廈,D602000146,中央里,新北市新店區中央里中央四街52號,1,232.0,江陵派出所,,121.5277,24.97493
大樓,大椰林,D602000147,明德里,新北市新店區明德里建國路140號,2,1288.0,江陵派出所,,121.5389,24.97906
大樓,禮居,D602000148,寶興里,新北市新店區寶興里寶強路1號,2,380.0,江陵派出所,,121.5428,24.97904
大樓,華廈,D602000149,中央里,新北市新店區中央里中央七街30號,1,118.0,江陵派出所,,121.5293,24.97541
大樓,中興華廈大樓,D602000150,寶安里,新北市新店區寶安里中興路三段234號,1,280.0,江陵派出所,,121.5433,24.98364
大樓,台灣科技總部大樓,D602000151,寶福里,新北市新店區寶福里中興路二段196號,2,432.0,江陵派出所,,121.5485,24.9739
大樓,技嘉科技,D602000152,寶興里,新北市新店區寶興里寶強路6號,3,2993.0,江陵派出所,,121.5433,24.97879
大樓,大樓,D602000153,中央里,新北市新店區中央里中央五街75號,1,103.0,江陵派出所,,121.5269,24.97609
大樓,旺得富,D602000154,忠孝里,新北市新店區忠孝里復興路40號,1,82.0,江陵派出所,,121.5388,24.98692
大樓,正中科技大樓,D602000155,復興里,新北市新店區復興里復興路43號,2,1009.0,江陵派出所,,121.5371,24.98683
大樓,全球科技特區,D602000156,寶福里,新北市新店區寶福里寶橋路235巷118號,2,5296.0,江陵派出所,,121.551,24.98312
大樓,華廈,D602000157,明德里,新北市新店區明德里民族路6號之1,1,63.0,江陵派出所,,121.5419,24.97898
大樓,中央國寶,D602000158,中央里,新北市新店區中央里中央一街6號,1,204.0,江陵派出所,,121.5287,24.97272
大樓,龍邦新苑,D602000159,明德里,新北市新店區明德里民族路37號,2,471.0,江陵派出所,,121.5407,24.97862
大樓,華廈,D602000160,中央里,新北市新店區中央里中央一街8號,1,103.0,江陵派出所,,121.5286,24.97277
大樓,大豐晶棧,D602000161,大同里,新北市新店區大同里大豐路16巷3弄5號,1,245.0,江陵派出所,,121.5405,24.98034
大樓,華廈,D602000162,中央里,新北市新店區中央里中央三街70號,1,243.0,江陵派出所,,121.5265,24.97511
大樓,大樓,D602000163,信義里,新北市新店區信義里順安街6號,3,841.0,江陵派出所,,121.5412,24.98488
大樓,中興麗池,D602000164,信義里,新北市新店區信義里寶元路一段87巷3號,2,1673.0,江陵派出所,,121.5432,24.98546
大樓,大樓,D602000165,中央里,新北市新店區中央里中央五街87號,1,136.0,江陵派出所,,121.5262,24.97639
大樓,華廈,D602000166,中央里,新北市新店區中央里中央一街35號,1,22.0,江陵派出所,,121.5277,24.97364
大樓,康寧社區,D602000167,寶興里,新北市新店區寶興里寶元路二段35巷1號,1,1793.0,江陵派出所,,121.5469,24.98158
大樓,映水堂,D602000168,信義里,新北市新店區信義里寶慶街5號,3,690.0,江陵派出所,,121.544,24.98658
大樓,水岸巴黎巴黎區,D602000169,中央里,新北市新店區中央里中央五街1-3號,1,504.0,江陵派出所,,121.5302,24.97407
大樓,大樓,D602000170,中央里,新北市新店區中央里中央五街19號,1,104.0,江陵派出所,,121.5295,24.97457
大樓,京澄檜道,D602000171,信義里,新北市新店區信義里中興路三段258-266號,3,1228.0,江陵派出所,,121.5429,24.98437
大樓,華廈,D602000172,寶安里,新北市新店區寶安里北新路三段208號,1,138.0,江陵派出所,,121.5413,24.98424
大樓,寶路生活館,D602000173,寶福里,新北市新店區寶福里中興路二段197號,4,1918.0,江陵派出所,,121.548,24.97385
大樓,中興典,D602000174,信義里,新北市新店區信義里寶元路一段38號之1,2,193.0,江陵派出所,,121.543,24.98522
大樓,江陵禮,D602000176,大同里,新北市新店區大同里二十張路13號,4,177.0,江陵派出所,,121.5396,24.9825
大樓,華廈,D602000177,中央里,新北市新店區中央里中央六街21號,1,46.0,江陵派出所,,121.5297,24.9749
大樓,新店郵局,D602000178,明德里,新北市新店區明德里北新路二段177號,2,60.0,江陵派出所,不張貼標誌牌,,
大樓,江陵里擎天特區,D602000179,江陵里,新北市新店區江陵里民權路69號,1,1547.0,江陵派出所,,121.5389,24.98282
大樓,中央河左岸大廈,D602000180,中央里,新北市新店區中央里中央路212號,2,606.0,江陵派出所,,121.5299,24.97356
大樓,大樓,D602000181,大豐里,新北市新店區大豐里二十張路135號,2,663.0,江陵派出所,,121.5357,24.97917
大樓,大樓,D602000182,中央里,新北市新店區中央里中央路208號,2,854.0,江陵派出所,,121.5302,24.9739
大樓,時代捷座,D602000183,寶安里,新北市新店區寶安里北新路三段92號,2,458.0,江陵派出所,,121.542,24.9809
大樓,捷運e-MASTER,D602000184,新安里,新北市新店區新安里北新路二段176號,1,268.0,江陵派出所,,121.5431,24.976
大樓,台北矽谷,D602000185,復興里,新北市新店區復興里北新路三段205號之1,5,8415.0,江陵派出所,,121.5402,24.98425
大樓,雅典花園,D602000186,信義里,新北市新店區信義里寶慶街45號,2,699.0,江陵派出所,,121.5426,24.98655
大樓,華廈,D602000187,中央里,新北市新店區中央里中央三街43號,2,245.0,江陵派出所,,121.5278,24.9745
大樓,力麒雙星,D602000188,江陵里,新北市新店區江陵里自立街99號,3,2315.0,江陵派出所,,121.5362,24.98066
大樓,湯泉,D602000189,中山里,新北市新店區中山里溪園路399號,2,10638.0,江陵派出所,,121.5238,24.9777
大樓,華廈,D602000190,中央里,新北市新店區中央里中央六街42號之1,1,88.0,江陵派出所,,121.5285,24.97544
大樓,中興禮居,D602000192,寶興里,新北市新店區寶興里文化路92號,2,625.0,江陵派出所,,121.5451,24.9825
大樓,大豐社福館,D602000193,大豐里,新北市新店區大豐里民族路110號,1,881.0,江陵派出所,,121.5376,24.97693
大樓,光榮御品,D602000195,新安里,新北市新店區新安里北新路二段186號,1,198.0,江陵派出所,,121.5431,24.97633
大樓,旺族大廈,D602000196,江陵里,新北市新店區江陵里民權路87號,3,474.0,江陵派出所,,121.538,24.9828
大樓,湯泉美地,D602000197,中山里,新北市新店區中山里溪園路391號,4,889.0,江陵派出所,,121.524,24.97915
大樓,中央龍邸,D602000198,中央里,新北市新店區中央里中央六街61號,1,93.0,江陵派出所,,121.5278,24.97607
大樓,中央首相,D602000199,中央里,新北市新店區中央里中央一街43號,3,489.0,江陵派出所,,121.5272,24.97388
大樓,家樂福(新店店),D602000200,寶興里,新北市新店區寶興里中興路三段1號,2,6009.0,江陵派出所,,121.5462,24.97588
大樓,尊榮皇家,D602000201,中央里,新北市新店區中央里中央一街14號,1,122.0,江陵派出所,,121.5289,24.97322
大樓,行遍天下大樓,D602000202,寶興里,新北市新店區寶興里中興路三段3號,2,9395.0,江陵派出所,,121.5452,24.97756
大樓,大樓,D602000203,大同里,新北市新店區大同里二十張路5號,3,472.0,江陵派出所,,121.5402,24.98268
大樓,中央龍邸,D602000204,中央里,新北市新店區中央里中央五街91號,1,94.0,江陵派出所,,121.5261,24.97649
大樓,湯泉美地,D602000205,中山里,新北市新店區中山里溪園路259號,2,210.0,江陵派出所,,121.5234,24.98107
大樓,慈濟醫院,D602000206,復興里,新北市新店區復興里建國路289號,3,10262.0,江陵派出所,不張貼標誌牌,,
大樓,大樓,D602000207,寶安里,新北市新店區寶安里寶元路一段108號,2,270.0,江陵派出所,,121.5452,24.98309
大樓,大豐世家大樓,D602000208,大同里,新北市新店區大同里大豐路16巷3弄13號,1,84.0,江陵派出所,,121.5406,24.98074
大樓,華廈,D602000209,中央里,新北市新店區中央里中央一街39號,1,76.0,江陵派出所,,121.5275,24.97378
大樓,大坪林聯合開發大樓,D602000210,寶安里,新北市新店區寶安里北新路三段196號,3,2070.0,江陵派出所,關鍵基礎設施(不張貼標誌牌),,
大樓,圓圓園,D602000211,寶福里,新北市新店區寶福里寶興路42巷1號,2,1055.0,江陵派出所,,121.549,24.97298
大樓,御之禮,D602000212,寶福里,新北市新店區寶福里寶橋路78巷1號,2,1014.0,江陵派出所,,121.5467,24.97533
大樓,江陵春,D602000213,江陵里,新北市新店區江陵里民權路107-113號,4,1986.0,江陵派出所,,121.5364,24.98231
大樓,新北市立圖書館新店分館,D602000214,大同里,新北市新店區大同里北新路三段105巷2號,5,1340.0,江陵派出所,,121.541,24.98217
大樓,湯泉首席,D602000215,中央里,新北市新店區中央里環河路170號,4,1153.0,江陵派出所,,121.5256,24.97555
大樓,綠意長隄,D602000216,忠誠里,新北市新店區忠誠里北新路二段97巷16-18號,3,387.0,江陵派出所,,121.5418,24.97435
大樓,江陵宿舍,D602000217,江陵里,新北市新店區江陵里民權路127巷2號,3,752.0,江陵派出所,,121.5349,24.9822
大樓,久盟領袖天下,D602000218,寶福里,新北市新店區寶福里寶中路86-90號,2,491.0,江陵派出所,,121.5485,24.98045
大樓,閎泰科技股份有限公司,D602000219,寶福里,新北市新店區寶福里寶橋路235巷167號,3,545.0,江陵派出所,,121.5515,24.98542
大樓,大樓,D602000220,中央里,新北市新店區中央里中央五街81號,1,77.0,江陵派出所,,121.5266,24.97627
大樓,首相官邸大樓,D602000221,大同里,新北市新店區大同里二十張路11巷1號之1,1,125.0,江陵派出所,,121.5398,24.98254
大樓,華廈,D602000222,中央里,新北市新店區中央里中央五街108號,1,78.0,江陵派出所,,121.5253,24.9768
大樓,環遊市西華館,D602000223,新安里,新北市新店區新安里北新路二段122號,4,4242.0,江陵派出所,,121.5432,24.97453
大樓,華廈,D602000224,中央里,新北市新店區中央里中央五街92號,1,77.0,江陵派出所,,121.526,24.97638
大樓,雍華庭,D602000225,新安里,新北市新店區新安里永華街57號,2,190.0,江陵派出所,,121.5446,24.97567
大樓,中央豪邸,D602000226,中央里,新北市新店區中央里中央六街25號,1,536.0,江陵派出所,,121.5295,24.97504
大樓,滿福慧淨堡大樓,D602000227,中央里,新北市新店區中央里中央二街81號,1,137.0,江陵派出所,,121.5259,24.97523
大樓,藝墅,D602000228,中央里,新北市新店區中央里中央五街39號,2,522.0,江陵派出所,,121.5285,24.97514
大樓,大樓,D602000229,江陵里,新北市新店區江陵里民權路115號,3,411.0,江陵派出所,,121.5364,24.9826
大樓,TOP科技大樓,D602000230,寶福里,新北市新店區寶福里寶橋路188號,2,1257.0,江陵派出所,,121.5497,24.97758
大樓,中央百合,D602000231,中央里,新北市新店區中央里中央四街82號,2,243.0,江陵派出所,,121.5263,24.97574
大樓,合環御品,D602000232,寶興里,新北市新店區寶興里寶強路23號,3,1131.0,江陵派出所,,121.5436,24.97924
大樓,大樓,D602000233,中央里,新北市新店區中央里中央一街12號,1,221.0,江陵派出所,,121.5285,24.97286
大樓,富園公寓大廈,D602000234,江陵里,新北市新店區江陵里民權路127巷1號之1,1,261.0,江陵派出所,,121.5354,24.98211
大樓,合環御璽,D602000235,寶興里,新北市新店區寶興里寶強路9號,3,525.0,江陵派出所,,121.5431,24.9791
大樓,采會萊茵,D602000236,中央里,新北市新店區中央里中央二街56-62號,2,320.0,江陵派出所,,121.527,24.97437
大樓,挪威森林汽車旅館,D602000237,寶福里,新北市新店區寶福里寶橋路235巷15號,1,1249.0,江陵派出所,,121.5508,24.98107
大樓,三輝墨寶,D602000238,大豐里,新北市新店區大豐里建國路212號,2,125.0,江陵派出所,,121.5379,24.98107
大樓,三輝墨寶,D602000239,大豐里,新北市新店區大豐里建國路218號,4,402.0,江陵派出所,,121.5378,24.98113
大樓,九閣商旅,D602000240,中央里,新北市新店區中央里中央路238號,3,162.0,江陵派出所,,121.5292,24.9725
大樓,研誠大樓,D602000241,復興里,新北市新店區復興里建國路276號,1,390.0,江陵派出所,,121.5375,24.98352
大樓,大樓,D602000242,信義里,新北市新店區信義里中興路3段286號,3,75.0,江陵派出所,,121.5428,24.98457
大樓,捷運賦境,D602000243,明德里,新北市新店區明德里明德路24號5,3,294.0,江陵派出所,,121.5421,24.97712
大樓,千代田大廈,D602000244,明德里,新北市新店區明德里民族路48巷11號,1,65.0,江陵派出所,,121.5399,24.97916
大樓,江陵誠,D602000245,江陵里,新北市新店區江陵里建國路241號,5,1220.0,江陵派出所,,121.5375,24.98219
大樓,花開富貴,D602000246,復興里,新北市新店區復興里中正路491號之1,6,1476.0,江陵派出所,,121.5334,24.98265
公寓,南強工商(教室),D602000247,寶安里,新北市新店區寶安里文化路42號,1,276.0,江陵派出所,,121.5448,24.98116
大樓,大樓,D602000248,中央里,新北市新店區中央里中央七街35號,1,112.0,江陵派出所,,121.5293,24.97564
大樓,陶品居,D602000249,中央里,新北市新店區中央里中央三街26號,1,161.0,江陵派出所,,121.5286,24.97382
大樓,高峰會,D602000250,寶安里,新北市新店區寶安里文化路23號之13,3,1179.0,江陵派出所,,121.5432,24.98025
大樓,啟昇之星,D602000251,復興里,新北市新店區復興里民權路86號,3,1284.0,江陵派出所,,121.5373,24.98306
大樓,陶品居,D602000252,中央里,新北市新店區中央里中央一街20號,2,383.0,江陵派出所,,121.5283,24.97307
大樓,捷運鄉墅,D602000253,中央里,新北市新店區中央里中央八街125號,1,112.0,江陵派出所,,121.5253,24.97843
大樓,華廈,D602000254,中央里,新北市新店區中央里中央三街79號,1,184.0,江陵派出所,,121.5262,24.97549
大樓,佳瑪商場,D602000255,復興里,新北市新店區復興里民權路78號,2,1437.0,江陵派出所,,121.5374,24.98306
大樓,大璽大廈,D602000256,中央里,新北市新店區中央里中央五街29號,1,192.0,江陵派出所,,121.529,24.97488
大樓,三輝寶安,D602000257,寶安里,新北市新店區寶安里寶安街30號,5,326.0,江陵派出所,,121.5421,24.98226
大樓,台北人,D602000258,寶福里,新北市新店區寶福里寶興街45巷2弄2號,4,4268.0,江陵派出所,,121.5501,24.97333
大樓,中央大璽,D602000259,中央里,新北市新店區中央里中央五街42號,3,552.0,江陵派出所,,121.5283,24.97498
大樓,台北矽谷,D602000260,復興里,新北市新店區復興里北新路三段213號,4,3419.0,江陵派出所,,121.5402,24.98537
大樓,敬園大廈,D602000261,中央里,新北市新店區中央里中央一街2號,3,134.0,江陵派出所,,121.5291,24.97254
大樓,江陵金融大樓,D602000262,江陵里,新北市新店區江陵里民權路95號,5,1250.0,江陵派出所,,121.5372,24.9828
大樓,中央麗景,D602000263,中央里,新北市新店區中央里中央一街55號,3,172.0,江陵派出所,,121.5267,24.97427
大樓,寶橋大璽,D602000264,寶興里,新北市新店區寶興里寶橋路85巷35號,2,231.0,江陵派出所,,121.545,24.9768
大樓,"MY WAY(合環御景)",D602000265,寶福里,新北市新店區寶福里中興路二段225號,4,3490.0,江陵派出所,,121.5478,24.97464
大樓,中興馥,D602000266,寶安里,新北市新店區寶安里中興路三段230號,1,515.0,江陵派出所,,121.5433,24.98358
大樓,華廈,D602000267,中央里,新北市新店區中央里中央七街60號,1,103.0,江陵派出所,,121.528,24.97618
大樓,華廈,D602000268,中央里,新北市新店區中央里中央六街84號,1,146.0,江陵派出所,,121.5267,24.97654
大樓,三輝君匯,D602000269,明德里,新北市新店區明德里北新路三段17號,1,763.0,江陵派出所,,121.542,24.97971
大樓,輕川學大樓,D602000270,寶安里,新北市新店區寶安里寶元路一段102號,1,110.0,江陵派出所,,121.545,24.98323
大樓,宏達國際電子公司,D602000271,寶福里,新北市新店區寶福里中興路三段88號,1,2418.0,江陵派出所,,121.5457,24.97901
大樓,城品大樓,D602000272,信義里,新北市新店區信義里寶慶街35巷8號,1,290.0,江陵派出所,,121.5429,24.98633
大樓,中央唯美大廈,D602000273,中央里,新北市新店區中央里中央五街72-1號,1,65.0,江陵派出所,,121.5269,24.97585
大樓,中央首鼎大廈,D602000274,中央里,新北市新店區中央里中央五街22號,1,184.0,江陵派出所,,121.5293,24.9744
大樓,玥然,D602000275,復興里,新北市新店區復興里民權路42巷7號,1,250.0,江陵派出所,,121.5404,24.98308
大樓,陶品居,D602000277,中央里,新北市新店區中央里中央六街96號,1,65.0,江陵派出所,,121.5261,24.97688
大樓,大邑禮居,D602000278,大豐里,新北市新店區大豐里大同街19號,1,68.0,江陵派出所,,121.539,24.98036
大樓,中興A計畫,D602000279,寶福里,新北市新店區寶福里寶橋路140巷11號,1,584.0,江陵派出所,,121.5487,24.97558
大樓,華廈,D602000280,中央里,新北市新店區中央里中央四街33號,1,59.0,江陵派出所,,121.5285,24.97462
大樓,揚銘中央六街,D602000281,中央里,新北市新店區中央里中央六街48號,1,58.0,江陵派出所,,121.5283,24.97552
大樓,唐寧街59號,D602000282,中央里,新北市新店區中央里中央五街59號,1,184.0,江陵派出所,,121.5276,24.97569
大樓,唐寧街30號,D602000283,中央里,新北市新店區中央里中央四街30號,1,188.0,江陵派出所,,121.5286,24.97436
大樓,寶徠花園,D602000284,寶興里,新北市新店區寶興里寶橋路85巷50號,1,2950.0,江陵派出所,,121.545,24.9768
大樓,唐寧街11號,D602000285,中央里,新北市新店區中央里中央五街17號,1,550.0,江陵派出所,,121.5296,24.97451
大樓,華廈,D602000286,中央里,新北市新店區中央里中央六街46號,1,64.0,江陵派出所,,121.5284,24.97547
大樓,大樓,D602000287,大豐里,新北市新店區大豐里二十張路131號,1,123.0,江陵派出所,,121.5358,24.97926
大樓,合環御寶,D602000288,寶興里,新北市新店區寶興里寶強路8號,1,3451.0,江陵派出所,,121.5436,24.97889
大樓,翃泰松隱,D602000289,中央里,新北市新店區中央里中央五街102號,1,166.0,江陵派出所,,121.5255,24.97667
大樓,華廈,D602000290,中央里,新北市新店區中央里中央二街23號,1,65.0,江陵派出所,,121.5286,24.97362
大樓,隱中央,D602000291,中央里,新北市新店區中央里中央五街40號,1,155.0,江陵派出所,,121.5284,24.97493
大樓,華廈,D602000292,中央里,新北市新店區中央里中央二街33號,1,65.0,江陵派出所,,121.528,24.97394
大樓,中央靜觀,D602000293,中央里,新北市新店區中央里中央七街85號,1,132.0,江陵派出所,,121.5268,24.97708
大樓,唐寧街9號,D602000294,中央里,新北市新店區中央里中央六街12號,1,195.0,江陵派出所,,121.53,24.97454
大樓,御中央NO.1,D602000295,中央里,新北市新店區中央里中央三街29號,1,205.0,江陵派出所,,121.5284,24.9742
大樓,中央臻邸,D602000297,中央里,新北市新店區中央里中央六街75號,1,65.0,江陵派出所,,121.5271,24.97641
大樓,華廈,D602000298,中央里,新北市新店區中央里中央六街72號,1,65.0,江陵派出所,,121.5271,24.97623
大樓,樺福大坪林,D602000299,國豐里,新北市新店區國豐里北新路三段120號,1,229.0,江陵派出所,,121.54169,24.9819505
大樓,楊公館,D602000300,中央里,新北市新店區中央里中央六街77號,1,65.0,江陵派出所,,121.527,24.97646
大樓,慈濟新店靜思堂,D602000301,復興里,新北市新店區復興里建國路279號,1,3448.0,江陵派出所,,121.5356,24.98467
大樓,第五大道大廈,D602000302,中央里,新北市新店區中央里中央五街21號,1,161.0,江陵派出所,,121.5294,24.97462
大樓,富裔河,D602000303,忠孝里,新北市新店區忠孝里復興路100號,1,779.0,江陵派出所,,121.5318,24.98892
大樓,敦南仰望,D602000304,忠孝里,新北市新店區忠孝里中正路703號之2,1,338.0,江陵派出所,,121.5339,24.99093
大樓,華廈,D602000305,中央里,新北市新店區中央里中央七街48號,1,130.0,江陵派出所,,121.5285,24.97588
大樓,水中央,D602000306,中央里,新北市新店區中央里中央一街27號,1,68.0,江陵派出所,,121.5281,24.97338
大樓,華廈,D602000307,中央里,新北市新店區中央里中央五街89號,1,95.0,江陵派出所,,121.5261,24.97644
大樓,彩驛,D602000308,中央里,新北市新店區中央里中央四街92號,1,66.0,江陵派出所,,121.5257,24.9761
大樓,華廈,D602000309,中央里,新北市新店區中央里中央六街58號,1,85.0,江陵派出所,,121.5278,24.97581
大樓,御中央NO.2,D602000310,中央里,新北市新店區中央里中央三街41號,1,458.0,江陵派出所,,121.5279,24.97448
大樓,大坪林雙子星,D602000311,信義里,新北市新店區信義里順安街54巷1號,1,1117.0,江陵派出所,,121.541,24.98617
大樓,大樓,D602000312,中央里,新北市新店區中央里中央五街85號,1,117.0,江陵派出所,,121.5263,24.97635
大樓,三馨華廈,D602000313,中央里,新北市新店區中央里中央六街45號,1,150.0,江陵派出所,,121.5285,24.97564
大樓,雙捷WIN,D602000314,寶興里,新北市新店區寶興里文化路126號,1,218.0,江陵派出所,,121.5454,24.98273
大樓,友座臻美大樓,D602000315,明德里,新北市新店區明德里民族路15號,1,782.0,江陵派出所,,121.5414,24.97869
大樓,大樓,D602000316,寶福里,新北市新店區寶福里寶興路70巷10號,1,341.0,江陵派出所,,121.5495,24.97014
大樓,央北青年社會住宅,D602000317,和平里,新北市新店區和平里中山路135號,2,4377.0,江陵派出所,,121.5261,24.98136
大樓,華廈,D602000318,中央里,新北市新店區中央里中央七街42號,1,101.0,江陵派出所,,121.5288,24.97573
大樓,大樓,D602000319,信義里,新北市新店區信義里順安街26號,1,164.0,江陵派出所,,121.5411,24.98539
大樓,寶高智慧產業園區,D602000320,寶福里,新北市新店區寶福里寶高路26號,1,7418.0,江陵派出所,,121.5508,24.97676
大樓,央北市民活動中心,D602000321,中山里,新北市新店區中山里順德街175號,1,515.0,江陵派出所,,121.5297,24.9789
大樓,華潤禾禾好好,D602000322,中山里,新北市新店區中山里十四張路63號,1,1211.0,江陵派出所,,121.5324,24.97903
大樓,波爾多,D602000323,中山里,新北市新店區中山里1鄰溪園路243號,1,1282.0,江陵派出所,,121.5257,24.98336
大樓,國泰豐格,D602000324,中山里,新北市新店區中山里1鄰中山路10號,1,1869.0,江陵派出所,,121.5251,24.97921
大樓,遠雄青青,D602000325,中山里,新北市新店區中山里順德街215號,1,568.0,江陵派出所,,121.5292,24.97835
大樓,國美中央新村,D602000326,中山里,新北市新店區中山里央北一路8號,3,2406.0,江陵派出所,,121.5309,24.9756
大樓,欣聯鉅星科技總部,D602000327,寶福里,新北市新店區寶福里13鄰寶橋路142號,1,751.0,江陵派出所,,121.5478,24.97643
大樓,華廈,D602000328,中央里,新北市新店區中央里13鄰中央六街74號,1,152.0,江陵派出所,,121.5271,24.97628
大樓,全陽大璽,D602000329,中山里,新北市新店區中山里1鄰中央路20號,1,3535.0,江陵派出所,,121.5332,24.97875
大樓,欣聯心,D602000330,寶興里,新北市新店區寶興里2鄰中興路三段155號,1,440.0,江陵派出所,,121.544,24.9801
大樓,華廈,D602000331,中央里,新北市新店區中央里14鄰中央六街85號,1,74.0,江陵派出所,,121.5266,24.97676
大樓,新店裕隆城商場,D602000332,寶福里,新北市新店區寶福里14鄰中興路三段70號,3,11101.0,江陵派出所,,121.5463,24.97783
大樓,合環永新,D602000333,新安里,新北市新店區新安里14鄰永新街30號,1,496.0,江陵派出所,,121.5441,24.97519
大樓,"希爾登One House",D602000334,中山里,新北市新店區中山里央北一路170號,3,3231.0,江陵派出所,,121.5259,24.97849
大樓,將捷央旅,D602000335,中山里,新北市新店區中山里啟文路25號,2,185.0,江陵派出所,,121.5276,24.97801
大樓,鐫畫,D602000336,中山里,新北市新店區中山里央北一路28號,3,544.0,江陵派出所,,121.5301,24.97595
大樓,三輝四季,D602000337,中山里,新北市新店區中山里順德街228號,3,526.0,江陵派出所,,121.5299,24.9794
大樓,國泰豐和,D602000338,中山里,新北市新店區中山里央北一路100號,3,1187.0,江陵派出所,,121.5272,24.97765
大樓,雅藏,D602000339,大豐里,新北市新店區大豐里二十張路105巷30號,3,126.0,江陵派出所,,121.537,24.979
大樓,波爾多2樂菲莊園,D602000340,中山里,新北市新店區中山里央北二路375號,1,3488.0,江陵派出所,,121.5251,24.98174
大樓,誠鑫,D602000341,中山里,新北市新店區中山里合記街26號,4,1852.0,江陵派出所,,121.5271,24.97877
大樓,潤泰央北,D602000342,中山里,新北市新店區中山里順德街1號,1,2293.0,江陵派出所,,121.53093,24.977254
大樓,將捷旅闊,D602000343,中山里,新北市新店區中山里順德街21號,2,1227.0,江陵派出所,,121.531722,24.977842
大樓,新店寶,D602000344,中山里,新北市新店區中山里央北二路51號,1,540.0,江陵派出所,,121.53063,24.977118
大樓,宏普中央公園,D602000345,中山里,新北市新店區中山里啟文路66號,1,1490.0,江陵派出所,,121.529083,24.979447
大樓,法務部調查局訓練所,D603000003,美潭里,新北市新店區美潭里北宜路二段295號,1,1099.0,青潭派出所,,121.5565,24.9539
大樓,新殿富邑,D603000004,美潭里,新北市新店區美潭里北宜路二段82-7號,1,1102.0,青潭派出所,,121.554,24.9534
大樓,新殿青境,D603000005,美潭里,新北市新店區美潭里北宜路二段82巷1號,1,1659.0,青潭派出所,,121.5536,24.95319
大樓,中央印製廠,D603000007,員潭里,新北市新店區員潭里北宜路二段202號,1,810.0,青潭派出所,不張貼標誌牌,,
大樓,嶺秀天廈,D603000008,員潭里,新北市新店區員潭里北宜路二段483號,3,693.0,青潭派出所,,121.5622,24.95408
大樓,小錢當家,D603000009,員潭里,新北市新店區員潭里北宜路二段417號,1,753.0,青潭派出所,,121.56,24.95458
大樓,新鴛鴦蝴蝶,D603000010,美潭里,新北市新店區美潭里北宜路二段82巷9弄1號,1,1060.0,青潭派出所,,121.5538,24.95254
大樓,文山芳鄰,D603000011,美潭里,新北市新店區美潭里北宜路二段153號,2,907.0,青潭派出所,,121.552,24.9533
大樓,青泉崗,D603000012,青潭里,新北市新店區青潭里北宜路二段127巷16號,1,868.0,青潭派出所,,121.5511,24.95344
大樓,森鄰大廈,D603000013,員潭里,新北市新店區員潭里北宜路二段391巷2號之2,3,602.0,青潭派出所,,121.5601,24.95498
大樓,綠卡社區,D603000014,青潭里,新北市新店區青潭里竹林路26巷38號,1,1354.0,青潭派出所,,121.5513,24.94999
大樓,法務部調查局電訊大樓,D603000015,員潭里,新北市新店區員潭里中生路40號,1,690.0,青潭派出所,不張貼標誌牌,,
大樓,明山麗園,D603000016,員潭里,新北市新店區員潭里北宜路二段495號,1,1020.0,青潭派出所,,121.5631,24.95382
大樓,綠卡社區,D603000017,青潭里,新北市新店區青潭里竹林路26巷46號,1,101.0,青潭派出所,,121.5516,24.95036
大樓,綠卡社區,D603000018,青潭里,新北市新店區青潭里竹林路26巷40號,1,102.0,青潭派出所,,121.5512,24.9503
大樓,親潭大廈,D603000019,美潭里,新北市新店區美潭里北宜路二段104號,1,367.0,青潭派出所,,121.5556,24.95357
大樓,捷運薪市,D603000020,員潭里,新北市新店區員潭里北宜路二段493號,2,159.0,青潭派出所,,121.5627,24.95394
大樓,新殿傳奇,D603000022,青潭里,新北市新店區青潭里北宜路二段28號,1,97.0,青潭派出所,,121.5482,24.95143
大樓,山林溪,D603000023,美潭里,新北市新店區美潭里北宜路二段116巷1號,2,1403.0,青潭派出所,,121.5565,24.95344
大樓,水川堂,D603000024,青潭里,新北市新店區青潭里竹林路59號,1,1111.0,青潭派出所,,121.5527,24.95137
大樓,雙峰國小,D603000026,雙坑里,新北市新店區雙坑里北宜路三段66號,1,288.0,青潭派出所,,121.5754,24.95115
大樓,潭天天廈,D603000028,青潭里,新北市新店區青潭里北宜路二段117號,4,1206.0,青潭派出所,,121.5506,24.95306
大樓,萊茵皇家,D603000029,青潭里,新北市新店區青潭里竹林路30巷1號,2,803.0,青潭派出所,,121.5522,24.95105
大樓,土地銀行人力資源訓練所,D603000030,青潭里,新北市新店區青潭里竹林路28號,1,451.0,青潭派出所,,121.5519,24.95133
大樓,春風特區,D603000031,員潭里,新北市新店區員潭里北宜路二段353號,3,2065.0,青潭派出所,,121.5582,24.95418
大樓,萊茵皇家,D603000032,青潭里,新北市新店區青潭里竹林路30巷2號,2,1022.0,青潭派出所,,121.552,24.95101
大樓,青潭國小,D603000033,美潭里,新北市新店區美潭里北宜路二段80號,1,357.0,青潭派出所,,121.5523,24.95314
大樓,新巢代,D603000034,員潭里,新北市新店區員潭里北宜路二段503號,1,1116.0,青潭派出所,,121.5634,24.95374
大樓,春風伯爵,D603000035,員潭里,新北市新店區員潭里北宜路二段276號,1,299.0,青潭派出所,,121.5609,24.95416
大樓,春風如意,D603000036,美潭里,新北市新店區美潭里秀水路9號,2,1071.0,青潭派出所,,121.5547,24.95452
大樓,萊茵皇家,D603000037,青潭里,新北市新店區青潭里竹林路30巷15號,1,1104.0,青潭派出所,,121.5521,24.95066
大樓,夢享國,D603000038,員潭里,新北市新店區員潭里北宜路二段431號,4,1848.0,青潭派出所,,121.5608,24.95444
大樓,彩虹園大廈,D603000039,青潭里,新北市新店區青潭里竹林路78號,1,484.0,青潭派出所,,121.5542,24.95048
大樓,新陛潭,D603000040,青潭里,新北市新店區青潭里北宜路30巷5弄2號,2,1402.0,青潭派出所,,121.548,24.95074
大樓,美麗國幸福特區,D603000041,員潭里,新北市新店區員潭里北宜路二段421巷2弄11號,1,383.0,青潭派出所,,121.561,24.95513
大樓,中央印製廠,D603000042,員潭里,新北市新店區員潭里北宜路二段200號,1,839.0,青潭派出所,不張貼標誌牌,,
大樓,美麗國社區,D603000043,員潭里,新北市新店區員潭里北宜路二段421巷2弄21號,1,2192.0,青潭派出所,,121.561,24.95583
大樓,大樓,D603000044,員潭里,新北市新店區員潭里北宜路二段122號,1,97.0,青潭派出所,,121.5569,24.95374
大樓,青潭湛,D603000045,員潭里,新北市新店區員潭里北宜路二段345號,1,694.0,青潭派出所,,121.5578,24.9542
大樓,翠松園,D603000046,青潭里,新北市新店區青潭里青潭里20鄰竹林路50號,1,738.0,青潭派出所,,121.5531,24.95119
大樓,秀水韻,D603000047,美潭里,新北市新店區美潭里美潭里15鄰秀水路10號2樓,1、2、3,447.0,青潭派出所,,121.5549,24.95438
大樓,衛福部北區老人之家,D604000001,屈尺里,新北市新店區屈尺里屈尺路83號,1,1623.0,屈尺派出所,,121.5452,24.92269
大樓,保安警察第三總隊,D604000002,屈尺里,新北市新店區屈尺里屈尺路11號,1,604.0,屈尺派出所,不張貼標誌牌,,
大樓,衛福部北區老人之家,D604000003,屈尺里,新北市新店區屈尺里自強路74巷6號,1,373.0,屈尺派出所,,121.5453,24.92514
大樓,屈尺國小,D604000004,屈尺里,新北市新店區屈尺里屈尺路55號,1,645.0,屈尺派出所,,121.5463,24.92251
大樓,白雲禪寺,D604000005,屈尺里,新北市新店區屈尺里新烏路二段178號,1,427.0,屈尺派出所,,121.548,24.9181
大樓,生活家大廈,D605000001,龜山里,新北市新店區龜山里松林路6號,1,1464.0,龜山派出所,,121.5463,24.91148
大樓,山水天廈,D605000002,廣興里,新北市新店區廣興里廣興路7號之1,1,866.0,龜山派出所,,121.546,24.91195
大樓,直潭國小,D606000001,直潭里,新北市新店區直潭里直潭路92號,1,234.0,直潭派出所,,121.5313,24.93781
大樓,直潭活動中心,D606000002,直潭里,新北市新店區直潭里直潭十街23號,1,1125.0,直潭派出所,,121.5337,24.93882
大樓,龍之鄉大樓,D607000006,太平里,新北市新店區太平里碧潭路35號,1,107.0,頂城派出所,,121.5342,24.95624
大樓,碧潭雅筑大樓,D607000007,太平里,新北市新店區太平里碧潭路67號,1,79.0,頂城派出所,,121.5342,24.95674
大樓,十方山水,D607000008,太平里,新北市新店區太平里碧潭路71號,2、3、4、5,983.0,頂城派出所,,121.5343,24.95687
大樓,海藏寺,D607000010,太平里,新北市新店區太平里碧潭路55號,2,366.0,頂城派出所,,121.534,24.95662
大樓,十方二代大樓,D607000011,太平里,新北市新店區太平里碧潭路37號,1,375.0,頂城派出所,,121.5341,24.95633
大樓,永業居,D607000012,太平里,新北市新店區太平里永業路16號,1,93.0,頂城派出所,,121.5335,24.95598
大樓,帝景飯店,D607000013,美城里,新北市新店區美城里碧潭路77巷2號,3,1739.0,頂城派出所,,121.5343,24.95771
大樓,青山鎮濱湖特區,D607000014,下城里,新北市新店區下城里青山路88巷1弄1號,2,1860.0,頂城派出所,,121.5149,24.94818
大樓,華廈,D607000015,太平里,新北市新店區太平里永業路57號,1,94.0,頂城派出所,,121.532,24.95435
大樓,碧潭甄品大樓,D607000016,太平里,新北市新店區太平里永業路18號,1,259.0,頂城派出所,,121.5334,24.95593
大樓,美麗春天飯店,D607000017,太平里,新北市新店區太平里太平路9號,2,211.0,頂城派出所,,121.5342,24.95785
大樓,美麗春天飯店,D607000018,太平里,新北市新店區太平里太平路8號,4,367.0,頂城派出所,,121.5342,24.9579
大樓,青山鎮青水特區,D607000019,下城里,新北市新店區下城里頂城六街2-10號,1,759.0,頂城派出所,,121.5156,24.95087
大樓,青山鎮環湖特區,D607000020,下城里,新北市新店區下城里青山路158號,3,1299.0,頂城派出所,,121.514,24.94997
大樓,康橋國際學校(青山校區),D607000021,下城里,新北市新店區下城里頂城五街80號,1,1747.0,頂城派出所,,121.517,24.95392
大樓,國賓大苑,D607000022,太平里,新北市新店區太平里太平路10號,1,2085.0,頂城派出所,,121.5342,24.9581
大樓,上碧潭,D607000023,太平里,新北市新店區太平里太平路25號,1,604.0,頂城派出所,,121.5339,24.9581
大樓,安康派出所,D608000004,公崙里,新北市新店區公崙里安康路二段70號,1,67.0,安康派出所,不張貼標誌牌,,
大樓,綠寶石二期,D608000005,公崙里,新北市新店區公崙里吉安街17號,1,474.0,安康派出所,,121.5159,24.96594
大樓,綠寶石,D608000006,公崙里,新北市新店區公崙里吉安街22號,1,282.0,安康派出所,,121.5159,24.96594
大樓,凱悅名廈,D608000007,安昌里,新北市新店區安昌里安康路二段196號之2,2,993.0,安康派出所,,121.5108,24.95988
大樓,大學詩鄉,D608000008,公崙里,新北市新店區公崙里安忠路161號,2,233.0,安康派出所,,121.5095,24.94829
大樓,富貴園,D608000009,柴埕里,新北市新店區柴埕里光華街8巷21號,2,565.0,安康派出所,,121.518,24.96967
大樓,新綠卡,D608000010,安昌里,新北市新店區安昌里安德街47號,1,1850.0,安康派出所,,121.5111,24.96221
大樓,山水畫樓,D608000011,柴埕里,新北市新店區柴埕里安民街65巷1號,1,1319.0,安康派出所,,121.5162,24.9666
大樓,龍都,D608000013,柴埕里,新北市新店區柴埕里安民街163至179號,1,663.0,安康派出所,,121.5166,24.97008
大樓,北城快樂家,D608000014,公崙里,新北市新店區公崙里安康路二段128號,2,597.0,安康派出所,,121.5126,24.96245
大樓,安和綠園大廈,D608000015,柴埕里,新北市新店區柴埕里安和路二段97至99號,1,213.0,安康派出所,,121.5185,24.96951
大樓,大學詩鄉,D608000016,公崙里,新北市新店區公崙里安忠路126號,1,601.0,安康派出所,,121.5091,24.9483
大樓,綠寶石,D608000017,公崙里,新北市新店區公崙里吉安街27號,1,167.0,安康派出所,,121.5164,24.96578
大樓,三圓羅馬,D608000018,柴埕里,新北市新店區柴埕里安興路5號,5,5400.0,安康派出所,,121.5147,24.96817
大樓,寶地花園廣場,D608000019,安昌里,新北市新店區安昌里安康路二段170號,1,1690.0,安康派出所,,121.5119,24.96063
大樓,早安華城,D608000020,公崙里,新北市新店區公崙里安忠路57巷26弄27號,1,446.0,安康派出所,,121.5124,24.95811
大樓,早安華城,D608000021,公崙里,新北市新店區公崙里安忠路57巷26弄1號,1,768.0,安康派出所,,121.5131,24.9586
大樓,寶芝林,D608000022,安昌里,新北市新店區安昌里安成街42號,2,1732.0,安康派出所,,121.5098,24.96138
大樓,山水畫樓,D608000023,柴埕里,新北市新店區柴埕里安民街65巷8號,2,2575.0,安康派出所,,121.5162,24.96725
大樓,美麗新殿,D608000024,柴埕里,新北市新店區柴埕里安民街121巷2-18號,2,2495.0,安康派出所,,121.5161,24.96876
大樓,早安華城,D608000025,公崙里,新北市新店區公崙里安忠路57巷26弄28號,1,595.0,安康派出所,,121.5123,24.95816
大樓,首華美廈,D608000028,柴埕里,新北市新店區柴埕里安民街235號,1,275.0,安康派出所,,121.5171,24.97197
大樓,龍揚大道,D608000029,柴埕里,新北市新店區柴埕里安民街170號,1,134.0,安康派出所,,121.5169,24.97064
大樓,早安華城,D608000030,公崙里,新北市新店區公崙里安忠路57巷26弄54號,1,204.0,安康派出所,,121.512,24.95748
大樓,皇家城堡,D608000032,柴埕里,新北市新店區柴埕里光華街20巷2號,1,463.0,安康派出所,,121.5173,24.96947
大樓,皇家城堡,D608000033,柴埕里,新北市新店區柴埕里光華街20巷1號,1,509.0,安康派出所,,121.5171,24.96952
大樓,華城綠階,D608000034,公崙里,新北市新店區公崙里安忠路57巷57號,2,2872.0,安康派出所,,121.5129,24.95793
大樓,安坑國小,D608000035,公崙里,新北市新店區公崙里安忠路36號,1,1510.0,安康派出所,,121.5142,24.9613
大樓,台北鄰居,D608000036,安昌里,新北市新店區安昌里安康路二段186號,1,697.0,安康派出所,,121.5114,24.96023
大樓,華廈,D608000037,柴埕里,新北市新店區柴埕里安和路二段89號,1,137.0,安康派出所,,121.5184,24.96914
公寓,公寓,D608000040,德安里,新北市新店區德安里安德街130巷36號,1,748.0,安康派出所,,121.5075,24.96038
公寓,公寓,D608000041,德安里,新北市新店區德安里安德街148巷11弄1號,1,793.0,安康派出所,,121.5078,24.95998
公寓,公寓,D608000043,德安里,新北市新店區德安里安康路二段341巷5-7號,1,72.0,安康派出所,,121.497,24.955
公寓,公寓,D608000044,德安里,新北市新店區德安里安康路二段341巷20號,1,101.0,安康派出所,,121.4968,24.95467
公寓,公寓,D608000045,德安里,新北市新店區德安里安康路二段341巷92號之1,1,181.0,安康派出所,,121.496,24.95415
大樓,觀天下,D608000046,明城里,新北市新店區明城里黎明路78-100號,3,6906.0,安康派出所,,121.5019,24.94519
大樓,觀天下,D608000047,明城里,新北市新店區明城里黎明路102號,2,6906.0,安康派出所,,121.502,24.94466
大樓,華廈,D608000048,德安里,新北市新店區德安里安德街117號,2,327.0,安康派出所,,121.5092,24.96064
大樓,達觀鎮A5社區,D608000049,達觀里,新北市新店區達觀里達觀路24號,2,1147.0,安康派出所,,121.5014,24.94078
大樓,達觀168社區,D608000050,達觀里,新北市新店區達觀里達觀路16號,3,1660.0,安康派出所,,121.5026,24.94082
大樓,達觀快樂20社區,D608000051,達觀里,新北市新店區達觀里達觀路20號,3,1300.0,安康派出所,,121.502,24.94138
大樓,達觀鎮A1社區,D608000052,達觀里,新北市新店區達觀里達觀路6號,3,4885.0,安康派出所,,121.5052,24.94255
大樓,達觀會館,D608000053,達觀里,新北市新店區達觀里達觀路12號,4,7920.0,安康派出所,,121.5044,24.94149
大樓,達觀22巷社區,D608000054,達觀里,新北市新店區達觀里達觀路22巷1號,3,2123.0,安康派出所,,121.502,24.94181
大樓,達觀鎮,D608000055,達觀里,新北市新店區達觀里達觀路32號,1,614.0,安康派出所,,121.5021,24.93997
大樓,大廈,D608000056,公崙里,新北市新店區公崙里安民街12號,1,250.0,安康派出所,,121.5154,24.96437
大樓,山水天地大廈C棟,D608000057,公崙里,新北市新店區公崙里安民街5號,2,1141.0,安康派出所,,121.5152,24.96433
大樓,豪觀社區,D608000058,公崙里,新北市新店區公崙里安忠路92巷6號,2,1717.0,安康派出所,,121.5106,24.95773
大樓,品值寶鎮,D608000059,安昌里,新北市新店區安昌里安康路二段200號,1,3288.0,安康派出所,,121.5105,24.95974
大樓,高鮮屋,D608000061,德安里,新北市新店區德安里安康路二段161號,3,1636.0,安康派出所,,121.5102,24.95934
大樓,頂好京華,D608000062,安昌里,新北市新店區安昌里安成街6號,1,327.0,安康派出所,,121.5108,24.96038
大樓,園味生活,D608000063,安昌里,新北市新店區安昌里安德街38號,2,945.0,安康派出所,,121.5114,24.96269
大樓,山水天地,D608000064,公崙里,新北市新店區公崙里安民街3巷1號,2,1200.0,安康派出所,,121.5146,24.96405
大樓,達觀鎮A3社區,D608000065,達觀里,新北市新店區達觀里達觀路10號之1,2,361.0,安康派出所,,121.5036,24.94398
大樓,華廈,D608000067,公崙里,新北市新店區公崙里安忠路57巷1號之2,2,395.0,安康派出所,,121.5135,24.95969
大樓,華廈,D608000068,安昌里,新北市新店區安昌里安德街48號,1,138.0,安康派出所,,121.5112,24.96251
大樓,大廈,D608000069,公崙里,新北市新店區公崙里安民街10號,1,126.0,安康派出所,,121.5154,24.96423
大樓,達觀鎮社區,D608000070,達觀里,新北市新店區達觀里達觀路43號,2,1237.0,安康派出所,,121.503,24.93813
大樓,達觀鎮社區,D608000071,達觀里,新北市新店區達觀里達觀路41號,2,1227.0,安康派出所,,121.5025,24.93841
大樓,達觀鎮萬象社區,D608000072,達觀里,新北市新店區達觀里達觀路40號,2,827.0,安康派出所,,121.5034,24.93882
大樓,達觀鎮A7社區,D608000073,達觀里,新北市新店區達觀里達觀路38號,3,1125.0,安康派出所,,121.5023,24.93936
大樓,早安華城社區,D608000074,公崙里,新北市新店區公崙里安忠路57巷26弄22號,1,372.0,安康派出所,,121.5125,24.95839
公寓,及人中學,D608000075,柴埕里,新北市新店區柴埕里安興路1號,1,225.0,安康派出所,,121.5149,24.96629
大樓,大樓,D608000076,柴埕里,新北市新店區柴埕里安民街68號,1,86.0,安康派出所,,121.5165,24.96647
大樓,桃李村風第一期,D608000077,柴埕里,新北市新店區柴埕里安民街202號,2,744.0,安康派出所,,121.5173,24.97184
大樓,師苑翠堤,D608000078,公崙里,新北市新店區公崙里安民街1號,1,269.0,安康派出所,,121.5152,24.96405
大樓,鮮境,D608000079,德安里,新北市新店區德安里安康路二段159巷31號,2,543.0,安康派出所,,121.5104,24.95866
大樓,桃李村風二期,D608000080,柴埕里,新北市新店區柴埕里安民街190巷1號,2,732.0,安康派出所,,121.5174,24.97114
大樓,快樂世界,D608000081,柴埕里,新北市新店區柴埕里安民街191號,2,2790.0,安康派出所,,121.5169,24.97112
大樓,台北金鑽,D608000082,公崙里,新北市新店區公崙里安康路二段93號,2,532.0,安康派出所,,121.5132,24.96273
大樓,滿意家,D608000083,柴埕里,新北市新店區柴埕里安民街176號,1,770.0,安康派出所,,121.517,24.9708
大樓,華廈,D608000084,公崙里,新北市新店區公崙里安忠路20號,1,583.0,安康派出所,,121.5145,24.96212
大樓,華城名門,D608000085,公崙里,新北市新店區公崙里安忠路57巷3號,2,931.0,安康派出所,,121.5137,24.9595
大樓,永保安康,D608000086,德安里,新北市新店區德安里安康路二段155號,3,1485.0,安康派出所,,121.5106,24.95961
大樓,安康高中,D608000087,柴埕里,新北市新店區柴埕里安興路25號,1,1268.0,安康派出所,,121.5149,24.96881
大樓,安居公教,D608000088,公崙里,新北市新店區公崙里安忠路40號,2,3484.0,安康派出所,,121.5131,24.95991
大樓,安居公教,D608000089,公崙里,新北市新店區公崙里安忠路56巷1號,2,1512.0,安康派出所,,121.5124,24.95909
大樓,雅仕堡大樓,D608000090,公崙里,新北市新店區公崙里安忠路57巷26弄58號,2,967.0,安康派出所,,121.5119,24.95729
大樓,大樓,D608000091,公崙里,新北市新店區公崙里安康路二段85巷11號,1,96.0,安康派出所,,121.5138,24.96223
大樓,台北寧靜大樓,D608000092,公崙里,新北市新店區公崙里安忠路57巷26弄35號,2,614.0,安康派出所,,121.5121,24.95786
公寓,公寓,D608000093,柴埕里,新北市新店區柴埕里安民街133巷22號,1,221.0,安康派出所,,121.5158,24.96938
大樓,台北寧靜大樓,D608000094,公崙里,新北市新店區公崙里安忠路57巷26弄21號,1,75.0,安康派出所,,121.5126,24.9583
大樓,華廈,D608000095,安昌里,新北市新店區安昌里安德街28號,1,188.0,安康派出所,,121.5118,24.96286
大樓,華廈,D608000096,公崙里,新北市新店區公崙里安忠路57巷2號,1,491.0,安康派出所,,121.5133,24.95935
大樓,夏綠蒂,D608000097,安昌里,新北市新店區安昌里安德街60巷5號,2,743.0,安康派出所,,121.5096,24.96206
大樓,景文科技大學,D608000098,公崙里,新北市新店區公崙里安忠路99號,1,1176.0,安康派出所,,121.5092,24.95197
大樓,悠秀,D608000099,公崙里,新北市新店區公崙里安德街26巷8號,1,317.0,安康派出所,,121.5117,24.96326
大樓,全聯福利中心,D608000100,公崙里,新北市新店區公崙里安康路二段120號,2,832.0,安康派出所,,121.5127,24.96268
大樓,柴埕市民活動中心,D608000101,柴埕里,新北市新店區柴埕里安民街79號,2,620.0,安康派出所,,121.5166,24.96738
大樓,大樓,D608000102,柴埕里,新北市新店區柴埕里安民街189號之6,1,142.0,安康派出所,,121.5169,24.97108
大樓,早安康橋,D608000103,安昌里,新北市新店區安昌里安德街50號,3,635.0,安康派出所,,121.511,24.96243
大樓,新北市青少年圖書館,D608000104,安昌里,新北市新店區安昌里安康路二段151號,2,1180.0,安康派出所,,121.5108,24.95982
大樓,21City花園廣場,D608000105,公崙里,新北市新店區公崙里安康路二段147號,2,498.0,安康派出所,,121.5113,24.95993
大樓,21City花園廣場,D608000106,公崙里,新北市新店區公崙里安康路二段149號,2,2668.0,安康派出所,,121.5111,24.95986
大樓,21City花園廣場,D608000107,公崙里,新北市新店區公崙里安忠路84巷8號,1,270.0,安康派出所,,121.5117,24.95899
大樓,光榮時代,D608000108,公崙里,新北市新店區公崙里安民街41號,3,1015.0,安康派出所,,121.5155,24.96569
大樓,博覽天下莫內社區,D608000109,柴埕里,新北市新店區柴埕里安民街156巷26號,2,708.0,安康派出所,,121.5174,24.96993
大樓,光之玫瑰,D608000110,柴埕里,新北市新店區柴埕里安民街189號之1,1,386.0,安康派出所,,121.5168,24.97092
大樓,大樓,D608000111,公崙里,新北市新店區公崙里安忠路57巷1-7號,4,211.0,安康派出所,,121.5135,24.95947
大樓,北城心殿,D608000112,公崙里,新北市新店區公崙里安康路二段118號之1,3,1906.0,安康派出所,,121.513,24.96316
大樓,博覽天下梵谷特區,D608000113,柴埕里,新北市新店區柴埕里安民街156巷25號,1,1010.0,安康派出所,,121.5176,24.97013
大樓,達觀國中,D608000114,德安里,新北市新店區德安里僑信路1號,1,1838.0,安康派出所,,121.5,24.95388
大樓,博覽天下塞尚特區,D608000115,柴埕里,新北市新店區柴埕里安民街158號,1,567.0,安康派出所,,121.5168,24.97023
大樓,博覽天下高更特區,D608000116,柴埕里,新北市新店區柴埕里安民街154號,1,695.0,安康派出所,,121.5168,24.97
大樓,耕莘醫院(安康院區),D608000117,德安里,新北市新店區德安里車子路15號,1,2374.0,安康派出所,不張貼標誌牌,,
大樓,風華社區,D608000118,安昌里,新北市新店區安昌里安成街2巷1號,1,1020.0,安康派出所,,121.5111,24.96044
大樓,玖宜美學,D608000119,公崙里,新北市新店區公崙里安忠路57巷26弄2號,1,273.0,安康派出所,,121.5128,24.95878
大樓,合唐儷賞,D608000120,公崙里,新北市新店區公崙里安忠路84巷1號之1,1,137.0,安康派出所,,121.5117,24.95884
大樓,i漂亮大樓,D608000121,安昌里,新北市新店區安昌里安德街74巷6號,1,833.0,安康派出所,,121.5102,24.96197
大樓,K6湛,D608000122,公崙里,新北市新店區公崙里安德街2-20號,1,599.0,安康派出所,,121.5122,24.96279
大樓,將捷家和,D608000123,公崙里,新北市新店區公崙里安和路一段25號,1,1426.0,安康派出所,,121.517,24.96524
大樓,御林園,D608000124,公崙里,新北市新店區公崙里安忠路57巷27號,1,452.0,安康派出所,,121.5133,24.95822
大樓,勝旺有境,D608000125,公崙里,新北市新店區公崙里安光路16號,1,1230.0,安康派出所,,121.5138,24.9648
大樓,成美大樓,D608000126,安昌里,新北市新店區安昌里安德街26巷1號,3,812.0,安康派出所,,121.5116,24.96312
大樓,華廈,D608000127,柴埕里,新北市新店區柴埕里碧安街2號,1,74.0,安康派出所,,121.5174,24.96763
大樓,淳瀞,D608000128,公崙里,新北市新店區公崙里安光路15巷18號,3,245.0,安康派出所,,121.5121,24.96391
大樓,元寶双囍,D608000129,柴埕里,新北市新店區柴埕里光華街10號,1,571.0,安康派出所,,121.5178,24.96906
大樓,大樓,D608000130,安昌里,新北市新店區安昌里安德街60巷11-1號,1,55.0,安康派出所,,121.5105,24.96253
大樓,大樓,D608000131,安昌里,新北市新店區安昌里安德街60巷11號,1,46.0,安康派出所,,121.5104,24.96242
大樓,合陽天擎,D608000132,公崙里,新北市新店區公崙里安光路25號,1,5105.0,安康派出所,,121.5134,24.96443
大樓,大樓,D608000133,柴埕里,新北市新店區柴埕里安民街249號,1,128.0,安康派出所,,121.5172,24.97228
大樓,好康居,D608000134,公崙里,新北市新店區公崙里公崙里安康路2段108號,1,318.0,安康派出所,,121.5134,24.963
大樓,華廈,D608000135,德安里,新北市新店區德安里安康路二段159巷27號,1,163.0,安康派出所,,121.5106,24.9587
大樓,公寓,D60A000003,萬順里,新北市深坑區萬順里北深路3段301-303號,1,260.0,深坑分駐所,,121.5981,25.00465
大樓,華廈,D60A000004,萬順里,新北市深坑區萬順里北深路3段299號,1,304.0,深坑分駐所,,121.5981,25.00462
大樓,華廈,D60A000005,萬順里,新北市深坑區萬順里北深路3段61-67號,1,212.0,深坑分駐所,,121.6072,25.00141
公寓,公寓,D60A000006,賴仲里,新北市深坑區賴仲里翠谷街18-20號,1,150.0,深坑分駐所,,121.6271,25.00875
大樓,華廈,D60A000007,埔新里,新北市深坑區埔新里文化街78-80號,1,334.0,深坑分駐所,,121.618,25.00206
大樓,華廈,D60A000009,賴仲里,新北市深坑區賴仲里翠谷街21巷1.2.3.6號,1,280.0,深坑分駐所,,121.6269,25.00846
公寓,公寓,D60A000010,埔新里,新北市深坑區埔新里文化街62.64號,1,145.0,深坑分駐所,,121.617,25.00198
公寓,公寓,D60A000011,埔新里,新北市深坑區埔新里文化街12-14號,1,220.0,深坑分駐所,,121.6203,25.00141
大樓,華廈,D60A000012,埔新里,新北市深坑區埔新里埔新街50號,1,576.0,深坑分駐所,,121.6206,25.00273
大樓,香榭華城,D60A000013,深坑里,新北市深坑區深坑里文化街29號,1,3609.0,深坑分駐所,,121.6194,25.0014
大樓,山水庭園,D60A000014,深坑里,新北市深坑區深坑里文化街39巷45弄2.6號,1,1002.0,深坑分駐所,,121.6194,25.00029
大樓,翠谷山莊,D60A000015,賴仲里,新北市深坑區賴仲里翠谷街38號,1,376.0,深坑分駐所,,121.6272,25.00919
大樓,華廈,D60A000016,埔新里,新北市深坑區埔新里北深路2段43巷11弄1號,1,552.0,深坑分駐所,,121.6198,25.00376
大樓,美麗人生,D60A000017,深坑里,新北市深坑區深坑里深坑街21號,1,1025.0,深坑分駐所,,121.6164,25.00212
大樓,華廈,D60A000018,萬順里,新北市深坑區萬順里北深路3段189巷2.191號,1,152.0,深坑分駐所,,121.6009,25.00325
大樓,華廈,D60A000019,萬順里,新北市深坑區萬順里北深路3段197號,1,211.0,深坑分駐所,,121.601,25.00372
大樓,蔚嵐山莊,D60A000020,埔新里,新北市深坑區埔新里北深路二段2巷8號,1,1011.0,深坑分駐所,,121.6208,25.00658
公寓,公寓,D60A000021,深坑里,新北市深坑區深坑里北深路2段132巷8弄1號,1,282.0,深坑分駐所,,121.616,25.00343
大樓,清溪社區,D60A000022,埔新里,新北市深坑區埔新里埔新街35巷6號,1,645.0,深坑分駐所,,121.6211,25.0029
大樓,大樓,D60A000023,埔新里,新北市深坑區埔新里埔新街10號,1,699.0,深坑分駐所,,121.6206,25.00403
大樓,華廈,D60A000024,埔新里,新北市深坑區埔新里北深路2段82號,1,277.0,深坑分駐所,,121.6176,25.00363
大樓,情趣大國,D60A000025,昇高里,新北市深坑區昇高里雲鄉路176號,1,1075.0,深坑分駐所,,121.6224,24.99827
大樓,情趣大國,D60A000026,昇高里,新北市深坑區昇高里雲鄉路133號,1,450.0,深坑分駐所,,121.6227,24.99807
公寓,公寓,D60A000027,萬順里,新北市深坑區萬順里北深路3段283號,1,130.0,深坑分駐所,,121.5985,25.00452
大樓,大樓,D60A000028,深坑里,新北市深坑區深坑里深坑街42號,1,91.0,深坑分駐所,,121.615,25.00183
大樓,佳麗堡,D60A000029,萬順里,新北市深坑區萬順里北深路3段349號,3,725.0,深坑分駐所,,121.5969,25.00505
大樓,世新山莊,D60A000030,賴仲里,新北市深坑區賴仲里深南路43號,3,486.0,深坑分駐所,,121.6207,25.00968
大樓,世新山莊,D60A000031,賴仲里,新北市深坑區賴仲里深南路23號,3,2251.0,深坑分駐所,,121.6202,25.01011
大樓,大樓,D60A000032,萬福里,新北市深坑區萬福里北深路3段286巷39號,1,228.0,深坑分駐所,,121.5969,25.00697
大樓,青山雄觀北區B棟,D60A000033,賴仲里,新北市深坑區賴仲里深南路176號,1,491.0,深坑分駐所,,121.6264,25.01513
大樓,巨普新鮮市,D60A000034,深坑里,新北市深坑區深坑里北深路2段124號,1,706.0,深坑分駐所,,121.6163,25.00309
大樓,華廈,D60A000035,深坑里,新北市深坑區深坑里北深路2段73號,1,389.0,深坑分駐所,,121.6173,25.00365
大樓,萊茵河畔,D60A000036,深坑里,新北市深坑區深坑里平埔街22巷17弄1號,1,843.0,深坑分駐所,,121.6148,25.00073
大樓,青山雄觀北區A棟,D60A000037,賴仲里,新北市深坑區賴仲里風格街2號,1,1264.0,深坑分駐所,,121.627,25.01664
大樓,台北海灣假日酒店,D60A000038,萬順里,新北市深坑區萬順里北深路3段265號,3,1287.0,深坑分駐所,,121.5987,25.00429
大樓,華廈,D60A000039,深坑里,新北市深坑區深坑里深坑街126號,1,320.0,深坑分駐所,,121.6134,25.00134
大樓,老實小鎮,D60A000041,萬順里,新北市深坑區萬順里北深路3段215巷1號,1,3118.0,深坑分駐所,,121.6002,25.00361
大樓,自在心境,D60A000044,深坑里,新北市深坑區深坑里北深路2段123巷115號,1,199.0,深坑分駐所,,121.6167,25.00292
大樓,敦化南麓,D60A000046,土庫里,新北市深坑區土庫里松柏街33號,1,1695.0,深坑分駐所,,121.6384,25.01162
大樓,金寶電子,D60A000047,萬順里,新北市深坑區萬順里北深路3段147號,1,2335.0,深坑分駐所,,121.6028,25.00265
大樓,大樓,D60A000048,深坑里,新北市深坑區深坑里平埔街22巷8號,1,875.0,深坑分駐所,,121.615,25.00098
大樓,中華電信,D60A000049,深坑里,新北市深坑區深坑里深坑街14號,1,831.0,深坑分駐所,不張貼標誌牌,,
大樓,深坑國小,D60A000050,深坑里,新北市深坑區深坑里文化街45號,1,1060.0,深坑分駐所,,121.6169,25.0018
大樓,約納家園,D60A000051,深坑里,新北市深坑區深坑里北深路2段155號,1,679.0,深坑分駐所,,121.6141,25.00212
大樓,東南科技大學,D60A000052,萬福里,新北市深坑區萬福里北深路3段152號,1,1411.0,深坑分駐所,,121.6047,25.00443
大樓,福容大飯店(台北二館),D60A000053,萬福里,新北市深坑區萬福里北深路3段236號,5,2740.0,深坑分駐所,,121.6004,25.00417
大樓,土庫市民活動中心,D60A000054,土庫里,新北市深坑區土庫里北深路1段83巷8弄36號,1,185.0,深坑分駐所,,121.6346,25.01002
大樓,信義時代,D60A000055,深坑里,新北市深坑區深坑里文山路2段10號,1,732.0,深坑分駐所,,121.6195,24.99978
大樓,華廈,D60A000056,深坑里,新北市深坑區深坑里深坑街37號,1,258.0,深坑分駐所,,121.6157,25.00206
大樓,石碇高中(宿舍),D60D000001,隆盛里,新北市石碇區隆盛里八分寮45號,1,652.0,楓子林派出所,,121.6426,25.01274
大樓,石碇高中(教室),D60D000002,隆盛里,新北市石碇區隆盛里八分寮45號,1,779.0,楓子林派出所,,121.6426,25.01274
大樓,華梵大學,D60E000001,豐田里,新北市石碇區豐田里華梵路1號,1,3013.0,豐田派出所,,121.6921,24.98002
大樓,坪林分駐所,D60F000001,坪林里,新北市坪林區坪林里坪林街106號,1,104.0,坪林分駐所,不張貼標誌牌,,
大樓,坪林區公所,D60F000002,坪林里,新北市坪林區坪林里坪林街101號,1,346.0,坪林分駐所,,121.7118,24.9364
大樓,坪林茶葉博物館,D60F000003,水德里,新北市坪林區水德里水聳淒坑19號之1,1,692.0,坪林分駐所,,121.7128,24.93434
大樓,坪林國小,D60F000004,坪林里,新北市坪林區坪林里坪林街114號,1,241.0,坪林分駐所,,121.7109,24.93624
大樓,水柳腳立體停車場,D60F000005,坪林里,新北市坪林區坪林里水柳腳34號之1,1,660.0,坪林分駐所,,121.7102,24.93557
大樓,烏來分駐所,D60L000001,烏來里,新北市烏來區烏來里烏來街45號,1,215.0,烏來分駐所,不張貼標誌牌,,
大樓,烏來國民中小學,D60L000002,烏來里,新北市烏來區烏來里啦卡路5號,1,117.0,烏來分駐所,,121.5542,24.86304
大樓,烏來區民代表會,D60L000003,烏來里,新北市烏來區烏來里烏來街34號,1,459.0,烏來分駐所,,121.5512,24.86349
大樓,賓士大廈,D60O000001,吉祥里,新北市新店區吉祥里玫瑰路45巷2-4號,1,2612.0,雙城派出所,,121.4965,24.94894
大樓,滿堂彩,D60O000002,玫瑰里,新北市新店區玫瑰里玫瑰路58巷4號,1,1065.0,雙城派出所,,121.4952,24.94666
大樓,賓士大廈,D60O000004,玫瑰里,新北市新店區玫瑰里玫瑰路51巷2號,1,1828.0,雙城派出所,,121.4953,24.95007
大樓,錦秀社區,D60O000006,日興里,新北市新店區日興里錦秀路11巷35號,1,567.0,雙城派出所,,121.4803,24.94477
大樓,詩情畫意,D60O000007,吉祥里,新北市新店區吉祥里玫瑰路53巷1-16號,1,945.0,雙城派出所,,121.4959,24.94747
大樓,中央印製廠,D60O000008,雙城里,新北市新店區雙城里安康路三段235號,1,1595.0,雙城派出所,不張貼標誌牌,,
大樓,碧瑤社區,D60O000009,日興里,新北市新店區日興里錦秀路11巷96弄2號,2,270.0,雙城派出所,,121.48,24.94213
大樓,新鎮社區,D60O000010,香坡里,新北市新店區香坡里安祥路110巷2號,2,1421.0,雙城派出所,,121.4746,24.95695
大樓,台北新加坡儷園社區,D60O000011,日興里,新北市新店區日興里安康路三段696-736號,2,1459.0,雙城派出所,,121.4743,24.94253
大樓,台北新加坡隨園社區,D60O000012,日興里,新北市新店區日興里安康路三段738-778號,1,1406.0,雙城派出所,,121.4738,24.94209
大樓,北城大亨,D60O000013,玫瑰里,新北市新店區玫瑰里富貴街11巷8號,2,2486.0,雙城派出所,,121.4944,24.9487
大樓,綠野鴻福,D60O000014,香坡里,新北市新店區香坡里安祥路110巷30弄5號,2,1358.0,雙城派出所,,121.474,24.95667
大樓,綠野鴻福,D60O000015,香坡里,新北市新店區香坡里安祥路110巷30弄1號,2,505.0,雙城派出所,,121.4738,24.95652
大樓,琴鍵畫樓,D60O000016,吉祥里,新北市新店區吉祥里吉祥街2巷6號,2,1046.0,雙城派出所,,121.4971,24.94763
大樓,綠野香坡H區,D60O000017,香坡里,新北市新店區香坡里安祥路110巷71號,2,970.0,雙城派出所,,121.4738,24.95704
大樓,龍泉山莊,D60O000018,香坡里,新北市新店區香坡里安祥路110巷17弄1號,2,837.0,雙城派出所,,121.4737,24.95581
大樓,陽光山莊,D60O000019,香坡里,新北市新店區香坡里安祥路110巷19號,2,880.0,雙城派出所,,121.4736,24.95601
大樓,北城吉祥,D60O000020,吉祥里,新北市新店區吉祥里吉祥街6巷2號,2,1069.0,雙城派出所,,121.4975,24.94607
大樓,安祥山莊,D60O000021,香坡里,新北市新店區香坡里安祥路116號,1,1135.0,雙城派出所,,121.4748,24.9568
大樓,安祥山莊,D60O000022,香坡里,新北市新店區香坡里安祥路116號,1,1542.0,雙城派出所,,121.4748,24.9568
大樓,北城我家,D60O000023,玫瑰里,新北市新店區玫瑰里如意街51號,2,3643.0,雙城派出所,,121.4934,24.9473
大樓,大樓,D60O000024,日興里,新北市新店區日興里安康路三段561巷2弄14號,1,965.0,雙城派出所,,121.4761,24.94394
大樓,大樓,D60O000025,雙城里,新北市新店區雙城里安康路三段165巷12號,1,382.0,雙城派出所,,121.4894,24.95088
大樓,富貴園,D60O000026,玫瑰里,新北市新店區玫瑰里如意街7號,2,2083.0,雙城派出所,,121.4953,24.94865
大樓,雙城國小,D60O000027,雙城里,新北市新店區雙城里安康路3段322號,1,749.0,雙城派出所,,121.4865,24.95207
大樓,玫瑰園,D60O000028,玫瑰里,新北市新店區玫瑰里如意街13巷1弄1號,2,2495.0,雙城派出所,,121.495,24.94791
大樓,雙城派出所,D60O000029,雙城里,新北市新店區雙城里安康路三段209號,2,297.0,雙城派出所,不張貼標誌牌,,
大樓,消防隊(安康分隊),D60O000030,雙城里,新北市新店區雙城里安康路三段2號,2,503.0,雙城派出所,,121.4937,24.95382
大樓,綠中海一期社區,D60O000031,香坡里,新北市新店區香坡里安祥路69巷2弄1號,2,8980.0,雙城派出所,,121.4814,24.96109
大樓,綠灣社區氧生區,D60O000032,香坡里,新北市新店區香坡里安祥路71號,1,7472.0,雙城派出所,,121.4815,24.96243
大樓,大樓,D60O000033,香坡里,新北市新店區香坡里安祥路105號,3,708.0,雙城派出所,,121.4789,24.96178
大樓,國賓山莊,D60O000034,香坡里,新北市新店區香坡里安祥路108巷1號,2,3777.0,雙城派出所,,121.4749,24.95878
大樓,璦丁堡,D60O000035,雙城里,新北市新店區雙城里安泰路16號,1,1158.0,雙城派出所,,121.4854,24.94855
大樓,大樓,D60O000036,日興里,新北市新店區日興里安康路三段361號,1,129.0,雙城派出所,,121.484,24.95074
大樓,伴山別墅,D60O000037,香坡里,新北市新店區香坡里安祥路190巷2號,1,352.0,雙城派出所,,121.4784,24.95559
大樓,伴山別墅,D60O000038,香坡里,新北市新店區香坡里安祥路190巷1號,1,894.0,雙城派出所,,121.4785,24.9562
大樓,伴山別墅,D60O000039,香坡里,新北市新店區香坡里安祥路152巷2號,1,385.0,雙城派出所,,121.4738,24.95362
大樓,伴山別墅,D60O000040,香坡里,新北市新店區香坡里安祥路199號,1,818.0,雙城派出所,,121.4759,24.9549
大樓,伴山別墅,D60O000041,香坡里,新北市新店區香坡里安祥路160號,2,1415.0,雙城派出所,,121.4768,24.95518
大樓,安泰華廈,D60O000042,雙城里,新北市新店區雙城里安康路三段283號,1,149.0,雙城派出所,,121.486,24.95155
大樓,伴山別墅,D60O000043,香坡里,新北市新店區香坡里安祥路152巷16號,1,424.0,雙城派出所,,121.4755,24.95327
大樓,伴山別墅,D60O000044,香坡里,新北市新店區香坡里安祥路156巷72號,1,1250.0,雙城派出所,,121.4747,24.95356
大樓,伴山別墅,D60O000045,香坡里,新北市新店區香坡里安祥路156巷2號,1,2216.0,雙城派出所,,121.4736,24.95447
大樓,伴山別墅,D60O000046,香坡里,新北市新店區香坡里安祥路156巷1號,1,1306.0,雙城派出所,,121.4739,24.95458
大樓,伴山別墅,D60O000047,香坡里,新北市新店區香坡里安祥路158巷1號,1,1970.0,雙城派出所,,121.4751,24.95457
大樓,伴山別墅,D60O000048,香坡里,新北市新店區香坡里安祥路152巷2弄1號,1,772.0,雙城派出所,,121.473,24.95482
大樓,宜家我家,D60O000049,日興里,新北市新店區日興里安康路三段413號,1,316.0,雙城派出所,,121.4834,24.95003
大樓,一畝田,D60O000050,雙城里,新北市新店區雙城里安康路三段167號,1,586.0,雙城派出所,,121.4895,24.9517
大樓,青森匯,D60O000051,雙城里,新北市新店區雙城里安康路三段118號,3,2240.0,雙城派出所,,121.4912,24.95184
大樓,別墅天廈,D60R000003,安和里,新北市新店區安和里安和路二段209號,2,5518.0,安和派出所,,121.5176,24.97536
大樓,朝代名門,D60R000004,永平里,新北市新店區永平里安和路三段165號,1,434.0,安和派出所,,121.5163,24.98581
大樓,京城大廈,D60R000005,安和里,新北市新店區安和里安興路96號之3,1,331.0,安和派出所,,121.515,24.97663
大樓,家園,D60R000006,永平里,新北市新店區永平里永平街21號,1,303.0,安和派出所,,121.517,24.98333
大樓,三元吉第,D60R000007,永平里,新北市新店區永平里安和路3段47巷1號,2,1887.0,安和派出所,,121.5177,24.98244
大樓,永安居,D60R000008,新和里,新北市新店區新和里永安街59號,1,437.0,安和派出所,,121.5188,24.98697
大樓,新和大廈,D60R000009,永平里,新北市新店區永平里安和路三段121號,1,437.0,安和派出所,,121.5174,24.98501
大樓,大利多,D60R000011,永安里,新北市新店區永安里安和路三段11號,1,691.0,安和派出所,,121.518,24.9808
大樓,歐堡名門,D60R000012,永平里,新北市新店區永平里永平街87號,2,434.0,安和派出所,,121.5163,24.98557
大樓,中和100,D60R000013,新和里,新北市新店區新和里新和街90號,1,2360.0,安和派出所,,121.5207,24.98599
大樓,新婚派對,D60R000014,安和里,新北市新店區安和里安和路二段185號,1,601.0,安和派出所,,121.5182,24.97478
大樓,有富欣殿,D60R000015,永平里,新北市新店區永平里永平街20號,2,395.0,安和派出所,,121.5168,24.98387
大樓,華廈,D60R000016,永平里,新北市新店區永平里永平街31號,1,119.0,安和派出所,,121.5166,24.98357
大樓,新中河社區,D60R000017,新和里,新北市新店區新和里永安街109巷2號,2,1811.0,安和派出所,,121.5212,24.98557
大樓,大樓,D60R000018,安和里,新北市新店區安和里安和路二段251號,1,420.0,安和派出所,,121.5165,24.97778
大樓,華廈,D60R000019,永安里,新北市新店區永安里新和街46號,1,363.0,安和派出所,,121.5195,24.98502
大樓,大樓,D60R000020,永安里,新北市新店區永安里安和路三段50號,1,381.0,安和派出所,,121.5182,24.98252
大樓,大樓,D60R000022,永安里,新北市新店區永安里安和路三段62號,1,1101.0,安和派出所,,121.5181,24.98291
大樓,泰隆金像獎,D60R000023,永安里,新北市新店區永安里新和街48巷1號,2,1220.0,安和派出所,,121.5198,24.98511
大樓,華廈,D60R000024,永安里,新北市新店區永安里永安街20巷1號,1,263.0,安和派出所,,121.5174,24.98614
大樓,超越中和,D60R000025,新和里,新北市新店區新和里永安街92巷1號,1,439.0,安和派出所,,121.5208,24.98561
大樓,大樓,D60R000026,永安里,新北市新店區永安里安和路三段60號,1,246.0,安和派出所,,121.5182,24.98277
大樓,幸福社區,D60R000027,安和里,新北市新店區安和里安和路二段235號,1,1050.0,安和派出所,,121.5169,24.97643
大樓,薪世界A區,D60R000028,永平里,新北市新店區永平里安和路三段105號,2,604.0,安和派出所,,121.5176,24.98448
大樓,華廈,D60R000029,永安里,新北市新店區永安里永安街56巷1號,1,315.0,安和派出所,,121.5186,24.98667
大樓,薪世界B區,D60R000030,永平里,新北市新店區永平里安和路三段95號,2,1106.0,安和派出所,,121.5177,24.98414
大樓,青年敦品,D60R000031,永平里,新北市新店區永平里永平街10號,2,527.0,安和派出所,,121.5172,24.98359
大樓,大樓,D60R000032,永平里,新北市新店區永平里永平街16巷1號,1,419.0,安和派出所,,121.517,24.98378
大樓,哈佛花園,D60R000033,永平里,新北市新店區永平里永平街83巷1號,2,995.0,安和派出所,,121.5161,24.98537
大樓,站前花鄉A區,D60R000034,永平里,新北市新店區永平里永平街16巷21號,2,508.0,安和派出所,,121.5171,24.98421
大樓,站前花鄉B區,D60R000035,永平里,新北市新店區永平里永平街16巷29號,2,88.0,安和派出所,,121.5168,24.98441
大樓,凡賽斯,D60R000036,安和里,新北市新店區安和里安民街212號,2,213.0,安和派出所,,121.5174,24.97215
大樓,新和國小,D60R000037,永安里,新北市新店區永安里安和路三段100號,1,422.0,安和派出所,,121.5182,24.98462
大樓,凡賽斯花園雅典娜社區,D60R000038,安和里,新北市新店區安和里安民街248號,3,1206.0,安和派出所,,121.5176,24.97281
大樓,大賣場,D60R000039,安和里,新北市新店區安和里安和路二段141號,1,2212.0,安和派出所,,121.5191,24.97335
大樓,有富欣殿,D60R000040,永平里,新北市新店區永平里永平街26號,2,1868.0,安和派出所,,121.5165,24.98378
大樓,美麗新天地,D60R000041,安和里,新北市新店區安和里安興路85號之35,2,1831.0,安和派出所,,121.5143,24.97543
大樓,美麗新天地,D60R000042,安和里,新北市新店區安和里安興路85號之1,2,1812.0,安和派出所,,121.515,24.97516
大樓,美麗新天地,D60R000043,安和里,新北市新店區安和里安興路83號之5,3,576.0,安和派出所,,121.5151,24.97551
大樓,馥隄,D60R000044,永安里,新北市新店區永安里安和路三段46號之14,1,203.0,安和派出所,,121.5187,24.98291
大樓,馥隄,D60R000045,永安里,新北市新店區永安里安和路三段46號之9,1,663.0,安和派出所,,121.5187,24.9826
大樓,大樓,D60R000046,永安里,新北市新店區永安里新和街32巷1號之1,1,81.0,安和派出所,,121.5194,24.98462
大樓,新北市立新店幼兒園,D60R000047,新和里,新北市新店區新和里新和街109號,1,465.0,安和派出所,,121.5216,24.98704
大樓,敦南花園別墅,D60R000048,安和里,新北市新店區安和里安興路95巷21號,1,460.0,安和派出所,,121.5126,24.97676
大樓,大樓,D60R000049,安和里,新北市新店區安和里安興路91巷5號,1,468.0,安和派出所,,121.5146,24.97478
大樓,敦南花園別墅,D60R000050,安和里,新北市新店區安和里安興路95巷50號,1,2842.0,安和派出所,,121.5122,24.97733
大樓,白金花園酒店,D60R000051,安和里,新北市新店區安和里安興路77號,2,1507.0,安和派出所,,121.5155,24.97519
大樓,白金花園酒店,D60R000052,安和里,新北市新店區安和里安興路67號之1,2,560.0,安和派出所,,121.5158,24.9751
大樓,陽光PARK,D60R000053,安和里,新北市新店區安和里安興路123號,1,4296.0,安和派出所,,121.5152,24.97926
大樓,辰邦工程,D60R000054,安和里,新北市新店區安和里安業街1號,1,535.0,安和派出所,,121.5161,24.97888
大樓,經濟部水利署新店辦公室,D60R000055,永安里,新北市新店區永安里安和路三段76號,1,723.0,安和派出所,,121.5181,24.98373
大樓,大樓,D501000001,秀山里,新北市汐止區秀山里勤進路14-16號,1,138.0,汐止派出所,,121.6586,25.062856
大樓,大樓,D501000002,秀峰里,新北市汐止區秀峰里仁愛路47號,1,218.0,汐止派出所,,121.6597,25.063271
大樓,汐止地政事務所,D501000003,秀峰里,新北市汐止區秀峰里新台五路1段262號,1,100.0,汐止派出所,,121.6584,25.06369
大樓,大東區小倆口,D501000005,自強里,新北市汐止區自強里新台五路1段214號,1,628.0,汐止派出所,,121.6559,25.063026
大樓,日出印象社區,D501000006,新昌里,新北市汐止區新昌里新台五路2段91號,1,1007.0,汐止派出所,,121.6652,25.067244
大樓,大樓,D501000007,福安里,新北市汐止區福安里仁愛路200巷11弄28號,1,701.0,汐止派出所,,121.6652,25.06573
大樓,仁愛綠多,D501000008,福安里,新北市汐止區福安里仁愛路152號,1,660.0,汐止派出所,,121.6641,25.064616
大樓,日出花園,D501000009,新昌里,新北市汐止區新昌里仁愛路316巷1號,1,1977.0,汐止派出所,,121.665,25.067785
大樓,仁愛巨星,D501000010,福安里,新北市汐止區福安里福安街41號,1,2753.0,汐止派出所,,121.6632,25.064816
大樓,大樓,D501000011,新昌里,新北市汐止區新昌里仁愛路320號,1,81.0,汐止派出所,,121.6647,25.067622
公寓,公寓,D501000012,自強里,新北市汐止區自強里新興路42號,1,476.0,汐止派出所,,121.657,25.06322
公寓,中央大公園,D501000013,自強里,新北市汐止區自強里新台五路1段232號23,1,370.0,汐止派出所,,121.6357,25.056572
公寓,青山學府社區,D501000014,自強里,新北市汐止區自強里莊敬街21-27號,1,1247.0,汐止派出所,,121.6548,25.06083
大樓,大樓,D501000015,自強里,新北市汐止區自強里莊敬街19巷1號,1,288.0,汐止派出所,,121.6574,25.0614
公寓,松濤園,D501000016,江北里,新北市汐止區江北里長江街39巷20號24,1,1048.0,汐止派出所,,121.6554,25.072074
大樓,大樓,D501000017,江北里,新北市汐止區江北里長江街57巷16號22,1,399.0,汐止派出所,,121.6561,25.072175
大樓,大樓,D501000018,江北里,新北市汐止區江北里長江街67巷2弄1號,1,829.0,汐止派出所,,121.6567,25.072312
公寓,世貿國家公園,D501000019,江北里,新北市汐止區江北里長江街99號,1,2787.0,汐止派出所,,121.6581,25.073033
大樓,國泰民安社區,D501000020,建成里,新北市汐止區建成里建成路160巷14號,3,2444.0,汐止派出所,,121.6618,25.073737
公寓,公寓,D501000021,建成里,新北市汐止區建成里建成路56巷24號,1,450.0,汐止派出所,,121.6631,25.073565
公寓,非常台北翡翠區,D501000022,建成里,新北市汐止區建成里建成路160巷37號,1,1771.0,汐止派出所,,121.6617,25.074057
大樓,琉森湖公園,D501000023,建成里,新北市汐止區建成里建成路22號,1,1579.0,汐止派出所,,121.6648,25.072678
大樓,非常台北鑽石區,D501000024,建成里,新北市汐止區建成里建成路160巷16號,1,985.0,汐止派出所,,121.6619,25.074014
大樓,琉森湖大廈,D501000025,城中里,新北市汐止區城中里建成路57巷1號,1,3750.0,汐止派出所,,121.6623,25.072466
大樓,東方科學園區,D501000026,文化里,新北市汐止區文化里新台五路1段90號,1,3508.0,汐止派出所,,121.6626,25.065416
大樓,宏碁大樓,D501000027,文化里,新北市汐止區文化里新台五路1段82號,1,13368.0,汐止派出所,,121.6473,25.060304
大樓,東方山莊,D501000028,文化里,新北市汐止區文化里南興路82巷3號,1,622.0,汐止派出所,,121.6425,25.031561
大樓,三甲好禮,D501000029,文化里,新北市汐止區文化里連興街128巷7弄12-34號,1,997.0,汐止派出所,,121.6535,25.061158
大樓,大樓,D501000030,文化里,新北市汐止區文化里南興路82巷3號15,1,3401.0,汐止派出所,,121.6528,25.05844
大樓,薄荷社區,D501000032,文化里,新北市汐止區文化里汐碇路16號,1,2136.0,汐止派出所,,121.6523,25.057416
大樓,合作金庫,D501000033,新昌里,新北市汐止區新昌里忠孝東路223號22,1,729.0,汐止派出所,,,
大樓,大樓,D501000034,義民里,新北市汐止區義民里中正路203號21,1,536.0,汐止派出所,,121.6585,25.068882
大樓,大樓,D501000036,秀峰里,新北市汐止區秀峰里福安街20巷30號32,1,239.0,汐止派出所,,121.6616,25.064414
大樓,大樓,D501000037,智慧里,新北市汐止區智慧里大同路2段187巷51號,1,159.0,汐止派出所,,121.6525,25.065904
大樓,宏國大鎮,D501000038,智慧里,新北市汐止區智慧里大同路2段273號,1,5374.0,汐止派出所,,121.6741,25.075738
大樓,大同世界,D501000039,智慧里,新北市汐止區智慧里大同路2段202號20,1,1034.0,汐止派出所,,121.6565,25.066525
大樓,大樓,D501000040,智慧里,新北市汐止區智慧里汐萬路1段33號,1,125.0,汐止派出所,,121.6557,25.067863
大樓,大樓,D501000041,智慧里,新北市汐止區智慧里汐萬路1段17號,1,134.0,汐止派出所,,121.6559,25.067472
大樓,世貿名人,D501000042,大同里,新北市汐止區大同里大同路2段236號,1,3461.0,汐止派出所,,121.654,25.064775
大樓,錦帝大廈,D501000043,大同里,新北市汐止區大同里大同路2段312巷2號,1,653.0,汐止派出所,,121.6556,25.06639
公寓,東方旺族,D501000044,大同里,新北市汐止區大同里大同路2段322巷2號,1,745.0,汐止派出所,,121.6562,25.066646
公寓,涵翠花園,D501000045,復興里,新北市汐止區復興里龍安路187號18,1,1004.0,汐止派出所,,121.6527,25.062714
大樓,潤泰陽光四季,D501000046,復興里,新北市汐止區復興里龍安路30號44,1,2732.0,汐止派出所,,121.6525,25.063631
大樓,翡翠花園,D501000047,復興里,新北市汐止區復興里龍安路171號17,1,1956.0,汐止派出所,,121.6532,25.062804
大樓,大樓,D501000048,復興里,新北市汐止區復興里連興街114號,1,173.0,汐止派出所,,121.6537,25.062841
大樓,大樓,D501000049,文化里,新北市汐止區文化里水源路1段271號,1,335.0,汐止派出所,,121.6542,25.058987
大樓,大樓,D501000050,新昌里,新北市汐止區新昌里新台五路2段67號,1,138.0,汐止派出所,,121.6638,25.066711
大樓,銀舜雙星社區,D501000051,福安里,新北市汐止區福安里新台五路2段146號,1,574.0,汐止派出所,,121.6534,25.061894
大樓,大樓,D501000052,禮門里,新北市汐止區禮門里大同路2段376號,1,284.0,汐止派出所,,121.6813,25.071319
大樓,大樓,D501000053,禮門里,新北市汐止區禮門里大同路2段368號,1,236.0,汐止派出所,,121.6576,25.06705
大樓,大樓,D501000054,禮門里,新北市汐止區禮門里中正路285號,1,172.0,汐止派出所,,121.6566,25.06812
大樓,中正福星,D501000055,禮門里,新北市汐止區禮門里中正路262號,1,390.0,汐止派出所,,121.6572,25.068601
大樓,平安東方連彩,D501000056,仁德里,新北市汐止區仁德里和平街28號,1,1334.0,汐止派出所,,121.6629,25.07083
大樓,潤泰陽光新廈,D501000057,自強里,新北市汐止區自強里莊敬街126號13,1,2203.0,汐止派出所,,121.6547,25.0612
大樓,大樓,D501000058,秀峰里,新北市汐止區秀峰里秀峰路83號,1,156.0,汐止派出所,,121.66,25.064131
大樓,大樓,D501000059,秀峰里,新北市汐止區秀峰里秀峰路87號93,1,570.0,汐止派出所,,121.6605,25.064516
大樓,凱旋大廈,D501000061,江北里,新北市汐止區江北里汐萬路1段218巷16號,1,1811.0,汐止派出所,,121.6522,25.073199
大樓,金點國之苑,D501000062,新昌里,新北市汐止區新昌里忠孝東路277號29,1,2708.0,汐止派出所,,121.6637,25.068508
大樓,大樓,D501000063,新昌里,新北市汐止區新昌里水碓街33號39,1,409.0,汐止派出所,,121.6647,25.069753
大樓,大樓,D501000064,橋東里,新北市汐止區橋東里忠孝東路458號,1,138.0,汐止派出所,,121.6662,25.072958
大樓,大樓,D501000065,橋東里,新北市汐止區橋東里忠孝東路460-466號,1,178.0,汐止派出所,,121.6659,25.070082
大樓,大樓,D501000066,橋東里,新北市汐止區橋東里忠孝東路510號,1,111.0,汐止派出所,,121.6669,25.075413
大樓,大樓,D501000067,橋東里,新北市汐止區橋東里忠孝東路497號,1,125.0,汐止派出所,,121.6663,25.074721
大樓,摩登家庭,D501000069,橋東里,新北市汐止區橋東里忠孝東路424號,1,2352.0,汐止派出所,,121.6661,25.071682
大樓,綠色生活公寓,D501000070,橋東里,新北市汐止區橋東里忠孝東路475號,1,746.0,汐止派出所,,121.666,25.073104
大樓,大樓,D501000071,橋東里,新北市汐止區橋東里忠孝東路397號,1,225.0,汐止派出所,,121.6657,25.070909
大樓,環翠天廈C,D501000072,復興里,新北市汐止區復興里連興路24號,1,2429.0,汐止派出所,,121.6552,25.063705
大樓,國泰環翠天廈,D501000073,復興里,新北市汐止區復興里連興路52號,1,1004.0,汐止派出所,,121.6541,25.063258
公寓,公寓,D501000075,江北里,新北市汐止區江北里長江街13巷12弄9-23號,1,375.0,汐止派出所,,121.6552,25.072294
大樓,馥記山莊A,D501000076,秀山里,新北市汐止區秀山里秀山路129號,1,888.0,汐止派出所,,121.6668,25.055319
大樓,馥記山莊B,D501000077,秀山里,新北市汐止區秀山里秀山路108號,1,531.0,汐止派出所,,121.6664,25.055023
大樓,仁愛學府,D501000078,秀山里,新北市汐止區秀山里仁愛路106巷1號,1,934.0,汐止派出所,,121.6626,25.063282
公寓,公寓,D501000079,秀山里,新北市汐止區秀山里勤進路102號,1,372.0,汐止派出所,,121.6655,25.057726
大樓,馥記山莊C,D501000080,秀山里,新北市汐止區秀山里秀山路147巷2號,1,1457.0,汐止派出所,,121.6693,25.055379
大樓,大樓,D501000081,秀山里,新北市汐止區秀山里仁愛路108號,1,428.0,汐止派出所,,121.6625,25.063431
大樓,馥記山莊D,D501000082,秀山里,新北市汐止區秀山里秀山路53巷23弄1號19,1,872.0,汐止派出所,,121.6674,25.05995
大樓,大樓,D501000083,秀山里,新北市汐止區秀山里勤進路419巷411號41,1,739.0,汐止派出所,,121.6651,25.053708
大樓,馥記山莊E,D501000085,秀山里,新北市汐止區秀山里秀山路53巷1號21,1,725.0,汐止派出所,,121.6682,25.059492
大樓,大樓,D501000088,白雲里,新北市汐止區白雲里水源路1段72巷6弄1號13,1,668.0,汐止派出所,,121.6553,25.055773
大樓,大樓,D501000089,白雲里,新北市汐止區白雲里水源路2段72巷6弄2號4,1,79.0,汐止派出所,,121.6555,25.055957
大樓,南天麗園大廈,D501000090,白雲里,新北市汐止區白雲里水源路2段36巷9號15,1,631.0,汐止派出所,,121.6548,25.056106
大樓,山青水秀山城之戀,D501000091,白雲里,新北市汐止區白雲里水源路2段36巷17號33,1,986.0,汐止派出所,,121.6548,25.056106
大樓,仁德福星,D501000094,仁德里,新北市汐止區仁德里和平街35號1,1,670.0,汐止派出所,,121.6624,25.070708
大樓,潤泰陽光天廈,D501000095,復興里,新北市汐止區復興里龍安路28巷6號,1,2702.0,汐止派出所,,121.6551,25.064548
大樓,忠孝名門二期,D501000098,新昌里,新北市汐止區新昌里忠孝東路208號,1,456.0,汐止派出所,,121.662,25.066374
大樓,國泰建設觀天下,D501000099,復興里,新北市汐止區復興里新台五路1段161號,1,838.0,汐止派出所,,121.6541,25.06265
大樓,台北東站,D501000100,橋東里,新北市汐止區橋東里忠孝東路491號,1,196.0,汐止派出所,,121.6662,25.074231
大樓,大樓,D501000101,新昌里,新北市汐止區新昌里新昌路17號,1,198.0,汐止派出所,,121.6618,25.06747
大樓,東方懷石,D501000102,橋東里,新北市汐止區橋東里鄉長路1段55巷11號,1,879.0,汐止派出所,,121.6653,25.076027
大樓,東方山河,D501000103,橋東里,新北市汐止區橋東里鄉長路1段55巷12號,1,1326.0,汐止派出所,,121.6653,25.076231
大樓,大樓,D501000104,新昌里,新北市汐止區新昌里水碓街26巷2號,1,221.0,汐止派出所,,121.6644,25.069661
大樓,東方桂冠,D501000105,白雲里,新北市汐止區白雲里水源路2段28號,1,4879.0,汐止派出所,,121.6571,25.05729
大樓,大樓,D501000106,新昌里,新北市汐止區新昌里水碓街26巷1號,1,168.0,汐止派出所,,121.6645,25.069637
大樓,登峰天下,D501000107,復興里,新北市汐止區復興里大同路1段184巷1號,1,2278.0,汐止派出所,,121.6539,25.063938
大樓,台北一六八社區,D501000109,自強里,新北市汐止區自強里青山路19巷2號,1,868.0,汐止派出所,,121.6565,25.06186
大樓,琉森湖社區,D501000110,城中里,新北市汐止區城中里建成路57巷1號,1,8181.0,汐止派出所,,121.6623,25.072466
大樓,青年守則社區,D501000111,建成里,新北市汐止區建成里建成路56巷69弄3號,2,4188.0,汐止派出所,,121.6634,25.073512
大樓,吾印良品,D501000112,城中里,新北市汐止區城中里建成路39號,1,2545.0,汐止派出所,,121.663,25.072883
大樓,大吉利社區,D501000113,新昌里,新北市汐止區新昌里新台五路2段87號,1,445.0,汐止派出所,,121.6648,25.06708
大樓,大樓,D501000114,復興里,新北市汐止區復興里新台五路1段141號,1,254.0,汐止派出所,,121.653,25.06221
大樓,快意通社區,D501000115,福安里,新北市汐止區福安里新台五路2段106號,1,1201.0,汐止派出所,,121.6626,25.065942
大樓,大樓,D501000116,新昌里,新北市汐止區新昌里忠孝東路255巷6號,1,404.0,汐止派出所,,121.6626,25.067806
大樓,大寧靜社區,D501000117,自強里,新北市汐止區自強里環山路6號,1,870.0,汐止派出所,,121.6577,25.060225
大樓,國泰人壽大樓,D501000118,智慧里,新北市汐止區智慧里大同路1段196號,1,405.0,汐止派出所,,121.6531,25.064566
大樓,一翔如意,D501000119,仁德里,新北市汐止區仁德里和平街46巷7弄2號,1,459.0,汐止派出所,,121.6623,25.071409
大樓,向日葵社區,D501000120,橋東里,新北市汐止區橋東里忠孝東路487號,1,2181.0,汐止派出所,,121.6661,25.073615
大樓,大樓,D501000121,新昌里,新北市汐止區新昌里新台五路2段1號,1,220.0,汐止派出所,,121.6619,25.065979
大樓,薇星旅館,D501000122,秀山里,新北市汐止區秀山里勤進路416號,1,305.0,汐止派出所,,121.6639,25.053587
大樓,和旺金三角,D501000123,復興里,新北市汐止區復興里新台五路1段159號,1,561.0,汐止派出所,,121.6538,25.062486
大樓,東方鴻大廈,D501000124,新昌里,新北市汐止區新昌里忠孝東路257號,1,1414.0,汐止派出所,,121.663,25.067758
大樓,國泰醫院研究宿舍,D501000125,建成里,新北市汐止區建成里建成路160巷63號,1,1177.0,汐止派出所,,121.6617,25.074721
大樓,大樓,D501000126,秀山里,新北市汐止區秀山里仁愛路36號,1,381.0,汐止派出所,,121.6605,25.062808
大樓,新秀賞社區,D501000127,福安里,新北市汐止區福安里新台五路2段86號,1,1422.0,汐止派出所,,121.6472,25.060659
大樓,馥邑名人巷社區,D501000128,義民里,新北市汐止區義民里中正路99巷2號,1,709.0,汐止派出所,,121.6609,25.068921
大樓,名吉社區,D501000129,自強里,新北市汐止區自強里新興路83號,1,813.0,汐止派出所,,121.6577,25.062042
大樓,遠東科技中心,D501000130,智慧里,新北市汐止區智慧里大同路2段171號,1,1734.0,汐止派出所,,121.6513,25.064713
大樓,凱旋大地,D501000131,江北里,新北市汐止區江北里康寧街885巷1號,1,2063.0,汐止派出所,,121.6502,25.076319
大樓,大樓,D501000132,江北里,新北市汐止區江北里汐萬路1段418巷1弄1號,1,1718.0,汐止派出所,,121.6506,25.078284
大樓,哈佛世家NO.1,D501000133,大同里,新北市汐止區大同里大同路2段276號,1,765.0,汐止派出所,,121.6549,25.06613
大樓,大樓,D501000134,大同里,新北市汐止區大同里水源路1段26號,1,284.0,汐止派出所,,121.6571,25.066443
大樓,遠東科技中心,D501000135,智慧里,新北市汐止區智慧里大同路2段125號,1,5402.0,汐止派出所,,121.6504,25.064002
大樓,佳鼎金都,D501000136,復興里,新北市汐止區復興里新興路3號,1,552.0,汐止派出所,,121.6564,25.065098
大樓,皇家天下,D501000137,復興里,新北市汐止區復興里新台五路1段167號,1,2038.0,汐止派出所,,121.6547,25.062849
大樓,大樓,D501000138,建成里,新北市汐止區建成里大同路2段689號,1,876.0,汐止派出所,,121.665,25.072559
大樓,哈佛世家,D501000139,智慧里,新北市汐止區智慧里大同路2段339號,1,446.0,汐止派出所,,121.656,25.067144
大樓,大樓,D501000140,江北里,新北市汐止區江北里長江街79巷1號,1,860.0,汐止派出所,,121.6572,25.072607
大樓,大樓,D501000141,建成里,新北市汐止區建成里建成路160巷32號,1,593.0,汐止派出所,,121.6619,25.074632
大樓,仁愛綠多A區,D501000142,福安里,新北市汐止區福安里仁愛路154號,1,900.0,汐止派出所,,121.664,25.064699
大樓,大樓,D501000143,福安里,新北市汐止區福安里新台五路2段150號,1,1489.0,汐止派出所,,121.6535,25.061964
大樓,台北新視窗,D501000144,自強里,新北市汐止區自強里新台五路1段192號,1,1951.0,汐止派出所,,121.6552,25.062748
大樓,合家歡,D501000145,自強里,新北市汐止區自強里新台五路1段190號,1,1951.0,汐止派出所,,121.6552,25.062689
公寓,秀峰國小,D501000146,秀山里,新北市汐止區秀山里仁愛路90號,1,65.0,汐止派出所,,121.6616,25.062576
公寓,秀峰國中,D501000147,秀峰里,新北市汐止區秀峰里忠孝東路201號,1,556.0,汐止派出所,,121.6601,25.065634
大樓,青山國小,D501000148,自強里,新北市汐止區自強里莊敬街33號,1,1555.0,汐止派出所,,121.6568,25.060713
大樓,大樓,D501000149,秀山里,新北市汐止區秀山里仁愛路130號,1,402.0,汐止派出所,,121.6632,25.063966
大樓,秀峰庭社區,D501000150,秀峰里,新北市汐止區秀峰里仁愛路99號,1,1587.0,汐止派出所,,121.6619,25.063242
大樓,日月亭公司,D501000152,復興里,新北市汐止區復興里忠孝東路1號,1,1184.0,汐止派出所,,121.657,25.064131
大樓,汐止國泰醫院,D501000153,城中里,新北市汐止區城中里建成路59巷2號,1,2981.0,汐止派出所,,,
大樓,大樓,D501000154,福安里,新北市汐止區福安里福安街61巷18號,1,61.0,汐止派出所,,121.6649,25.063487
大樓,綠竹賞公寓,D501000155,福安里,新北市汐止區福安里福安街61巷20號,1,689.0,汐止派出所,,121.6647,25.063283
大樓,新台五錄社區,D501000156,秀峰里,新北市汐止區秀峰里秀峰路81巷15弄11號至13號,1,343.0,汐止派出所,,121.6606,25.064433
大樓,皇家帝寶公寓,D501000157,福安里,新北市汐止區福安里仁愛路166號,1,2473.0,汐止派出所,,121.6643,25.065112
大樓,仁愛龍門,D501000158,福安里,新北市汐止區福安里仁愛路202號,1,594.0,汐止派出所,,121.6649,25.065873
大樓,秀峰庭二期社區,D501000159,秀峰里,新北市汐止區秀峰里仁愛路113巷15號,1,675.0,汐止派出所,,121.6619,25.063927
大樓,吉美京都大樓,D501000160,福安里,新北市汐止區福安里仁愛路207號,1,810.0,汐止派出所,,121.6649,25.066351
大樓,全民居易,D501000161,橋東里,新北市汐止區橋東里鄉長路1段55巷2號,1,387.0,汐止派出所,,121.6653,25.076231
大樓,汐止區公所,D501000162,秀峰里,新北市汐止區秀峰里新台五路1段268號,1,2029.0,汐止派出所,,121.659,25.063853
大樓,東方新都,D501000163,自強里,新北市汐止區自強里新台五路1段172號,1,663.0,汐止派出所,,121.6546,25.062488
大樓,自由年代大廈,D501000164,復興里,新北市汐止區復興里龍安路1號,1,1003.0,汐止派出所,,121.6564,25.064203
大樓,帝寶花園,D501000165,福安里,新北市汐止區福安里仁愛路152巷11號,1,1328.0,汐止派出所,,121.6641,25.064674
公寓,貝克漢社區,D501000166,復興里,新北市汐止區復興里復興路1號,1,1119.0,汐止派出所,,121.6562,25.06413
大樓,東方帝寶社區,D501000167,福安里,新北市汐止區福安里仁愛路185號,1,2245.0,汐止派出所,,121.6643,25.065418
大樓,綠意東台北,D501000168,自強里,新北市汐止區自強里莊敬街30號,1,625.0,汐止派出所,,121.6571,25.061525
公寓,站前晝隄B,D501000169,橋東里,新北市汐止區橋東里鄉長路1段55巷5號,1,229.0,汐止派出所,,121.6656,25.075943
大樓,站前晝隄A,D501000170,橋東里,新北市汐止區橋東里鄉長路1段55巷7號,1,415.0,汐止派出所,,121.6654,25.076017
大樓,新幹線社區,D501000171,復興里,新北市汐止區復興里龍安路202巷39號2,1,338.0,汐止派出所,,121.6522,25.063621
大樓,遠東科技公司,D501000172,智慧里,新北市汐止區智慧里大同路2段167號1,1,110.0,汐止派出所,,121.6511,25.064139
大樓,汐止國中,D501000173,禮門里,新北市汐止區禮門里大同路2段394號,1,1740.0,汐止派出所,,121.6398,25.059725
大樓,國家交響樂社區B,D501000175,福安里,新北市汐止區福安里仁愛路159號,1,2047.0,汐止派出所,,121.6637,25.065066
大樓,汐緻社區,D501000176,橋東里,新北市汐止區橋東里忠孝東路480號,1,285.0,汐止派出所,,121.6662,25.073511
大樓,綠意青禾大廈,D501000177,自強里,新北市汐止區自強里莊敬街29巷11號2,1,350.0,汐止派出所,,121.6572,25.060891
大樓,合康京站社區,D501000178,自強里,新北市汐止區自強里莊敬街29巷9弄1號2,1,310.0,汐止派出所,,121.6575,25.061048
大樓,璞緻社區,D501000179,文化里,新北市汐止區文化里水源路1段291巷1號,1,722.0,汐止派出所,,121.6544,25.058398
大樓,大樓,D501000180,自強里,新北市汐止區自強里莊敬街29巷16號,1,112.0,汐止派出所,,121.6572,25.060307
大樓,合康東極社區,D501000181,自強里,新北市汐止區自強里新興路106號,1,2014.0,汐止派出所,,121.6581,25.060853
大樓,東別館,D501000182,文化里,新北市汐止區文化里汐碇16-1巷1號,2,1615.0,汐止派出所,,121.6527,25.058342
大樓,米蘭社區,D501000183,信望里,新北市汐止區信望里大同2段508號,1,313.0,汐止派出所,,121.631,25.054991
大樓,甲山林天廈,D501000184,智慧里,新北市汐止區智慧里大同2段231號,1,3863.0,汐止派出所,,121.6535,25.065355
大樓,大樓,D501000185,城中里,新北市汐止區城中里大同2段653號,1,141.0,汐止派出所,,121.6647,25.071642
大樓,早安清境社區,D501000186,文化里,新北市汐止區文化里南興62號,4,2504.0,汐止派出所,,121.6523,25.05926
大樓,禾乾建設公司,D501000187,白雲里,新北市汐止區白雲里水源2段283巷1之1號,1,157.0,汐止派出所,,121.6606,25.049822
大樓,大樓,D501000188,信望里,新北市汐止區信望里大同路2段551巷2號,1,285.0,汐止派出所,,121.6624,25.069968
大樓,一翔如意大廈,D501000189,新昌里,新北市汐止區新昌里新台五路2段77號,3,478.0,汐止派出所,,121.6641,25.066832
大樓,大樓,D501000190,大同里,新北市汐止區大同里大同2段184巷1-1號,1,128.0,汐止派出所,,121.6537,25.063524
大樓,寰宇首席大廈,D501000191,大同里,新北市汐止區大同里大同2段226號,1,990.0,汐止派出所,,121.6538,25.065323
大樓,大樓,D501000192,城中里,新北市汐止區城中里建成路23巷32號,1,134.0,汐止派出所,,121.6642,25.071887
大樓,遠雄百貨,D501000193,復興里,新北市汐止區復興里新台五路1段99號,1,21540.0,汐止派出所,,121.6482,25.06162
大樓,雲天綠第,D501000194,秀峰里,新北市汐止區秀峰里新台五路1段270號,2,521.0,汐止派出所,,121.6591,25.064409
大樓,蘭亭序大廈,D501000195,江北里,新北市汐止區江北里汐萬路1段193號,1,1094.0,汐止派出所,,121.6524,25.071691
大樓,大樓,D501000196,復興里,新北市汐止區復興里新台五路1段137號,1,534.0,汐止派出所,,121.6528,25.062118
大樓,汐止分局,D501000197,義民里,新北市汐止區義民里大同路2段459號,1,1117.0,汐止派出所,,,
大樓,名城社區,D501000198,新昌里,新北市汐止區新昌里新昌路37號,1,998.0,汐止派出所,,121.6624,25.068113
大樓,矽科國際大樓,D501000199,文化里,新北市汐止區文化里南興路58號,1,479.0,汐止派出所,,121.6526,25.059556
大樓,國揚雲端科技中心,D501000200,文化里,新北市汐止區文化里南興路51號,3,2521.0,汐止派出所,,121.6525,25.060629
大樓,大樓,D501000201,文化里,新北市汐止區文化里南興81號,1,123.0,汐止派出所,,121.6529,25.059278
公寓,綠意皇邑社區,D501000202,橋東里,新北市汐止區橋東里忠孝東路490號,3,895.0,汐止派出所,,121.6664,25.074072
公寓,恆美學社區,D501000203,文化里,新北市汐止區文化里南興96號,1,107.0,汐止派出所,,121.6533,25.058689
大樓,康郡社區,D501000204,秀山里,新北市汐止區秀山里仁愛路106巷23號,1,431.0,汐止派出所,,121.6628,25.063
公寓,香帥蛋糕公司,D501000205,江北里,新北市汐止區江北里汐萬路1段211巷26號,1,228.0,汐止派出所,,121.6511,25.071759
大樓,春田吉事社區,D501000206,仁德里,新北市汐止區仁德里中正路36號,1,345.0,汐止派出所,,121.6623,25.070319
大樓,北歐情社區,D501000207,禮門里,新北市汐止區禮門里中正路296號,1,341.0,汐止派出所,,121.6566,25.068325
大樓,麗園社區,D501000208,禮門里,新北市汐止區禮門里大同路2段446號,1,452.0,汐止派出所,,121.6596,25.067273
大樓,合康雲極社區,D501000209,自強里,新北市汐止區自強里新興路121號,1,3482.0,汐止派出所,,121.6583,25.061097
大樓,閱泰然社區,D501000210,自強里,新北市汐止區自強里水源路1段168巷6號,1,437.0,汐止派出所,,121.6552,25.06225
大樓,品美學社區,D501000211,文化里,新北市汐止區文化里南興路89號,1,344.0,汐止派出所,,121.6532,25.058851
大樓,翠御社區,D501000212,文化里,新北市汐止區文化里汐碇1號,2,770.0,汐止派出所,,121.6535,25.058611
大樓,汐寶之星,D501000213,秀峰里,新北市汐止區秀峰里仁愛路43號,1,168.0,汐止派出所,,121.6597,25.063375
大樓,大同硯,D501000214,仁德里,新北市汐止區仁德里和平街5號,1,184.0,汐止派出所,,121.6633,25.070638
大樓,仁愛綠多B區,D501000215,福安里,新北市汐止區福安里仁愛路162號6,1,945.0,汐止派出所,,121.6647,25.064778
大樓,聖方濟天主堂,D501000216,城中里,新北市汐止區城中里大同路2段637號,1,698.0,汐止派出所,,121.6643,25.07141
大樓,忠孝大院,D501000217,橋東里,新北市汐止區橋東里忠孝東路415號,1,972.0,汐止派出所,,121.6658,25.071393
大樓,敦美苑,D501000218,福安里,新北市汐止區福安里仁愛路152巷45號,1,1206.0,汐止派出所,,121.6652,25.063531
大樓,大樓,D501000220,新昌里,新北市汐止區新昌里忠孝東路258巷16弄8號,1,156.0,汐止派出所,,121.6635,25.067299
大樓,優陞學,D501000221,秀山里,新北市汐止區秀山里仁愛路106巷2號,3、4,1177.0,汐止派出所,,121.6625,25.063417
大樓,萬達一品,D501000222,新昌里,新北市汐止區新昌里35鄰仁愛路329號,3,857.0,汐止派出所,,121.664,25.068283
大樓,忠孝誠藝,D501000223,橋東里,新北市汐止區橋東里20鄰忠孝東路506號,2,970.0,汐止派出所,,121.6666,25.075189
大樓,君勻社區,D501000224,橋東里,新北市汐止區橋東里14鄰忠孝東路496號,2,1165.0,汐止派出所,,121.6665,25.074372
大樓,兆鼎建設,D501000225,禮門里,新北市汐止區禮門里10鄰中正路281號,1,217.0,汐止派出所,,121.6566,25.068353
大樓,鉌田建設公司,D501000226,大同里,新北市汐止區大同里22鄰大同路2段184巷1之6號,1,368.0,汐止派出所,,121.6534,25.064571
大樓,大樓,D501000227,白雲里,新北市汐止區白雲里水源路2段125巷8弄1號,1,5829.0,汐止派出所,,121.6602,25.056821
大樓,大樓,D501000228,江北里,新北市汐止區江北里10鄰汐萬路1段168號2樓,1,221.0,汐止派出所,,121.653,25.071
大樓,江山萬里社區,D502000001,崇德里,新北市汐止區崇德里新台五路2段170號,3,2343.0,長安派出所,,121.6629,25.06703
公寓,公寓,D502000002,保長里,新北市汐止區保長里保一街9巷14號,4,135.0,長安派出所,,121.6744,25.081079
公寓,公寓,D502000003,保長里,新北市汐止區保長里保一街9巷8弄15號,1,763.0,長安派出所,,121.6741,25.080489
公寓,公寓,D502000004,保長里,新北市汐止區保長里長興街2段4巷11-23號,1,140.0,長安派出所,,121.6722,25.080174
大樓,大樓,D502000005,保長里,新北市汐止區保長里保一街35巷4號,2,661.0,長安派出所,,121.6748,25.080515
大樓,大樓,D502000006,保長里,新北市汐止區保長里保一街9巷8弄2號,1,214.0,長安派出所,,121.6739,25.080982
公寓,台北新天地A區,D502000007,保長里,新北市汐止區保長里保一街9巷19號,1,909.0,長安派出所,,121.6743,25.081179
大樓,大樓,D502000008,茄苳里,新北市汐止區茄苳里茄苳路267號,1,30.0,長安派出所,,121.6722,25.06818
大樓,大樓,D502000009,茄苳里,新北市汐止區茄苳里茄苳路269號,1,60.0,長安派出所,,121.6723,25.068161
大樓,大樓,D502000012,茄苳里,新北市汐止區茄苳里茄苳路274號27,1,268.0,長安派出所,,121.6718,25.06918
大樓,大樓,D502000013,茄苳里,新北市汐止區茄苳里茄苳路256號,1,147.0,長安派出所,,121.6717,25.068244
大樓,大樓,D502000014,茄苳里,新北市汐止區茄苳里茄苳路241號24,1,118.0,長安派出所,,121.6709,25.069875
公寓,龍璽大廈,D502000015,保安里,新北市汐止區保安里大同路3段392號39,1,1474.0,長安派出所,,121.6549,25.065146
大樓,天池社區,D502000017,鄉長里,新北市汐止區鄉長里鄉長路8號,1,2180.0,長安派出所,,121.6689,25.080824
大樓,摩登生活社區,D502000018,鄉長里,新北市汐止區鄉長里吉祥街11巷5-15號,2,786.0,長安派出所,,121.6673,25.080366
大樓,大樓,D502000019,鄉長里,新北市汐止區鄉長里長江街239號25,3,3698.0,長安派出所,,121.6625,25.079673
公寓,電器檢驗科技大樓,D502000020,崇德里,新北市汐止區崇德里茄苳路157號,1,1586.0,長安派出所,,121.6697,25.069764
大樓,大樓,D502000021,崇德里,新北市汐止區崇德里茄苳路90號,1,95.0,長安派出所,,121.6728,25.067483
公寓,公寓,D502000022,崇德里,新北市汐止區崇德里招商街21號,1,1529.0,長安派出所,,121.6669,25.068348
公寓,公寓,D502000024,茄苳里,新北市汐止區茄苳里忠孝東路382巷1弄14號,1,274.0,長安派出所,,121.6661,25.070225
大樓,大樓,D502000025,崇德里,新北市汐止區崇德里茄苳路66號之1,1,121.0,長安派出所,,121.6702,25.068638
大樓,大樓,D502000026,崇德里,新北市汐止區崇德里招商街11巷1號,1,708.0,長安派出所,,121.6666,25.068833
大樓,大樓,D502000027,崇德里,新北市汐止區崇德里中華街49號,2,329.0,長安派出所,,121.6676,25.071672
大樓,大樓,D502000028,崇德里,新北市汐止區崇德里茄苳路84號,1,368.0,長安派出所,,121.6724,25.067815
大樓,大樓,D502000029,保安里,新北市汐止區保安里汐平路1段28號,1,240.0,長安派出所,,121.682,25.070571
公寓,元康精神護理之家,D502000030,保安里,新北市汐止區保安里大同路3段369巷26號,1,1406.0,長安派出所,,121.6767,25.073561
公寓,公寓,D502000034,茄苳里,新北市汐止區茄苳里茄興街1號,1,296.0,長安派出所,,121.6733,25.067722
公寓,公寓,D502000035,茄苳里,新北市汐止區茄苳里茄安路16號,1,296.0,長安派出所,,121.6732,25.067884
大樓,大樓,D502000036,茄苳里,新北市汐止區茄苳里新台五路2段246號25,3,3290.0,長安派出所,,121.6747,25.065287
公寓,公寓,D502000037,保安里,新北市汐止區保安里大安街52巷4號10,1,1925.0,長安派出所,,121.6786,25.073083
公寓,公寓,D502000038,保長里,新北市汐止區保長里保長路35巷40號,1,124.0,長安派出所,,121.6738,25.080226
大樓,大樓,D502000039,茄苳里,新北市汐止區茄苳里茄苳路262號27,1,247.0,長安派出所,,121.6718,25.06918
公寓,TOYOTA保養廠,D502000040,長安里,新北市汐止區長安里大同路3段110號,1,93.0,長安派出所,,121.671,25.077029
大樓,安敦凱旋社區,D502000041,長安里,新北市汐止區長安里大同路3段66號,3,940.0,長安派出所,,121.6678,25.077034
大樓,大樓,D502000043,保長里,新北市汐止區保長里保一街25巷1號,2,777.0,長安派出所,,121.6742,25.080379
公寓,保長國小,D502000044,保安里,新北市汐止區保安里大同路3段553號,1,146.0,長安派出所,,121.6812,25.071863
大樓,茄冬華城,D502000045,崇德里,新北市汐止區崇德里茄苳路83號,2,4032.0,長安派出所,,121.6702,25.069573
大樓,大樓,D502000046,茄苳里,新北市汐止區茄苳里茄苳路259號,1,132.0,長安派出所,,121.672,25.068275
大樓,大樓,D502000048,保新里,新北市汐止區保新里大同路3段609號,4,965.0,長安派出所,,121.683,25.074505
大樓,大樓,D502000049,保新里,新北市汐止區保新里大同路3段611號,5,3154.0,長安派出所,,121.683,25.075195
大樓,青松市社區,D502000050,保長里,新北市汐止區保長里保一街49號,2,238.0,長安派出所,,121.6744,25.079921
大樓,大樓,D502000051,長安里,新北市汐止區長安里長興街1段16號,1,73.0,長安派出所,,121.6697,25.078851
大樓,茄苳之祿,D502000052,茄苳里,新北市汐止區茄苳里茄苳路206號,2,1839.0,長安派出所,,121.6703,25.068608
大樓,大樓,D502000053,保長里,新北市汐止區保長里保一街39號,2,616.0,長安派出所,,121.6742,25.080172
公寓,公寓,D502000054,長安里,新北市汐止區長安里長興街80號,1,248.0,長安派出所,,121.6707,25.079384
公寓,公寓,D502000055,長安里,新北市汐止區長安里長安路179號,1,364.0,長安派出所,,121.6719,25.077299
公寓,公寓,D502000056,長安里,新北市汐止區長安里長興街50號,1,129.0,長安派出所,,121.6706,25.079097
公寓,崇德國小,D502000057,崇德里,新北市汐止區崇德里茄苳路158號,1,358.0,長安派出所,,121.669,25.069433
公寓,公寓,D502000058,茄苳里,新北市汐止區茄苳里茄苳路225巷11弄18號,1,134.0,長安派出所,,121.671,25.069787
大樓,活力DOUBLE01,D502000059,茄苳里,新北市汐止區茄苳里新台五路2段242號,3,159.0,長安派出所,,121.6723,25.065749
大樓,活力DOUBLE02,D502000061,茄苳里,新北市汐止區茄苳里新台五路2段240號,4,290.0,長安派出所,,121.6722,25.065982
大樓,翠堤花園,D502000062,保長里,新北市汐止區保長里長興街2段50巷43號,2,1095.0,長安派出所,,121.6752,25.080988
大樓,微風小鎮,D502000063,保長里,新北市汐止區保長里保一街105號,4,1115.0,長安派出所,,121.675,25.080275
大樓,觀止社區,D502000064,崇德里,新北市汐止區崇德里茄苳路130號,5,1586.0,長安派出所,,121.6711,25.068586
大樓,森泉灣社區,D502000065,保長里,新北市汐止區保長里保長路102號,3,1989.0,長安派出所,,121.6748,25.078553
大樓,森泉灣社區,D502000066,保長里,新北市汐止區保長里保長路83號2,3,1211.0,長安派出所,,121.6747,25.07857
大樓,富美堂,D502000067,保安里,新北市汐止區保安里汐平路1段8號,3,331.0,長安派出所,,121.6808,25.070952
大樓,初韻社區,D502000068,保長里,新北市汐止區保長里保一街1號,2,167.0,長安派出所,,121.6737,25.081589
大樓,寶藏社區,D502000069,保長里,新北市汐止區保長里保長51巷18號,3,326.0,長安派出所,,121.6742,25.07889
大樓,大樓,D502000070,保長里,新北市汐止區保長里長興街2段60號,3,317.0,長安派出所,,121.6746,25.081794
大樓,合謙好境美境社區,D502000071,保長里,新北市汐止區保長里長興街2段56號3,3,705.0,長安派出所,,121.6744,25.081865
大樓,合謙富境社區,D502000072,保長里,新北市汐止區保長里長興街2段62號,3,531.0,長安派出所,,121.6746,25.081916
大樓,大樓,D502000073,長安里,新北市汐止區長安里長興街1段29號,2,211.0,長安派出所,,121.6698,25.079051
大樓,大樓,D502000074,保長里,新北市汐止區保長里保長路53號,3,499.0,長安派出所,,121.6736,25.078817
大樓,富貴名邸,D502000075,保安里,新北市汐止區保安里汐平路1段18號,3,211.0,長安派出所,,121.6814,25.070711
大樓,大樓,D502000076,茄苳里,新北市汐止區茄苳里茄苳路286號,2,206.0,長安派出所,,121.6724,25.067784
大樓,大樓,D502000077,保新里,新北市汐止區保新里保長路422號,2,1200.0,長安派出所,,121.6841,25.072236
大樓,大樓,D502000078,保新里,新北市汐止區保新里保長路428號,2,1190.0,長安派出所,,121.6843,25.072144
大樓,大樓,D502000079,長安里,新北市汐止區長安里忠孝東路520號,1,352.0,長安派出所,,121.6673,25.076212
大樓,大樓,D502000080,保新里,新北市汐止區保新里保長路431號,2,2837.0,長安派出所,,121.6832,25.073233
大樓,長安居,D502000081,長安里,新北市汐止區長安里長興街一段53號,1,195.0,長安派出所,,121.6704,25.079578
大樓,聯合科技中心A棟,D502000082,保新里,新北市汐止區保新里2鄰保長路427號,2,2858.0,長安派出所,,121.6833,25.073281
公寓,公寓,D502000083,保新里,新北市汐止區保新里2鄰保長路475號,1,3136.0,長安派出所,,121.6868,25.070717
大樓,大樓,D502000084,保長里,新北市汐止區保長里007鄰保一街9巷2號,1,101.0,長安派出所,,121.6738,25.081142
大樓,大樓,D502000085,茄苳里,新北市汐止區茄苳里24鄰新台五路2段238巷80號,1、2,1229.0,長安派出所,112,,
大樓,樺瑩科技股份有限公司,D502000086,長安里,新北市汐止區長安里14鄰大同路3段148號,1,805.0,長安派出所,,121.673,25.076183
公寓,山林溪社區,D503000002,烘內里,新北市汐止區烘內里汐萬路3段252巷7號,1,468.0,烘內派出所,,121.6441,25.104776
大樓,瑞松山莊,D503000003,烘內里,新北市汐止區烘內里瑞松街150巷20號,1,1037.0,烘內派出所,,121.6477,25.108986
大樓,雙璽帝寶社區,D503000004,拱北里,新北市汐止區拱北里汐萬路2段228巷31弄1號,1,1880.0,烘內派出所,,121.6475,25.091176
大樓,青山綠築社區,D503000005,拱北里,新北市汐止區拱北里汐萬路2段228巷18弄11號,1,2290.0,烘內派出所,,121.6491,25.090149
大樓,金龍特區社區,D503000006,拱北里,新北市汐止區拱北里汐萬路2段228巷31弄13號,1,1804.0,烘內派出所,,121.6472,25.091452
大樓,金龍特區社區,D503000007,拱北里,新北市汐止區拱北里汐萬路2段228巷31弄58號,1,3894.0,烘內派出所,,121.647,25.091969
公寓,伊頓飛瑞慕品公司,D503000008,拱北里,新北市汐止區拱北里汐萬路2段114號,1,709.0,烘內派出所,,121.6483,25.084841
大樓,金龍特區社區,D503000009,拱北里,新北市汐止區拱北里汐萬路2段228巷31弄10號,1,1226.0,烘內派出所,,121.6479,25.091291
大樓,金龍特區社區,D503000010,拱北里,新北市汐止區拱北里汐萬路2段228巷31弄5號,1,3139.0,烘內派出所,,121.6471,25.091652
大樓,金龍特區社區,D503000011,拱北里,新北市汐止區拱北里汐萬路2段228巷31弄141號,1,3744.0,烘內派出所,,121.6466,25.091933
公寓,北港國小,D503000013,拱北里,新北市汐止區拱北里汐萬路2段279號,1,154.0,烘內派出所,,121.6451,25.089142
公寓,基泰都鐸薔薇大廈,D503000014,烘內里,新北市汐止區烘內里汐萬路3段217巷1號,1,1883.0,烘內派出所,,121.6435,25.103184
大樓,雅典王朝C社區,D504000001,北山里,新北市汐止區北山里康寧街309號,3,686.0,社后派出所,,121.6273,25.067531
大樓,雅典王朝B社區,D504000002,北山里,新北市汐止區北山里康寧街301號,3,1768.0,社后派出所,,121.6267,25.067429
大樓,大樓,D504000003,北山里,新北市汐止區北山里明峰街29號,2,250.0,社后派出所,,121.6341,25.071336
大樓,大樓,D504000004,湖光里,新北市汐止區湖光里康寧街505號,2,210.0,社后派出所,,121.6329,25.068637
大樓,桃李天廈,D504000005,厚德里,新北市汐止區厚德里樟樹一路222號,2,543.0,社后派出所,,121.6424,25.066398
大樓,大湖翠亨村B區,D504000006,北山里,新北市汐止區北山里康寧街61巷25弄1號,2,803.0,社后派出所,,121.6192,25.067582
大樓,大湖翠亨村A區,D504000007,北山里,新北市汐止區北山里康寧街61巷51號,2,845.0,社后派出所,,121.6199,25.06771
大樓,東方巴黎社區,D504000008,福德里,新北市汐止區福德里福德一路201巷1號,3,4189.0,社后派出所,,121.6356,25.065498
大樓,大樓,D504000009,北山里,新北市汐止區北山里康寧街332號,2,801.0,社后派出所,,121.6276,25.067372
公寓,公寓,D504000010,湖光里,新北市汐止區湖光里明峰街12號之7,1,250.0,社后派出所,,121.6351,25.071528
大樓,大樓,D504000011,湖光里,新北市汐止區湖光里明峰街15號,1,78.0,社后派出所,,121.6348,25.071398
公寓,公寓,D504000012,北山里,新北市汐止區北山里明峰街297巷5弄1號,1,167.0,社后派出所,,121.6258,25.067614
公寓,公寓,D504000013,北山里,新北市汐止區北山里康寧街304號,1,218.0,社后派出所,,121.6263,25.067142
大樓,東方皇第,D504000014,中興里,新北市汐止區中興里福德二路181巷165號,2,766.0,社后派出所,,121.6305,25.064879
公寓,公寓,D504000015,樟樹里,新北市汐止區樟樹里中興路72號,1,179.0,社后派出所,,121.6352,25.061699
大樓,雅典王朝A社區,D504000016,北山里,新北市汐止區北山里明峰街307弄283號,2,2459.0,社后派出所,,121.6264,25.068364
公寓,生活大國,D504000017,康福里,新北市汐止區康福里福德一路83號,1,194.0,社后派出所,,121.6357,25.065865
公寓,公寓,D504000018,湖光里,新北市汐止區湖光里民族一街19號,1,67.0,社后派出所,,121.6341,25.070804
公寓,凱歌世界,D504000019,山光里,新北市汐止區山光里樟樹二路325號,2,1083.0,社后派出所,,121.6413,25.070212
大樓,大湖國家三期社區,D504000020,北山里,新北市汐止區北山里康寧街133號,2,1229.0,社后派出所,,121.621,25.066652
大樓,中興大道,D504000021,樟樹里,新北市汐止區樟樹里中興路96巷2號,2,1631.0,社后派出所,,121.6351,25.062397
大樓,大樓,D504000022,湖光里,新北市汐止區湖光里康寧街589號,2,589.0,社后派出所,,121.6351,25.070199
大樓,康寧郡社區,D504000023,北山里,新北市汐止區北山里康寧街281號,2,876.0,社后派出所,,121.6261,25.067256
公寓,公寓,D504000024,樟樹里,新北市汐止區樟樹里大同路一段336號,1,31.0,社后派出所,,121.6379,25.058901
公寓,公寓,D504000025,湖光里,新北市汐止區湖光里明峰街20號,1,147.0,社后派出所,,121.6346,25.071559
公寓,公寓,D504000026,湖光里,新北市汐止區湖光里明峰街28號,1,133.0,社后派出所,,121.6341,25.07151
大樓,情趣家社區,D504000027,興福里,新北市汐止區興福里福德一路152號,2,656.0,社后派出所,,121.6365,25.066827
大樓,康寧科技園區,D504000028,北山里,新北市汐止區北山里康寧街147號,2,1871.0,社后派出所,,121.6218,25.067162
公寓,公寓,D504000029,北峰里,新北市汐止區北峰里明峰街190號,1,462.0,社后派出所,,121.6281,25.069749
大樓,生產力大樓,D504000030,環河里,新北市汐止區環河里福德一路381巷25號,2,526.0,社后派出所,,121.6288,25.059762
公寓,人情味小鎮B區,D504000031,康福里,新北市汐止區康福里福德一路1號,1,126.0,社后派出所,,121.6357,25.066024
公寓,財團法人生物技術開發中心(A),D504000032,北山里,新北市汐止區北山里康寧街169巷101號,2,388.0,社后派出所,,121.6227,25.070097
大樓,經緯大樓,D504000033,樟樹里,新北市汐止區樟樹里大同路一段175號,3,2411.0,社后派出所,,121.6329,25.056973
大樓,北峰國小,D504000034,中興里,新北市汐止區中興里環河街1號,1,331.0,社后派出所,,121.6294,25.059377
公寓,濱湖雅士A社區,D504000035,金龍里,新北市汐止區金龍里湖前街77巷5弄2號,1,201.0,社后派出所,,121.6312,25.070272
公寓,公寓,D504000036,湖光里,新北市汐止區湖光里明峰街4號,1,112.0,社后派出所,,121.6356,25.071257
大樓,大樓,D504000037,湖光里,新北市汐止區湖光里明峰街84號,2,342.0,社后派出所,,121.6314,25.071221
公寓,公寓,D504000038,北山里,新北市汐止區北山里明峰293號之29,1,104.0,社后派出所,,121.6256,25.067407
大樓,新生大樓,D504000039,樟樹里,新北市汐止區樟樹里中興路86號,2,820.0,社后派出所,,121.6349,25.06207
大樓,陳光青年城,D504000040,興福里,新北市汐止區興福里福德二路18號,2,421.0,社后派出所,,121.635,25.068129
公寓,公寓,D504000041,中興里,新北市汐止區中興里福德一路233號,1,129.0,社后派出所,,121.6341,25.064851
大樓,楊桄有限公司,D504000042,環河里,新北市汐止區環河里南陽街117號,1,208.0,社后派出所,,121.6242,25.060705
公寓,公寓,D504000043,樟樹里,新北市汐止區樟樹里大同路1段235號,1,47.0,社后派出所,,121.6348,25.057974
大樓,大樓,D504000044,忠孝里,新北市汐止區忠孝里樟樹一路126號,2,620.0,社后派出所,,121.6422,25.064416
大樓,東之星大廈,D504000045,中興里,新北市汐止區中興里中興路150巷11號,2,567.0,社后派出所,,121.6328,25.064898
公寓,公寓,D504000046,福德里,新北市汐止區福德里福德一路179號,1,84.0,社后派出所,,121.6358,25.065945
公寓,百吉鮮花店,D504000047,福德里,新北市汐止區福德里福德路一段183號,1,75.0,社后派出所,,121.6357,25.065865
公寓,東築大樓B棟,D504000048,興福里,新北市汐止區興福里福德一路158號,1,484.0,社后派出所,,121.6363,25.066623
大樓,濱湖B社區,D504000049,金龍里,新北市汐止區金龍里湖前街55號,3,1593.0,社后派出所,,121.6319,25.07022
公寓,財團法人生物技術開發中心(B),D504000050,北山里,新北市汐止區北山里康寧街169巷102號,1,137.0,社后派出所,,121.623,25.070027
公寓,公寓,D504000051,湖興里,新北市汐止區湖興里康寧街753巷16號,1,86.0,社后派出所,,121.6384,25.075921
大樓,濱湖A社區,D504000052,金龍里,新北市汐止區金龍里明峰街109號,3,5170.0,社后派出所,,121.6313,25.070999
大樓,健弘新世界-哈佛,D504000053,厚德里,新北市汐止區厚德里樟樹二路254巷5號,2,802.0,社后派出所,,121.6418,25.070377
公寓,公寓,D504000054,湖光里,新北市汐止區湖光里民族二街32巷2號,1,65.0,社后派出所,,121.6348,25.071238
公寓,公寓,D504000055,北山里,新北市汐止區北山里康寧街141巷18號,1,200.0,社后派出所,,121.6215,25.067432
大樓,鶴之湖社區,D504000056,金龍里,新北市汐止區金龍里湖前街7號,3,2149.0,社后派出所,,121.632,25.070898
大樓,英郡A區,D504000057,忠孝里,新北市汐止區忠孝里樟樹一路1號,1,219.0,社后派出所,,121.6425,25.068495
大樓,世貿親家,D504000058,厚德里,新北市汐止區厚德里樟樹一路147號,3,2151.0,社后派出所,,121.6425,25.06775
大樓,歐香巴黎,D504000059,興福里,新北市汐止區興福里福德一路139號,3,1696.0,社后派出所,,121.6369,25.066985
大樓,台北新貴,D504000060,山光里,新北市汐止區山光里樟樹一路157號,2,1163.0,社后派出所,,121.6425,25.068495
大樓,大湖香榭社區,D504000061,北山里,新北市汐止區北山里汐止區康寧街141巷26號,2,574.0,社后派出所,,121.6212,25.068177
公寓,吉璞長虹企業總部,D504000062,中興里,新北市汐止區中興里福德二路215號,1,137.0,社后派出所,,121.6279,25.064557
大樓,理明大樓,D504000064,中興里,新北市汐止區中興里福德一路252號,2,977.0,社后派出所,,121.6334,25.064916
大樓,大樓,D504000065,忠孝里,新北市汐止區忠孝里樟樹一路152巷1號,2,659.0,社后派出所,,121.6427,25.06514
公寓,山水佳園,D504000066,湖光里,新北市汐止區湖光里明峰街2巷3號,1,94.0,社后派出所,,121.6357,25.071355
大樓,大山圓社區,D504000067,興福里,新北市汐止區興福里福德二路19巷2號,3,1497.0,社后派出所,,121.6355,25.068071
公寓,公寓,D504000068,康福里,新北市汐止區康福里福德一路2巷2號,1,122.0,社后派出所,,121.639,25.070198
大樓,城市公園社區,D504000069,山光里,新北市汐止區山光里樟樹二路330巷3號,2,1397.0,社后派出所,,121.6417,25.070318
大樓,紅綠社區,D504000070,厚德里,新北市汐止區厚德里樟樹一路145巷14號,2,1061.0,社后派出所,,121.6415,25.067968
大樓,香榭巴黎社區,D504000071,興福里,新北市汐止區興福里福德一路149號,2,2762.0,社后派出所,,121.6367,25.0667
大樓,大樓,D504000072,樟樹里,新北市汐止區樟樹里大同路一段156號之1,1,27.0,社后派出所,,121.6448,25.065231
大樓,百世可樂社區,D504000073,興福里,新北市汐止區興福里福德一路157號,2,3068.0,社后派出所,,121.6365,25.066514
公寓,香榭伯爵社區,D504000074,湖興里,新北市汐止區湖興里伯爵街35巷2號,1,148.0,社后派出所,,121.6389,25.078077
大樓,健弘新世界-牛津,D504000075,厚德里,新北市汐止區厚德里樟樹二路251巷12號,2,1230.0,社后派出所,,121.6401,25.068527
大樓,財團法人生物技術開發中心(C),D504000076,北山里,新北市汐止區北山里康寧街169巷103號,2,94.0,社后派出所,,121.623,25.070643
大樓,康福郡,D504000077,康福里,新北市汐止區康福里福德路一段10號,2,138.0,社后派出所,,121.6359,25.067362
大樓,都會巴黎,D504000078,興福里,新北市汐止區興福里福德一路175號,2,68.0,社后派出所,,121.636,25.066029
大樓,儷都臻邸,D504000079,忠孝里,新北市汐止區忠孝里樟樹一路106巷2號,2,740.0,社后派出所,,121.6421,25.065276
大樓,大樓,D504000080,湖光里,新北市汐止區湖光里民族二街3號,1,183.0,社后派出所,,121.6335,25.069867
大樓,大湖科學園區第三期,D504000081,北山里,新北市汐止區北山里康寧街169巷23號,3,2486.0,社后派出所,,121.6227,25.068212
大樓,綠百代社區,D504000082,興福里,新北市汐止區興福里福德一路167號,2,1647.0,社后派出所,,121.6362,25.066245
大樓,東湖麗池社區,D504000083,北山里,新北市汐止區北山里康寧街141巷53號之1,2,1816.0,社后派出所,,121.6208,25.067965
大樓,大湖科學園區第一期,D504000084,北山里,新北市汐止區北山里康寧街169巷31號之1,3,3194.0,社后派出所,,121.6221,25.069265
大樓,大樓,D504000085,康福里,新北市汐止區康福里福德三路75號,1,333.0,社后派出所,,121.6366,25.069211
大樓,東湖樂高社區,D504000086,北山里,新北市汐止區北山里康寧街113號,2,3622.0,社后派出所,,121.6207,25.066629
大樓,大樓,D504000087,湖光里,新北市汐止區湖光里明峰街19號,2,837.0,社后派出所,,121.6346,25.071368
大樓,湖堡社區,D504000088,湖光里,新北市汐止區湖光里湖前街60號,2,1561.0,社后派出所,,121.6321,25.070145
公寓,東方伯爵社區,D504000089,湖興里,新北市汐止區湖興里伯爵街47巷7號,1,265.0,社后派出所,,121.6373,25.079475
大樓,大湖科學園區第二期,D504000090,北山里,新北市汐止區北山里康寧街169巷27號,2,4185.0,社后派出所,,121.6227,25.068775
大樓,弘祥華廈(福德大廈),D504000091,福德里,新北市汐止區福德里福德一路187號,1,428.0,社后派出所,,121.6356,25.065809
大樓,翡翠晶鑽大樓,D504000092,北山里,新北市汐止區北山里康寧街141巷3號,2,1275.0,社后派出所,,121.6212,25.067075
大樓,世電你和我社區,D504000093,中興里,新北市汐止區中興里福德二路156巷12號,2,1136.0,社后派出所,,121.6302,25.065512
大樓,濱湖大城社區,D504000094,金龍里,新北市汐止區金龍里湖前街49號,2,1468.0,社后派出所,,121.6319,25.070094
大樓,康寧郡第八代社區,D504000095,金龍里,新北市汐止區金龍里康寧街474巷7號,2,2460.0,社后派出所,,121.6323,25.067998
大樓,健弘新世界-劍橋,D504000096,厚德里,新北市汐止區厚德里樟樹二路279號,2,1934.0,社后派出所,,121.641,25.069228
大樓,大樓,D504000097,湖光里,新北市汐止區湖光里明峰57號,1,104.0,社后派出所,,121.6332,25.071244
大樓,桃李天下社區,D504000098,厚德里,新北市汐止區厚德里樟樹一路220號,2,661.0,社后派出所,,121.6424,25.066305
大樓,紅對綠三期大廈,D504000099,山光里,新北市汐止區山光里樟樹一路187號,2,1302.0,社后派出所,,121.6423,25.069134
公寓,公寓,D504000100,康福里,新北市汐止區康福里民族一路20號,1,84.0,社后派出所,,121.6348,25.071
大樓,摩登寶貝大廈,D504000101,福德里,新北市汐止區福德里福德二路55巷6弄6號,1,229.0,社后派出所,,121.6342,25.066585
大樓,冰河市社區,D504000102,中興里,新北市汐止區中興里中興路110巷8弄2號,1,1238.0,社后派出所,,121.634,25.063989
大樓,日月光中心,D504000104,湖光里,新北市汐止區湖光里康寧街751巷3號,3,3365.0,社后派出所,,121.6379,25.075244
大樓,大樓,D504000105,湖興里,新北市汐止區湖興里伯爵街12巷18號,1,316.0,社后派出所,,121.6418,25.076857
大樓,亞太經貿大樓,D504000106,樟樹里,新北市汐止區樟樹里大同路一段306號,2,1613.0,社后派出所,,121.636,25.057929
大樓,大樓,D504000107,湖光里,新北市汐止區湖光里民族二街1號,1,362.0,社后派出所,,121.6359,25.071923
公寓,伯爵夫人第一期,D504000108,湖興里,新北市汐止區湖興里伯爵街45巷2號,1,809.0,社后派出所,,121.6377,25.079336
大樓,百世可樂社區,D504000109,興福里,新北市汐止區興福里福德一路155號,1,627.0,社后派出所,,121.6366,25.066567
大樓,大樓,D504000110,湖光里,新北市汐止區湖光里明峰街2巷14號,1,97.0,社后派出所,,121.636,25.07172
大樓,宏盛檳城社區,D504000111,金龍里,新北市汐止區金龍里明峰街118號,2,1293.0,社后派出所,,121.6302,25.071025
大樓,中興大觀,D504000112,樟樹里,新北市汐止區樟樹里中興路98號,2,613.0,社后派出所,,121.6346,25.062419
大樓,大樓,D504000113,湖光里,新北市汐止區湖光里明峰街2巷6號,2,305.0,社后派出所,,121.6359,25.071331
大樓,大樓,D504000114,湖光里,新北市汐止區湖光里明峰街24號,1,72.0,社后派出所,,121.6344,25.07153
大樓,台北東郡社區,D504000115,金龍里,新北市汐止區金龍里明峰街100號,1,684.0,社后派出所,,121.6309,25.071313
大樓,濱湖大第,D504000116,湖光里,新北市汐止區湖光里康寧街625號,2,1551.0,社后派出所,,121.6369,25.07203
大樓,親青湖畔社區,D504000117,金龍里,新北市汐止區金龍里明峰街125號,2,760.0,社后派出所,,121.6309,25.070854
大樓,堤都社區,D504000118,中興里,新北市汐止區中興里中興路110巷8弄1號,2,439.0,社后派出所,,121.6339,25.064084
大樓,伯爵夫人社區,D504000119,湖興里,新北市汐止區湖興里伯爵街59巷1號,2,1870.0,社后派出所,,121.6386,25.082064
大樓,路易市社區,D504000120,厚德里,新北市汐止區厚德里樟樹一路156號,2,1934.0,社后派出所,,121.6423,25.065428
大樓,文普湖前大地社區,D504000121,金龍里,新北市汐止區金龍里湖前街33號,2,1315.0,社后派出所,,121.6322,25.069535
大樓,伯爵夫人,D504000122,湖興里,新北市汐止區湖興里伯爵街61巷26號,2,896.0,社后派出所,,121.6377,25.08264
大樓,東湖麗都,D504000123,北山里,新北市汐止區北山里康寧街141巷46號,2,863.0,社后派出所,,121.6205,25.068293
大樓,台北水都,D504000124,忠孝里,新北市汐止區忠孝里工建路106號,2,4809.0,社后派出所,,121.6381,25.063739
大樓,新生活社區,D504000126,康福里,新北市汐止區康福里福德一路86巷41號,2,1190.0,社后派出所,,121.6371,25.068831
大樓,大湖芳鄰社區,D504000127,北山里,新北市汐止區北山里康寧街15號,2,232.0,社后派出所,,121.6181,25.067252
大樓,中興綠第社區,D504000128,中興里,新北市汐止區中興里福德二路125巷1號,2,836.0,社后派出所,,121.6313,25.065116
大樓,佳人綠園社區,D504000129,康福里,新北市汐止區康福里福德一路106巷18號,1,356.0,社后派出所,,121.6373,25.068472
大樓,大樓,D504000130,忠孝里,新北市汐止區忠孝里樟樹二路120號,1,244.0,社后派出所,,121.6399,25.065099
大樓,少年家社區,D504000133,山光里,新北市汐止區山光里樟樹二路339巷8號,2,1179.0,社后派出所,,121.6412,25.070768
大樓,新台北人社區,D504000134,中興里,新北市汐止區中興里福德二路132巷7號,2,1982.0,社后派出所,,121.6307,25.065601
大樓,青梅竹馬,D504000135,湖光里,新北市汐止區湖光里民族二街84巷2弄1號,2,1390.0,社后派出所,,121.6337,25.070253
大樓,新公園社區,D504000136,中興里,新北市汐止區中興里福德二路132巷8號,1,319.0,社后派出所,,121.6309,25.065581
大樓,英郡A區,D504000137,忠孝里,新北市汐止區忠孝里樟樹一路9號,2,4605.0,社后派出所,,121.6417,25.06189
大樓,英郡B區,D504000138,忠孝里,新北市汐止區忠孝里樟樹一路8號,2,2144.0,社后派出所,,121.6419,25.06209
大樓,摩登台北,D504000139,中興里,新北市汐止區中興里中興路160號,3,609.0,社后派出所,,121.6324,25.06524
大樓,萬世OK,D504000140,中興里,新北市汐止區中興里中興路168號,3,1925.0,社后派出所,,121.6322,25.065305
大樓,好家園社區,D504000141,福德里,新北市汐止區福德里福德一路213巷6號,1,443.0,社后派出所,,121.6348,25.065165
大樓,大樓,D504000142,湖光里,新北市汐止區湖光里民族二街82號,1,86.0,社后派出所,,121.6334,25.069997
大樓,大樓,D504000143,康福里,新北市汐止區康福里福德一路86巷8號,1,128.0,社后派出所,,121.6379,25.068864
大樓,台北爵士社區,D504000144,康福里,新北市汐止區康福里福德一路22號,1,1368.0,社后派出所,,121.6385,25.069316
公寓,櫻花大樓,D504000145,環河里,新北市汐止區環河里南陽街88號,1,419.0,社后派出所,,121.6232,25.06218
大樓,大湖科學園區第四期,D504000146,北山里,新北市汐止區北山里康寧街169巷1號,3,1375.0,社后派出所,,121.6228,25.067243
大樓,亞太經貿中心二期,D504000148,樟樹里,新北市汐止區樟樹里中興路22號,2,3693.0,社后派出所,,121.6312,25.066269
大樓,大樓,D504000149,北山里,新北市汐止區北山里康寧街61巷17號,1,353.0,社后派出所,,121.6187,25.067331
大樓,大樓,D504000150,湖光里,新北市汐止區湖光里明峰街5號,1,74.0,社后派出所,,121.6355,25.071084
大樓,大樓,D504000151,湖光里,新北市汐止區湖光里民族一路24號,1,97.0,社后派出所,,121.6347,25.070992
大樓,高登屋社區,D504000152,金龍里,新北市汐止區金龍里明峰街129之1,2,1454.0,社后派出所,,121.6303,25.07081
大樓,綠園道社區,D504000153,山光里,新北市汐止區山光里樟樹二路303巷18號,2,1534.0,社后派出所,,121.6419,25.069236
大樓,綠園道別墅,D504000154,山光里,新北市汐止區山光里樟樹一路155巷6號,1,405.0,社后派出所,,121.6422,25.068537
大樓,東湖畔,D504000155,湖光里,新北市汐止區湖光里民族二街21巷38弄13號,1,845.0,社后派出所,,121.6337,25.070199
大樓,大樓,D504000156,湖光里,新北市汐止區湖光里民族一街1號,1,372.0,社后派出所,,121.6352,25.070642
大樓,愛快台北B區,D504000157,忠孝里,新北市汐止區忠孝里工建路50號,1,948.0,社后派出所,,121.641,25.063192
大樓,大樓,D504000158,忠孝里,新北市汐止區忠孝里工建路159號,1,136.0,社后派出所,,121.6376,25.063089
大樓,東方黎明社區,D504000159,中興里,新北市汐止區中興里福德二路156巷25號,1,167.0,社后派出所,,121.6299,25.065602
大樓,社后消防分隊,D504000160,中興里,新北市汐止區中興里福德一路234巷1號,2,839.0,社后派出所,,121.6356,25.065498
大樓,大樓,D504000161,忠孝里,新北市汐止區忠孝里樟樹一路134號,1,54.0,社后派出所,,121.6422,25.064788
大樓,星喬科技公司,D504000162,北山里,新北市汐止區北山里康寧街165號,1,146.0,社后派出所,,121.6225,25.066867
大樓,宏盛大樓,D504000163,北峰里,新北市汐止區北峰里民族六街69號,1,367.0,社后派出所,,121.6282,25.068129
大樓,宏盛博第社區,D504000164,北峰里,新北市汐止區北峰里民族六街73號,1,367.0,社后派出所,,121.628,25.068074
公寓,樟樹國中,D504000165,忠孝里,新北市汐止區忠孝里樟樹二路135號,1,986.0,社后派出所,,121.6397,25.065826
大樓,麗湖山莊社區,D504000166,金龍里,新北市汐止區金龍里民族五街2號,3,1834.0,社后派出所,,121.6295,25.07156
大樓,台灣國際航電公司,D504000167,樟樹里,新北市汐止區樟樹里樟樹二路46號,2,2207.0,社后派出所,,121.64,25.06195
大樓,世代名門社區,D504000168,厚德里,新北市汐止區厚德里樟樹一路272號,2,3422.0,社后派出所,,121.643,25.068604
大樓,花東新村A社區,D504000169,厚德里,新北市汐止區厚德里樟樹二路251巷13號,1,881.0,社后派出所,,121.6402,25.067929
大樓,福寓新廈社區,D504000170,厚德里,新北市汐止區厚德里樟樹二路243號,1,250.0,社后派出所,,121.6406,25.068038
大樓,新城華府社區,D504000171,厚德里,新北市汐止區厚德里樟樹二路262號,1,662.0,社后派出所,,121.6409,25.068134
大樓,花東新村B社區,D504000172,厚德里,新北市汐止區厚德里樟樹二路251巷34號,1,383.0,社后派出所,,121.6399,25.067685
大樓,大樓,D504000173,湖光里,新北市汐止區湖光里康寧街519號,1,195.0,社后派出所,,121.6334,25.068735
大樓,福邸龍門A社區,D504000174,厚德里,新北市汐止區厚德里樟樹二路293巷2號,2,1273.0,社后派出所,,121.6409,25.069996
大樓,福邸龍門B社區,D504000175,厚德里,新北市汐止區厚德里樟樹二路289號,1,675.0,社后派出所,,121.6411,25.069586
大樓,東湖寧靜社區,D504000176,北山里,新北市汐止區北山里康寧街29號,2,520.0,社后派出所,,121.6182,25.067069
大樓,大景大樓,D504000177,樟樹里,新北市汐止區樟樹里大同路263號,1,209.0,社后派出所,,121.6534,25.065984
大樓,世紀風情社區,D504000178,康福里,新北市汐止區康福里福德一路86巷49號,2,2200.0,社后派出所,,121.6368,25.068501
公寓,公寓,D504000179,湖興里,新北市汐止區湖興里伯爵街9號,3,5904.0,社后派出所,,121.6414,25.076704
大樓,市民大第社區,D504000180,厚德里,新北市汐止區厚德里樟樹一路268號,2,1220.0,社后派出所,,121.6427,25.067883
大樓,大樓,D504000181,環河里,新北市汐止區環河里福德二路221號,2,157.0,社后派出所,,,
公寓,好市多股份有限公司,D504000183,樟樹里,新北市汐止區樟樹里大同路一段158號,1,9468.0,社后派出所,,121.6332,25.056172
大樓,水蓮山莊,D504000184,湖光里,新北市汐止區湖光里湖前街110巷97弄,5,13534.0,社后派出所,,121.632,25.076652
大樓,安邑社區,D504000185,康福里,新北市汐止區康福里福德三路99號,1,872.0,社后派出所,,121.636,25.068776
大樓,台北旺角,D504000186,中興里,新北市汐止區中興里中興路81號,1,61.0,社后派出所,,121.6327,25.064215
大樓,安家京采A社區,D504000187,康福里,新北市汐止區康福里福德一路99號,1,1079.0,社后派出所,,121.6383,25.067989
大樓,綠百代社區,D504000188,興福里,新北市汐止區興福里福德一路161號,3,1120.0,社后派出所,,121.6363,25.06636
大樓,台北旺角社區,D504000189,中興里,新北市汐止區中興里福德一路258號,2,515.0,社后派出所,,121.6333,25.064557
大樓,大樓,D504000190,湖光里,新北市汐止區湖光里康寧街611號,1,80.0,社后派出所,,121.636,25.071211
大樓,日成佳人社區,D504000191,山光里,新北市汐止區山光里樟樹二路253號,2,2458.0,社后派出所,,121.6427,25.069072
大樓,花好月圓,D504000192,湖光里,新北市汐止區湖光里民族二街86號,2,1468.0,社后派出所,,121.6331,25.069879
大樓,龍之鄉,D504000193,北峰里,新北市汐止區北峰里康寧街445號,2,1899.0,社后派出所,,121.6311,25.068239
大樓,經典伯爵二期社區,D504000194,湖興里,新北市汐止區湖興里伯爵街95巷2號,3,4373.0,社后派出所,,121.6366,25.083985
大樓,傳家寶社區,D504000195,北峰里,新北市汐止區北峰里中興路232號,2,785.0,社后派出所,,121.6302,25.067542
大樓,日成才子社區,D504000196,樟樹里,新北市汐止區樟樹里樟樹二路280號至298號,2,210.0,社后派出所,,121.6401,25.060873
大樓,奇摩市社區,D504000197,康福里,新北市汐止區康福里福德一路86巷12號,2,578.0,社后派出所,,121.6376,25.069055
大樓,大樓,D504000198,湖光里,新北市汐止區湖光里民族二街3號,1,59.0,社后派出所,,121.6335,25.069867
大樓,日溢企業,D504000199,環河里,新北市汐止區環河里環河路72號,1,49.0,社后派出所,,121.6234,25.063445
大樓,樟樹國小,D504000200,厚德里,新北市汐止區厚德里樟樹一路141巷2號,1,950.0,社后派出所,,121.6417,25.066528
大樓,大樓,D504000201,忠孝里,新北市汐止區忠孝里工建路40號,1,276.0,社后派出所,,121.6415,25.063206
大樓,大樓,D504000202,中興里,新北市汐止區中興里中興路135號,2,217.0,社后派出所,,121.6316,25.065435
大樓,好家園,D504000203,湖光里,新北市汐止區湖光里明峰街2號,1,97.0,社后派出所,,121.6358,25.07103
公寓,樟樹國中,D504000204,忠孝里,新北市汐止區忠孝里樟樹二路135號,1,1490.0,社后派出所,,121.6397,25.065826
大樓,平野春天社區,D504000205,康福里,新北市汐止區康福里福德三路10號,2,868.0,社后派出所,,121.6375,25.06957
公寓,金龍國小,D504000206,北峰里,新北市汐止區北峰里明峰街201號,1,1239.0,社后派出所,,121.6272,25.06872
