編號,地址,避難所在之地下樓層數,轄區分局,經度,緯度,村里別,可容納人數
1.0,臺中市北區中達里育德路185號,1,第二分局,120.672319,24.157138,中達里,178.0
2.0,臺中市北區五常里學士路6號,3,第二分局,120.682536,24.153808,五常里,1807.0
3.0,臺中市北區五常里學士路2號,2,第二分局,120.682759,24.153392,五常里,5194.0
4.0,臺中市北區文莊里文化街69號,1,第二分局," 120.67486",24.152083,文莊里,296.0
5.0,臺中市北區中達里篤行路321號,1,第二分局," 120.67323",24.155125,中達里,217.0
6.0,臺中市北區中達里篤行路321號,1,第二分局," 120.67323",24.155125,中達里,832.0
7.0,臺中市北區中達里篤行路321號,1,第二分局," 120.67323",24.155125,中達里,531.0
8.0,臺中市北區中達里篤行路321號,1,第二分局," 120.67323",24.155125,中達里,266.0
9.0,臺中市北區五常里五權路375號,1,第二分局,120.680519,24.152865,五常里,947.0
10.0,臺中市北區五常里五權路379號,1,第二分局,120.680899,24.152867,五常里,781.0
11.0,臺中市北區錦平里三民路三段129號,1,第二分局,120.6814945,24.1496435,錦平里,3896.0
12.0,臺中市北區文莊里英士路109號,1,第二分局,120.6752,24.153185,文莊里,1719.0
13.0,臺中市北區中正里臺灣大道一段635號,1,第二分局,120.675248,24.14593,中正里,211.0
14.0,臺中市北區金龍里三民路三段289號,1,第二分局,120.688077,24.156604,金龍里,208.0
15.0,臺中市北區金龍里三民路三段289號,1,第二分局,120.688077,24.156604,金龍里,617.0
16.0,臺中市北區金龍里三民路三段289號,1,第二分局,120.688077,24.156604,金龍里,952.0
17.0,臺中市北區金龍里三民路三段445號,2,第二分局," 120.69128",24.159572,金龍里,141.0
18.0,臺中市北區金龍里三民路三段289號,1,第二分局,120.688077,24.156604,金龍里,1562.0
19.0,臺中市北區金龍里三民路三段289號,1,第二分局,120.688077,24.156604,金龍里,83.0
20.0,臺中市北區金龍里三民路三段289號,1,第二分局,120.688077,24.156604,金龍里,125.0
21.0,臺中市北區金龍里三民路三段289號,1,第二分局,120.688077,24.156604,金龍里,833.0
22.0,臺中市北區金龍里三民路三段289號,1,第二分局,120.688077,24.156604,金龍里,1562.0
23.0,臺中市北區金龍里三民路三段289號,1,第二分局,120.688077,24.156604,金龍里,1415.0
24.0,臺中市北區金龍里三民路三段289號,1,第二分局,120.688077,24.156604,金龍里,83.0
25.0,臺中市北區金龍里三民路三段289號,1,第二分局,120.688077,24.156604,金龍里,375.0
26.0,臺中市北區錦平里五權路370之3號,1,第二分局,120.681282,24.152443,錦平里,1431.0
27.0,臺中市北區光大里五權路317號,1,第二分局,120.678741,24.152145,光大里,456.0
28.0,臺中市北區頂厝里太原路二段228號,1,第二分局,120.682503,24.164954,頂厝里,718.0
29.0,臺中市北區中正里民權路220號,1,第二分局,120.6740607,24.14375739,中正里,838.0
30.0,臺中市北區健行里健行路666號,1,第二分局,120.672764,24.159372,健行里,1874.0
31.0,臺中市北區健行里健行路666號,1,第二分局,120.672764,24.159372,健行里,2119.0
32.0,臺中市北區健行里健行路666號,1,第二分局,120.672764,24.159372,健行里,944.0
33.0,臺中市北區六合里成功路430巷21號,1,第二分局,120.67677,24.14703,六合里,220.0
34.0,臺中市北區五常里五義街167號,1,第二分局,120.680429,24.153756,五常里,197.0
35.0,臺中市北區淡溝里館前路1號,3,第二分局,120.66616,24.155802,淡溝里,4244.0
36.0,臺中市北區淡溝里館前路1號,2,第二分局,120.66616,24.155802,淡溝里,22139.0
37.0,臺中市北區六合里成功路439號,1,第二分局,120.6755,24.147044,六合里,520.0
38.0,臺中市北區光大里原子街127巷21之2號,1,第二分局,120.675588,24.147846,光大里,302.0
39.0,臺中市北區光大里五權路276號,1,第二分局,120.678119,24.151395,光大里,312.0
40.0,臺中市北區光大里五權路178號,1,第二分局,120.676242,24.14966,光大里,250.0
41.0,臺中市北區賴厝里永興街301號,2,第二分局,120.682233,24.166042,賴厝里,1856.0
42.0,臺中市北區光大里公園路188號,2,第二分局,120.677563,24.1511,光大里,496.0
43.0,"臺中市北區賴興里北平路二段135號 ",1,第二分局," 120.67743",24.171686,賴興里,1247.0
44.0,"臺中市北區賴旺里青島東街100號 ",1,第二分局," 120.67504",24.170733,賴旺里,540.0
45.0,臺中市北區金龍里梅亭街24巷21號,1,第二分局," 120.69066",24.161193,金龍里,100.0
46.0,臺中市北區金龍里北屯路77號,1,第二分局,120.691703,24.16166,金龍里,313.0
47.0,臺中市北區金龍里德化街41號,1,第二分局,120.690661,24.161294,金龍里,372.0
48.0,臺中市北區金龍里北屯路49之1號,2,第二分局,120.691586,24.16066,金龍里,275.0
49.0,臺中市北區賴厝里漢口路四段52號,1,第二分局,120.674869,24.166837,賴厝里,1326.0
50.0,臺中市北區賴厝里太原路二段11號,3,第二分局,120.675264,24.165579,賴厝里,667.0
51.0,"臺中市北區賴厝里漢口路四段102號 ",3,第二分局," 120.67779",24.167097,賴厝里,363.0
52.0,臺中市北區賴厝里漢口路四段208號,1,第二分局,120.680345,24.166879,賴厝里,385.0
53.0,"臺中市北區頂厝里太原路二段241號 ",2,第二分局,120.682907,24.165703,頂厝里,465.0
54.0,臺中市北區賴厝里綏遠路1號,1,第二分局,120.680386,24.165479,賴厝里,906.0
55.0,臺中市北區賴厝里永興街281號,1,第二分局,120.682303,24.165479,賴厝里,378.0
56.0,臺中市北區賴厝里梅川西路三段66號,2,第二分局,120.676913,24.165545,賴厝里,200.0
57.0,臺中市北區賴福里大德街253號,1,第二分局,120.678223,24.164406,賴福里,178.0
58.0,臺中市北區建興里衛道路75巷5號,1,第二分局," 120.68786",24.162147,建興里,88.0
59.0,臺中市北區建興里永興街114號,1,第二分局,120.682473,24.161655,建興里,326.0
60.0,臺中市北區建興里梅亭街196號,1,第二分局,120.684214,24.160568,建興里,1162.0
61.0,臺中市北區建興里大義街109號,1,第二分局,120.683533,24.161234,建興里,153.0
62.0,臺中市北區頂厝里進化北路261號,2,第二分局,120.683556,24.16286,頂厝里,623.0
63.0,"臺中市北區崇德里太原路三段30號 ",1,第二分局," 120.68634",24.164985,崇德里,346.0
64.0,臺中市北區崇德里太原路三段78號,2,第二分局,120.687839,24.164881,崇德里,906.0
65.0,臺中市北區崇德里北興街166號,1,第二分局," 120.68640",24.164219,崇德里,1026.0
66.0,臺中市北區頂厝里青島路三段168號,3,第二分局,120.683141,24.168348,頂厝里,2790.0
67.0,臺中市北區頂厝里北興街336號,2,第二分局," 120.68185",24.164293,頂厝里,473.0
68.0,臺中市北區頂厝里永興街298巷1號,1,第二分局,120.682655,24.166273,頂厝里,231.0
69.0,臺中市北區頂厝里永興街298巷7號,1,第二分局," 120.68328",24.166475,頂厝里,169.0
70.0,臺中市北區賴明里青島路一段429號,1,第二分局," 120.67445",24.169336,賴明里,364.0
71.0,臺中市北區賴村里進化北路367號,2,第二分局,120.681558,24.154553,賴村里,957.0
72.0,臺中市北區明新里太原八街126號,1,第二分局," 120.67264",24.165653,明新里,296.0
73.0,臺中市北區梅川里天津路二段192號,1,第二分局,120.678422,24.169685,梅川里,358.0
74.0,臺中市北區梅川里文昌東二街142號,1,第二分局,120.677681,24.169578,梅川里,343.0
75.0,臺中市北區梅川里梅川西路四段149號,3,第二分局,120.6787579,24.16918017,梅川里,2827.0
76.0,臺中市北區梅川里永興街367號,1,第二分局," 120.68276",24.168333,梅川里,2036.0
77.0,臺中市北區明新里太原六街18號,1,第二分局,120.670673,24.165755,明新里,121.0
78.0,臺中市北區賴興里文昌東一街63號,1,第二分局," 120.67705",24.170624,賴興里,144.0
79.0,臺中市北區梅川里永興街369號,2,第二分局,120.68276,24.168009,梅川里,398.0
80.0,臺中市北區金龍里錦中街120號,1,第二分局,120.6862237,24.1559556,金龍里,83.0
81.0,臺中市北區頂厝里崇德路一段494號,1,第二分局,120.685273,24.164464,頂厝里,435.0
82.0,臺中市北區頂厝里漢口路四段367號,2,第二分局," 120.68282",24.167456,頂厝里,1012.0
83.0,臺中市北區金龍里健行路174號,1,第二分局,120.686556,24.159213,金龍里,207.0
84.0,臺中市北區金龍里益華街109號,1,第二分局,120.689549,24.161117,金龍里,265.0
85.0,臺中市北區賴旺里青島路一段42號,1,第二分局,120.674193,24.172107,賴旺里,225.0
86.0,臺中市北區金龍里梅亭街52號,2,第二分局,120.689779,24.160288,金龍里,250.0
87.0,臺中市北區金龍里梅亭街21號,1,第二分局,120.690504,24.15996,金龍里,166.0
88.0,臺中市北區金龍里北屯路45號,1,第二分局,120.691647,24.160473,金龍里,104.0
89.0,臺中市北區金龍里健行路6號,1,第二分局,120.690799,24.159241,金龍里,208.0
90.0,臺中市北區育德里篤行路398號,1,第二分局,120.673759,24.157985,育德里,651.0
91.0,臺中市北區邱厝里學士路151號,1,第二分局,120.680775,24.158294,邱厝里,364.0
92.0,臺中市北區邱厝里美德街34號,1,第二分局,120.683992,24.157713,邱厝里,216.0
93.0,臺中市北區邱厝里美德街48號,1,第二分局,120.683381,24.157768,邱厝里,416.0
94.0,臺中市北區邱厝里大義街29巷37號,1,第二分局,120.682682,24.158618,邱厝里,923.0
95.0,"臺中市北區邱厝里崇德路168巷6號 ",1,第二分局,120.6850687,24.1584868,邱厝里,216.0
96.0,臺中市北區邱厝里崇德路一段106號,1,第二分局,120.685399,24.157382,邱厝里,333.0
97.0,臺中市北區邱厝里健行路321號,1,第二分局,120.684306,24.15889,邱厝里,500.0
98.0,臺中市北區邱厝里健行路371號,2,第二分局," 120.68272",24.159194,邱厝里,989.0
99.0,臺中市北區邱厝里健行路431號,1,第二分局,120.681296,24.158956,邱厝里,468.0
100.0,臺中市北區邱厝里美德街42號,1,第二分局,120.683522,24.157788,邱厝里,183.0
101.0,臺中市北區邱厝里美德街68巷8號,1,第二分局,120.68342,24.157831,邱厝里,571.0
102.0,臺中市北區邱厝里大義街22號之5,1,第二分局,120.683831,24.158420,邱厝里,861.0
103.0,臺中市北區邱厝里崇德路一段91巷1號,1,第二分局,120.684612,24.158434,邱厝里,70.0
104.0,臺中市北區邱厝里永興街2號,1,第二分局,120.682443,24.158373,邱厝里,150.0
105.0,臺中市北區賴村里梅亭街281號,1,第二分局,120.680696,24.160499,賴村里,3102.0
106.0,臺中市北區崇德里太原路三段30號,1,第二分局,120.68633,24.164909,崇德里,345.0
107.0,臺中市北區賴村里德化街435號,1,第二分局,120.677538,24.161598,賴村里,223.0
108.0,臺中市北區明德里漢口路三段88號,1,第二分局,120.669315,24.166625,明德里,245.0
109.0,臺中市北區賴村里進化北路435號,1,第二分局,120.676012,24.162973,賴村里,586.0
110.0,臺中市北區頂厝里青島路三段180號,3,第二分局,120.683478,24.168706,頂厝里,2790.0
111.0,臺中市北區頂厝里北興街322號,2,第二分局,120.682005,24.164133,頂厝里,473.0
112.0,臺中市北區賴村里德化街439號,1,第二分局,120.677083,24.161608,賴村里,254.0
113.0,臺中市北區賴厝里太原路二段1號,2,第二分局,120.674257,24.165334,賴厝里,667.0
114.0,臺中市北區賴厝里太原路二段241號,2,第二分局,120.682907,24.165703,賴厝里,465.0
115.0,臺中市北區賴福里大德街253號,1,第二分局,120.678223,24.164406,賴福里,285.0
116.0,臺中市北區頂厝里永興街290號,1,第二分局,120.682587,24.165891,頂厝里,304.0
117.0,臺中市北區賴厝里永興街313號,1,第二分局,120.68243,24.166322,賴厝里,331.0
118.0,臺中市北區建興里健行路354號,2,第二分局,120.682933,24.159392,建興里,1093.0
119.0,臺中市北區賴村里進化北路369號,1,第二分局,120.678521,24.162927,賴村里,520.0
120.0,臺中市北區賴村里進化北路365號,1,第二分局,120.679325,24.162846,賴村里,2119.0
121.0,臺中市北區賴村里尚德街110號,1,第二分局,120.677561,24.160875,賴村里,221.0
122.0,臺中市北區賴厝里太原路11號,2,第二分局,120.675264,24.165579,賴厝里,667.0
123.0,臺中市北區賴福里進化北路416號,1,第二分局,120.675661,24.163336,賴福里,141.0
124.0,臺中市北區達興里梅亭街238號,1,第二分局," 120.68271",24.160628,達興里,944.0
125.0,臺中市北區賴村里德化街399號,1,第二分局," 120.67882",24.161811,賴村里,308.0
126.0,臺中市北區建興里衛道路89之2號,1,第二分局," 120.68578",24.162881,建興里,604.0
127.0,臺中市北區崇德里進化北路173號,1,第二分局," 120.68615",24.163117,崇德里,217.0
128.0,臺中市北區頂厝里永興街165號,2,第二分局,120.681985,24.15941,頂厝里,668.0
129.0,臺中市北區金龍里榮華街26號,1,第二分局,120.686777,24.159834,金龍里,217.0
130.0,臺中市北區金龍里榮華街11號,1,第二分局,120.691353,24.159738,金龍里,497.0
131.0,臺中市北區崇德里榮華街201之9號,1,第二分局," 120.68661",24.166559,崇德里,258.0
132.0,臺中市北區金龍里梅亭街47號,1,第二分局,120.690192,24.159988,金龍里,200.0
133.0,臺中市北區金龍里梅亭街7號,1,第二分局,120.690777,24.159893,金龍里,125.0
134.0,臺中市北區金龍里梅亭街40號,1,第二分局,120.690078,24.160408,金龍里,183.0
135.0,臺中市北區金龍里德化街64號,1,第二分局,120.690074,24.161588,金龍里,100.0
136.0,臺中市北區金龍里梅亭街10-8號,1,第二分局,120.691185,24.160295,金龍里,83.0
137.0,臺中市北區育德里大德街85巷25號,1,第二分局,120.678051,24.158614,育德里,100.0
138.0,臺中市北區育德里健行路585號,2,第二分局,120.677072,24.158982,育德里,289.0
139.0,臺中市北區育德里梅川東路三段169號,1,第二分局,120.676554,24.158508,育德里,781.0
140.0,臺中市北區育德里美德街302號,1,第二分局,120.676424,24.158342,育德里,233.0
141.0,臺中市北區育德里美德街218號,1,第二分局,120.678963,24.15831,育德里,83.0
142.0,臺中市北區育德里大德街82巷14號,1,第二分局,120.679379,24.158705,育德里,83.0
143.0,臺中市北區邱厝里健行路359號,1,第二分局,120.6810245,24.1588792,邱厝里,90.0
144.0,臺中市北區育德里育德路32號,1,第二分局,120.6764532,24.157669,育德里,166.0
145.0,臺中市北區育德里健行路443號,1,第二分局,120.680376,24.158467,育德里,2319.0
146.0,臺中市北區育德里育德路20號,1,第二分局,120.67943,24.157657,育德里,107.0
147.0,臺中市北區育德里美德街190號,1,第二分局,120.680197,24.15829,育德里,100.0
148.0,臺中市北區育德里美德街177號,1,第二分局,120.680269,24.158059,育德里,500.0
149.0,臺中市北區育德里美德街189號之4,1,第二分局,120.679600,24.158314,育德里,176.0
150.0,臺中市北區中達里育德路171號,1,第二分局,120.673103,24.157290,中達里,128.0
151.0,臺中市北區邱厝里育德路13號,1,第二分局," 120.67967",24.157260,邱厝里,116.0
152.0,臺中市北區育德里育德路22號,1,第二分局,120.679325,24.157775,育德里,250.0
153.0,臺中市北區育德里美德街201號,1,第二分局,120.679317,24.158114,育德里,300.0
154.0,臺中市北區育德里美德街187號,1,第二分局,120.680269,24.158059,育德里,666.0
155.0,臺中市北區育德里篤行路408號,1,第二分局,120.6715104,24.158315,育德里,445.0
156.0,臺中市北區育德里篤行路387號,1,第二分局,120.673467,24.158722,育德里,166.0
157.0,臺中市北區育德里公園路225號,1,第二分局,120.677335,24.150896,育德里,367.0
158.0,臺中市北區邱厝里崇德路一段63號,1,第二分局," 120.68487",24.158101,邱厝里,107.0
159.0,臺中市北區邱厝里崇德路一段61號,1,第二分局," 120.68485",24.157980,邱厝里,107.0
160.0,臺中市北區邱厝里健行路307號,1,第二分局,120.684608,24.158892,邱厝里,83.0
161.0,臺中市北區邱厝里健行路305號,1,第二分局,120.684653,24.158878,邱厝里,83.0
162.0,臺中市北區邱厝里健行路303號,1,第二分局,120.684698,24.158891,邱厝里,83.0
163.0,臺中市北區邱厝里邱厝南巷211號,1,第二分局,120.68617,24.160478,邱厝里,213.0
164.0,臺中市北區邱厝里健行路359號,2,第二分局,120.6810245,24.1588792,邱厝里,1094.0
165.0,臺中市北區頂厝里青島路168號,3,第二分局,120.683141,24.168348,頂厝里,2790.0
166.0,臺中市北區賴厝里太原路二段199號,4,第二分局,120.681163,24.165478,賴厝里,2382.0
167.0,臺中市北區頂厝里漢口路四段326號,2,第二分局,120.684399,24.166834,頂厝里,552.0
168.0,臺中市北區育德里篤行路377號,3,第二分局,120.673545,24.158003,育德里,990.0
169.0,臺中市北區育德里美德街211號,1,第二分局,120.679025,24.15808,育德里,246.0
170.0,臺中市北區崇德里崇德路一段462號,2,第二分局,120.6829817,24.1635376,崇德里,725.0
171.0,臺中市北區育德里尚德街46號,2,第二分局,120.677777,24.158799,育德里,202.0
172.0,臺中市北區育德里健行路485號,2,第二分局,120.677902,24.159037,育德里,498.0
173.0,臺中市北區邱厝里育德路1號,4,第二分局,120.6783071,24.1571781,邱厝里,1342.0
174.0,臺中市北區賴厝里山西路一段53號,2,第二分局,120.675072,24.165642,賴厝里,1046.0
175.0,臺中市北區賴厝里綏遠路一段28號,2,第二分局,120.68084,24.166264,賴厝里,1946.0
176.0,臺中市北區賴厝里漢口路四段82號,3,第二分局,120.676141,24.166843,賴厝里,1783.0
177.0,臺中市北區崇德里崇德路一段502號,1,第二分局," 120.68534",24.164740,崇德里,134.0
178.0,臺中市北區頂厝里進化北路227號,1,第二分局,120.684549,24.162814,頂厝里,280.0
179.0,臺中市北區建興里衛道路127巷23號之1,1,第二分局,120.682353,24.1620172,建興里,90.0
180.0,臺中市北區達興里崇德路一段268之1號,2,第二分局," 120.68531",24.162196,達興里,1335.0
181.0,臺中市北區賴福里衛道二街5號,2,第二分局,120.680811,24.163739,賴福里,108.0
182.0,臺中市北區金龍里衛道路35巷1弄15號,1,第二分局,120.688723,24.161754,金龍里,198.0
183.0,臺中市北區邱厝里學士路91號,1,第二分局," 120.68164",24.156668,邱厝里,1235.0
184.0,臺中市北區崇德里崇德路一段506號,1,第二分局," 120.68527",24.164904,崇德里,84.0
185.0,臺中市北區賴旺里青島路12號,1,第二分局,120.673786,24.173261,賴旺里,1419.0
186.0,臺中市北區建興里衛道路155之1號,1,第二分局,120.682924,24.162299,建興里,264.0
187.0,臺中市北區頂厝里學士路312號,1,第二分局,120.6837,24.166834,頂厝里,1064.0
188.0,臺中市北區梅川里綏遠路一段72號,1,第二分局," 120.68119",24.168617,梅川里,2246.0
189.0,臺中市北區梅川里漢口路四段345巷18號,1,第二分局,120.6771179,24.1670854,梅川里,723.0
190.0,臺中市北區育德里美德街281號,1,第二分局,120.676935,24.158154,育德里,156.0
191.0,臺中市北區賴村里大德街221號,1,第二分局," 120.67850",24.162944,賴村里,248.0
192.0,臺中市北區頂厝里進化北路259號,1,第二分局,120.683826,24.162818,頂厝里,781.0
193.0,臺中市北區賴福里太原路二段182號,1,第二分局,120.680384,24.164971,賴福里,2258.0
194.0,臺中市北區賴福里太原路二段88號之3,1,第二分局," 120.67847",24.165137,賴福里,2331.0
195.0,臺中市北區金龍里益華街157號,1,第二分局," 120.68973",24.162260,金龍里,125.0
196.0,臺中市北區賴村里學士路275之1號,1,第二分局,120.680574,24.162837,賴村里,1429.0
197.0,臺中市北區育德里育德路100號,1,第二分局,120.674278,24.157841,育德里,1754.0
198.0,臺中市北區賴村里梅亭街417號,1,第二分局,120.678929,24.160301,賴村里,181.0
199.0,臺中市北區賴福里太原路二段90號,3,第二分局," 120.67984",24.165077,賴福里,1895.0
200.0,臺中市北區育德里育德路88號,3,第二分局,120.675544,24.157689,育德里,1071.0
201.0,臺中市北區崇德里北興街77號2樓之2,1,第二分局,120.687988,24.163986,崇德里,627.0
202.0,臺中市北區育德里美德街188號,1,第二分局,120.680276,24.158251,育德里,224.0
203.0,臺中市北區賴福里太原路二段86號,1,第二分局,120.678001,24.1651151,賴福里,699.0
204.0,臺中市北區賴村里五常街263號,1,第二分局,120.679897,24.161272,賴村里,683.0
205.0,臺中市北區賴福里中清路一段490號,1,第二分局,120.674306,24.164394,賴福里,768.0
206.0,臺中市北區邱厝里中清路一段167號,1,第二分局,120.676339,24.156849,邱厝里,623.0
207.0,臺中市北區賴福里衛道二街3號,1,第二分局," 120.68089",24.163957,賴福里,140.0
208.0,臺中市北區梅川里文昌東一街109號,2,第二分局,120.676863,24.167646,梅川里,1742.0
209.0,臺中市北區賴厝里東漢街3號,1,第二分局,120.679491,24.166354,賴厝里,495.0
210.0,臺中市北區金龍里益華街115號,1,第二分局,120.68968,24.161304,金龍里,249.0
211.0,臺中市北區金龍里榮華街7號,1,第二分局,120.686535,24.159395,金龍里,413.0
212.0,臺中市北區育德里育德路109之1號,1,第二分局,120.674997,24.157105,育德里,112.0
213.0,臺中市北區建興里健行路198巷16號2樓之1,1,第二分局,120.6860217,24.16001082,建興里,227.0
214.0,臺中市北區賴村里學士路267號,1,第二分局,120.6808234,24.16239246,賴村里,499.0
215.0,臺中市北區金龍里學士路106號,2,第二分局," 120.68135",24.157736,金龍里,11492.0
216.0,臺中市北區育德里美德街275號,1,第二分局,120.6770728,24.15831708,育德里,183.0
217.0,臺中市北區崇德里太原路三段8號,1,第二分局,120.685445,24.164904,崇德里,1705.0
218.0,臺中市北區崇德里太原路三段63號,1,第二分局,120.687551,24.16533,崇德里,557.0
219.0,臺中市北區賴厝里東漢街7號,1,第二分局,120.6794873,24.16626487,賴厝里,1184.0
220.0,臺中市北區邱厝里大德街47號,1,第二分局,120.6788077,24.15723711,邱厝里,1297.0
221.0,臺中市北區建興里崇德路一段256巷2號,1,第二分局," 120.68610",24.161186,建興里,1158.0
222.0,臺中市北區賴厝里漢口路四段168號,1,第二分局," 120.67849",24.166268,賴厝里,991.0
223.0,臺中市北區金龍里金龍街112號,1,第二分局,120.6877528,24.15866946,金龍里,1472.0
224.0,臺中市北區賴村里五常街193號,1,第二分局,120.679847,24.159965,賴村里,383.0
225.0,臺中市北區金龍里益華街79號,1,第二分局,120.6890547,24.16015207,金龍里,332.0
226.0,臺中市北區育德里育德路98號,1,第二分局,120.674768,24.157935,育德里,3131.0
227.0,臺中市北區金龍里三民路三段315巷17號,1,第二分局,120.6882585,24.15754192,金龍里,262.0
228.0,臺中市北區賴厝里山西路一段50號,1,第二分局," 120.67552",24.165946,賴厝里,1957.0
229.0,臺中市北區梅川里文昌東二街146號,1,第二分局,120.6778224,24.16949415,梅川里,263.0
230.0,臺中市北區賴村里學士路181號,1,第二分局,120.6808286,24.15980613,賴村里,418.0
231.0,臺中市北區頂厝里崇德路一段625號,3,第二分局," 120.68491",24.167497,頂厝里,577.0
232.0,臺中市北區金龍里三民路三段315巷33號,1,第二分局,120.6880904,24.15759264,金龍里,510.0
233.0,臺中市北區健行里忠太西路32號,1,第二分局," 120.66768",24.161747,健行里,126.0
234.0,臺中市北區立人里陝西二街9號,1,第二分局," 120.66777",24.171277,立人里,174.0
235.0,臺中市北區立人里陝西二街7號,1,第二分局,120.667800,24.171394,立人里,160.0
236.0,臺中市北區健行里德化街607號,1,第二分局,120.666844,24.161453,健行里,470.0
237.0,臺中市北區淡溝里博館路1號,1,第二分局,120.669337,24.158953,淡溝里,1415.0
238.0,臺中市北區明德里漢口路三段76號,1,第二分局," 120.66829",24.167042,明德里,246.0
239.0,臺中市北區淡溝里博館東街21號,1,第二分局,120.666443,24.15483,淡溝里,306.0
240.0,臺中市北區淡溝里博館一街12號,1,第二分局," 120.66724",24.155001,淡溝里,78.0
241.0,臺中市北區淡溝里博館路87號,3,第二分局,120.666853,24.155204,淡溝里,540.0
242.0,臺中市北區淡溝里博館二街32號,2,第二分局,120.666721,24.154391,淡溝里,567.0
243.0,臺中市北區淡溝里博館路26號,2,第二分局,120.669527,24.157882,淡溝里,1135.0
244.0,臺中市北區淡溝里美德街395號,1,第二分局,120.671165,24.158620,淡溝里,414.0
245.0,臺中市北區淡溝里美德街486號,1、2,第二分局," 120.67149",24.158714,淡溝里,1977.0
246.0,臺中市北區明德里漢口南一街53之1號,1,第二分局,120.667931,24.166380,明德里,94.0
247.0,臺中市北區大湖里公園路128號,1,第二分局,120.678203,24.149242,大湖里,518.0
248.0,臺中市北區大湖里湖北街36號,1,第二分局,120.679136,24.148924,大湖里,471.0
249.0,臺中市北區大湖里文祥街2號,1,第二分局,120.6797,24.148734,大湖里,210.0
250.0,臺中市北區中正里中山路429巷13號,1,第二分局,120.673679,24.145147,中正里,106.0
251.0,臺中市北區中正里原子街11號,1,第二分局,120.67273,24.145112,中正里,166.0
252.0,臺中市北區文莊里文化街12號,1,第二分局,120.676665,24.152322,文莊里,171.0
253.0,臺中市北區文莊里五權路231號,1,第二分局,120.675725,24.150107,文莊里,216.0
254.0,臺中市北區文莊里五權路207之2號,1,第二分局," 120.67509",24.149737,文莊里,58.0
255.0,臺中市北區文莊里文化街46號,1,第二分局,120.675529,24.152294,文莊里,246.0
256.0,臺中市北區文莊里文化街34號,1,第二分局,120.675932,24.152301,文莊里,83.0
257.0,臺中市北區光大里五權路329之2號,1,第二分局," 120.67930",24.152423,光大里,186.0
258.0,臺中市北區光大里五權路325號,1,第二分局,120.679052,24.152208,光大里,190.0
259.0,臺中市北區大湖里湖北街66號,1,第二分局,120.679157,24.151102,大湖里,250.0
260.0,臺中市北區光大里太平路172巷11號,1,第二分局,120.678473,24.15218,光大里,110.0
261.0,臺中市北區文莊里日進街3號,1,第二分局,120.675124,24.151396,文莊里,127.0
262.0,臺中市北區文莊里日進街1號,2,第二分局,120.675161,24.151401,文莊里,645.0
263.0,臺中市北區中達里篤行路288號,1,第二分局,120.673813,24.154401,中達里,83.0
264.0,臺中市北區育德里篤行路384號,1,第二分局,120.673801,24.157783,育德里,94.0
265.0,臺中市北區中達里英才路286號,1,第二分局," 120.67129",24.156113,中達里,302.0
266.0,臺中市北區中達里篤行路358之1巷2號,1,第二分局,120.673786,24.1560497,中達里,136.0
267.0,臺中市北區五常里英才路1號,1,第二分局,120.678332,24.155387,五常里,1239.0
268.0,臺中市北區五常里五義街132號,1,第二分局,120.681611,24.154805,五常里,260.0
269.0,臺中市北區五常里學士路87巷3號,1,第二分局,120.6813479,24.15523827,五常里,324.0
270.0,臺中市北區五常里五義街147號,1,第二分局,120.681281,24.154129,五常里,124.0
271.0,臺中市北區五常里五義街141號,1,第二分局,120.681436,24.154247,五常里,244.0
272.0,臺中市北區六合里篤行路105號,1,第二分局,120.676057,24.148025,六合里,140.0
273.0,臺中市北區六合里原子街117號,1,第二分局,120.675523,24.147814,六合里,96.0
274.0,臺中市北區六合里成功路496號,1,第二分局,120.675488,24.14743,六合里,125.0
275.0,臺中市北區六合里成功路490號,1,第二分局,120.675799,24.147252,六合里,893.0
276.0,臺中市北區中正里臺灣大道一段672號,1,第二分局,120.675055,24.146711,中正里,90.0
277.0,臺中市北區中正里臺灣大道一段682號,1,第二分局,120.675048,24.146782,中正里,90.0
278.0,臺中市北區中正里臺灣大道一段676號,1,第二分局," 120.67505",24.146702,中正里,90.0
279.0,臺中市北區六合里臺灣大道一段632號,1,第二分局,120.675625,24.146087,六合里,216.0
280.0,臺中市北區六合里成功路387號,1,第二分局,120.676383,24.146291,六合里,124.0
281.0,臺中市北區六合里成功路457之1號,1,第二分局," 120.67500",24.147867,六合里,150.0
282.0,臺中市北區六合里成功路453號,1,第二分局,120.675085,24.147459,六合里,116.0
283.0,臺中市北區六合里成功路449號,1,第二分局,120.675151,24.147452,六合里,150.0
284.0,臺中市北區六合里福龍街99號,1,第二分局,120.674561,24.147732,六合里,536.0
285.0,臺中市北區六合里臺灣大道一段700號,1,第二分局,120.674657,24.146993,六合里,343.0
286.0,臺中市北區光大里湖北街124號,1,第二分局,120.677713,24.152778,光大里,1302.0
287.0,臺中市北區六合里成功路385號,1,第二分局,120.676415,24.146265,六合里,124.0
288.0,臺中市北區六合里臺灣大道一段680號,1,第二分局,120.675062,24.146554,六合里,90.0
289.0,臺中市北區六合里成功路401號,1,第二分局,120.676212,24.146402,六合里,118.0
290.0,臺中市北區六合里臺灣大道一段642號,1,第二分局," 120.67542",24.146369,六合里,98.0
291.0,臺中市北區健行里德化街607號,1,第二分局,120.666844,24.161453,健行里,293.0
292.0,臺中市北區淡溝里博館二街45巷1號,1,第二分局,120.667272,24.154333,淡溝里,763.0
293.0,臺中市北區明德里太原五街13號,1,第二分局,120.669908,24.165859,明德里,150.0
294.0,臺中市北區淡溝里西屯路一段250巷1號,1,第二分局,120.668873,24.155912,淡溝里,204.0
295.0,臺中市北區淡溝里博館路45巷1號,1,第二分局,120.667435,24.155484,淡溝里,712.0
296.0,臺中市北區中正里民權路222號,1,第二分局,120.672343,24.1448,中正里,286.0
297.0,臺中市北區淡溝里民權路472之9號,1、2,第二分局," 120.67065",24.158790,淡溝里,3559.0
298.0,臺中市北區六合里福龍街102號,1,第二分局," 120.67518",24.148167,六合里,83.0
299.0,臺中市北區六合里成功路440號,1,第二分局,120.676376,24.146667,六合里,100.0
300.0,臺中市北區六合里成功路438號,1,第二分局,120.676406,24.146642,六合里,116.0
301.0,臺中市北區六合里成功路436號,1,第二分局,120.676435,24.146615,六合里,100.0
302.0,臺中市北區六合里成功路434號,1,第二分局,120.676466,24.146588,六合里,100.0
303.0,臺中市北區六合里成功路432號,1,第二分局,120.676494,24.146561,六合里,100.0
304.0,臺中市北區大湖里太平路100號,2,第二分局,120.680172,24.149854,大湖里,948.0
305.0,臺中市北區大湖里中華路二段133號,1,第二分局,120.680466,24.149052,大湖里,96.0
306.0,臺中市北區中正里原子街59號,2,第二分局,120.673962,24.14627,中正里,208.0
307.0,臺中市北區中正里原子街69號,2,第二分局,120.67419,24.146419,中正里,489.0
308.0,臺中市北區六合里臺灣大道一段601號,1,第二分局," 120.67585",24.145710,六合里,323.0
309.0,臺中市北區中正里臺灣大道一段677號,1,第二分局,120.674595,24.146753,中正里,83.0
310.0,臺中市北區中正里臺灣大道一段671號,1,第二分局,120.674707,24.146715,中正里,150.0
311.0,臺中市北區中正里民族路256號,1,第二分局," 120.67442",24.144618,中正里,88.0
312.0,臺中市北區中正里民族路246號,1,第二分局,120.674446,24.144169,中正里,147.0
313.0,臺中市北區中正里民族路248號,1,第二分局,120.674418,24.144207,中正里,147.0
314.0,臺中市北區中正里中山路373號,1,第二分局,120.674797,24.14496,中正里,103.0
315.0,臺中市北區中正里中山路407號,1,第二分局,120.674295,24.145375,中正里,145.0
316.0,臺中市北區中正里中山路391號,1,第二分局,120.674578,24.145102,中正里,228.0
317.0,臺中市北區中正里中山路371號,1,第二分局,120.674814,24.144943,中正里,472.0
318.0,臺中市北區中正里民族路250號*,1,第二分局,120.674392,24.144235,中正里,147.0
319.0,臺中市北區中達里英才路170巷12號,1,第二分局,120.67473,24.156234,中達里,133.0
320.0,臺中市北區中達里英才路170巷14號,1,第二分局,120.674656,24.156248,中達里,100.0
321.0,臺中市北區中達里英才路260號,1,第二分局,120.672177,24.15594,中達里,303.0
322.0,臺中市北區中達里華中街15號,1,第二分局," 120.67196",24.156559,中達里,123.0
323.0,臺中市北區中達里華中街26號,1,第二分局," 120.67216",24.157220,中達里,116.0
324.0,臺中市北區中達里華中街9號,1,第二分局," 120.67182",24.156564,中達里,166.0
325.0,臺中市北區光大里五權路279號,1,第二分局,120.67775,24.151685,光大里,116.0
326.0,臺中市北區光大里五順街249號,1,第二分局,120.678803,24.152505,光大里,158.0
327.0,臺中市北區光大里五順街257號,1,第二分局,120.678624,24.152463,光大里,260.0
328.0,臺中市北區光大里五順街269號,1,第二分局,120.678365,24.152342,光大里,520.0
329.0,臺中市北區光大里五權路300號,1,第二分局,120.67876,24.151605,光大里,83.0
330.0,臺中市北區光大里太平路168號,1,第二分局,120.678113,24.151872,光大里,168.0
331.0,臺中市北區光大里原子街127巷2弄18號,1,第二分局,120.676469,24.149268,光大里,286.0
332.0,臺中市北區光大里五權路182號,1,第二分局,120.6757556,24.14966,光大里,729.0
333.0,臺中市北區六合里原子街125號,2,第二分局,120.675656,24.148164,六合里,469.0
334.0,臺中市北區光大里原子街141號,1,第二分局," 120.67671",24.149412,光大里,83.0
335.0,臺中市北區中達里篤行路333巷1號,1,第二分局,120.672773,24.156517,中達里,300.0
336.0,臺中市北區中達里英才路236號,1,第二分局,120.673081,24.155929,中達里,422.0
337.0,臺中市北區中達里華中街27號,1,第二分局," 120.67203",24.157104,中達里,341.0
338.0,臺中市北區光大里原子街158號,1,第二分局,120.677128,24.148965,光大里,375.0
339.0,臺中市北區光大里原子街127巷21-2號,1,第二分局,120.676305,24.149324,光大里,302.0
340.0,臺中市北區光大里公園路182號,1,第二分局,120.677717,24.150804,光大里,496.0
341.0,臺中市北區光大里公園路211號,1,第二分局,120.677477,24.150169,光大里,166.0
342.0,臺中市北區光大里原子街143號,1,第二分局,120.676867,24.149066,光大里,83.0
343.0,臺中市北區光大里公園路186號,1,第二分局,120.677635,24.151022,光大里,291.0
344.0,臺中市北區大湖里太平路167號,1,第二分局,120.679788,24.149432,大湖里,660.0
345.0,臺中市北區大湖里中華路二段131號,1,第二分局,120.680451,24.149014,大湖里,190.0
346.0,臺中市北區六合里臺灣大道一段640號,1,第二分局," 120.67557",24.146390,六合里,180.0
347.0,臺中市北區五常里五順街158號,1,第二分局,120.680846,24.153696,五常里,250.0
348.0,臺中市北區五常里五義街160號,1,第二分局,120.680964,24.154318,五常里,317.0
349.0,臺中市北區五常里五義街169號,1,第二分局,120.680333,24.153715,五常里,324.0
350.0,臺中市北區五常里五順街235號,1,第二分局,120.681392,24.153476,五常里,166.0
351.0,臺中市北區五常里五常街59巷2號,1,第二分局,120.680539,24.154243,五常里,100.0
352.0,臺中市北區文莊里日進街31號,1,第二分局,120.674511,24.151444,文莊里,83.0
353.0,臺中市北區淡溝里西屯路一段250巷11號,1,第二分局," 120.66908",24.156114,淡溝里,290.0
354.0,臺中市北區淡溝里博館路10號,3,第二分局,120.669284,24.15855,淡溝里,800.0
355.0,臺中市北區錦平里中華路二段120號,1,第二分局,120.682311,24.152107,錦平里,219.0
356.0,臺中市北區淡溝里博館二街62號,3,第二分局,120.667101,24.15407,淡溝里,513.0
357.0,臺中市北區淡溝里育德路170號,1,第二分局,120.671459,24.157606,淡溝里,276.0
358.0,臺中市北區淡溝里大仁街70號,1,第二分局,120.669425,24.153949,淡溝里,525.0
359.0,臺中市北區五常里五權路499號,1,第二分局,120.68467,24.154257,五常里,1819.0
360.0,臺中市北區邱厝里英才路98號,1,第二分局," 120.67812",24.156138,邱厝里,1544.0
361.0,臺中市北區光大里英士路29號,1,第二分局,120.677053,24.149417,光大里,702.0
362.0,臺中市北區光大里英士路28號,1,第二分局,120.677036,24.149605,光大里,1268.0
363.0,臺中市北區六合里五權路166號,1,第二分局,120.674903,24.148695,六合里,1182.0
364.0,臺中市北區淡溝里英才路386之1號,1,第二分局,120.668132,24.154820,淡溝里,1608.0
365.0,臺中市北區淡溝里英才路380之1號,1,第二分局," 120.66883",24.155505,淡溝里,1536.0
366.0,臺中市北區淡溝里英才路390號之5,1,第二分局,120.667821,24.154379,淡溝里,694.0
367.0,臺中市北區大湖里柳川西路四段37號,1,第二分局,120.6773291,24.151276,大湖里,100.0
368.0,臺中市北區六合里成功路450號,1,第二分局," 120.67614",24.146917,六合里,161.0
369.0,臺中市北區五常里學士路98號,2,第二分局," 120.68222",24.155017,五常里,3641.0
370.0,臺中市北區淡溝里民權路411號,3,第二分局,120.6704612,24.15854179,淡溝里,3914.0
371.0,臺中市北區淡溝里英才路377號,1,第二分局,120.668203,24.154520,淡溝里,1545.0
372.0,臺中市北區淡溝里臺灣大道二段362號,1,第二分局,120.671248,24.159064,淡溝里,966.0
373.0,臺中市北區光大里五權路216號,1,第二分局,120.676738,24.15070962,光大里,995.0
374.0,臺中市北區淡溝里育德路187之1號,1,第二分局,120.6718969,24.15739263,淡溝里,800.0
375.0,臺中市北區中達里日盛街59號,1,第二分局,120.6716514,24.15311301,中達里,369.0
376.0,臺中市北區淡溝里西屯路一段226號之3,1,第二分局," 120.67078",24.153831,淡溝里,520.0
377.0,臺中市北區中達里英才路258號,1,第二分局,120.6724326,24.15574779,中達里,459.0
378.0,臺中市北區文莊里五權路255號,1,第二分局,120.675923,24.15051615,文莊里,9184.0
379.0,臺中市北區淡溝里健行路803號,1,第二分局,120.6713741,24.1591918,淡溝里,351.0
380.0,臺中市北區淡溝里育德路178號,1,第二分局,120.6712482,24.15784084,淡溝里,594.0
381.0,臺中市北區中達里英才路280號,1,第二分局,120.671498,24.156197,中達里,96.0
382.0,臺中市北區建德里國強街61號,1,第二分局,120.697247,24.157437,建德里,166.0
383.0,臺中市北區建德里國強街24巷1號,1,第二分局,120.6954162,24.1563853,建德里,346.0
384.0,臺中市北區建德里梅豐街23號,1,第二分局," 120.69767",24.156771,建德里,86.0
385.0,臺中市北區建德里國強街22號,1,第二分局,120.697585,24.156637,建德里,93.0
386.0,臺中市北區建德里國瑞街2號,1,第二分局,120.698393,24.157537,建德里,200.0
387.0,臺中市北區錦洲里瑞祥街28號,1,第二分局,120.695301,24.156953,錦洲里,930.0
388.0,臺中市北區錦平里三民路三段129號,1,第二分局,120.6814945,24.1496435,錦平里,520.0
389.0,臺中市北區錦平里三民路三段141號,1,第二分局,120.684597,24.151432,錦平里,100.0
390.0,臺中市北區錦平里三民路三段157號,4,第二分局,120.684903,24.151984,錦平里,1096.0
391.0,臺中市北區錦平里三民路三段187號,4,第二分局,120.685456,24.152935,錦平里,2266.0
392.0,臺中市北區錦平里三民路三段203號,2,第二分局,120.68534,24.1533,錦平里,183.0
393.0,臺中市北區錦平里三民路三段117號,1,第二分局," 120.68328",24.148289,錦平里,83.0
394.0,臺中市北區錦祥里德化街42號,1,第二分局,120.692758,24.161282,錦祥里,100.0
395.0,臺中市北區錦祥里德化街40號,1,第二分局,120.692789,24.161263,錦祥里,100.0
396.0,臺中市北區錦祥里北屯路24巷1號,1,第二分局,120.6925949,24.16133844,錦祥里,62.0
397.0,臺中市北區錦祥里北屯路24巷11號,1,第二分局,120.692544,24.161477,錦祥里,100.0
398.0,臺中市北區錦祥里北屯路24巷27弄3號,1,第二分局," 120.69326",24.161500,錦祥里,150.0
399.0,臺中市北區建成里天祥街276巷16號,1,第二分局,120.703314,24.158204,建成里,258.0
400.0,臺中市北區錦村里自強一街32號,1,第二分局,120.695988,24.153419,錦村里,100.0
401.0,臺中市北區錦村里自強一街7號,1,第二分局,120.696791,24.152946,錦村里,83.0
402.0,臺中市北區錦村里自強一街10號,1,第二分局,120.696746,24.153168,錦村里,83.0
403.0,臺中市北區錦村里自強一街9號,1,第二分局,120.696737,24.152963,錦村里,83.0
404.0,臺中市北區樂英里力行路262號之1,1,第二分局," 120.69004",24.152885,樂英里,135.0
405.0,臺中市北區錦祥里北屯路10號,1,第二分局," 120.69186",24.160028,錦祥里,916.0
406.0,臺中市北區金華里自強街45巷82號,1,第二分局,120.695044,24.154741,金華里,83.0
407.0,臺中市北區金華里自強街45巷80號,1,第二分局,120.695063,24.154807,金華里,100.0
408.0,臺中市北區新興里太平路17號,1,第二分局," 120.68573",24.147591,新興里,274.0
409.0,臺中市北區新興里太平路47號,1,第二分局,120.684796,24.147639,新興里,100.0
410.0,臺中市北區新興里太平路19巷3弄1號之3,1,第二分局," 120.68527",24.147180,新興里,90.0
411.0,臺中市北區錦村里進化路351巷6號,1,第二分局,120.693961,24.154144,錦村里,133.0
412.0,臺中市北區金華里進化路363巷11號,1,第二分局,120.693862,24.154115,金華里,133.0
413.0,臺中市北區金華里自強街45巷76號之1,1,第二分局," 120.69525",24.155123,金華里,116.0
414.0,臺中市北區錦村里進化路330號,2,第二分局,120.69461,24.153572,錦村里,117.0
415.0,臺中市北區錦村里自強一街39號,1,第二分局,120.695753,24.153305,錦村里,158.0
416.0,臺中市北區新北里雙十路二段45巷10號,2,第二分局,120.688134,24.153489,新北里,781.0
417.0,臺中市北區樂英里雙十路一段16號,1,第二分局,120.687420,24.149245,樂英里,492.0
418.0,臺中市北區樂英里雙十路一段14號,1,第二分局,120.686705,24.145283,樂英里,300.0
419.0,臺中市北區建德里興進路72號,1,第二分局,120.697091,24.155766,建德里,277.0
420.0,臺中市北區建德里興進路134號,1,第二分局,120.695339,24.155819,建德里,294.0
421.0,臺中市北區樂英里錦中街41號,1,第二分局," 120.68832",24.155039,樂英里,10440.0
422.0,臺中市北區建德里國豐街36-1號,1,第二分局,120.696040,24.157097,建德里,255.0
423.0,臺中市北區建成里梅豐街47號,1,第二分局,120.69683,24.156835,建成里,200.0
424.0,臺中市北區建德里國強街62號,1,第二分局,120.697472,24.157658,建德里,133.0
425.0,臺中市北區建德里國瑞街93號,1,第二分局,120.696104,24.157471,建德里,100.0
426.0,臺中市北區建成里東成二街７３號,1,第二分局," 120.70191",24.159888,建成里,350.0
427.0,臺中市北區新興里三民路三段69號,1,第二分局,120.682526,24.146536,新興里,432.0
428.0,臺中市北區新興里三民路三段77號,1,第二分局,120.682627,24.146754,新興里,432.0
429.0,臺中市北區新北里尊賢街11號,1,第二分局,120.685787,24.149328,新北里,416.0
430.0,臺中市北區錦祥里雙十路二段48巷33號,1,第二分局,120.6939017,24.15633584,錦祥里,156.0
431.0,臺中市北區建成里東光二街13-3號,1,第二分局," 120.69975",24.152986,建成里,233.0
432.0,臺中市北區金華里進化路351巷16號,1,第二分局,120.693636,24.154032,金華里,208.0
433.0,臺中市北區金華里興進路177號,3,第二分局,120.69379,24.154765,金華里,312.0
434.0,臺中市北區金華里興進路191號,2,第二分局,120.69314,24.154916,金華里,244.0
435.0,臺中市北區錦祥里雙十路二段92號,2,第二分局,120.691420,24.159087,錦祥里,304.0
436.0,臺中市北區錦洲里國泰街84巷6號,1,第二分局," 120.69635",24.160887,錦洲里,221.0
437.0,臺中市北區錦洲里國泰街42號,1,第二分局,120.697252,24.159977,錦洲里,277.0
438.0,臺中市北區錦祥里北屯路14號,2,第二分局," 120.69214",24.160492,錦祥里,2604.0
439.0,臺中市北區新興里精武路291之3號,1,第二分局," 120.68554",24.146089,新興里,503.0
440.0,臺中市北區新興里三民路三段48號,1,第二分局,120.682911,24.146346,新興里,180.0
441.0,臺中市北區錦平里五權路334號,1,第二分局,120.680351,24.152204,錦平里,285.0
442.0,臺中市北區錦平里五權路354號,1,第二分局,120.680538,24.152215,錦平里,416.0
443.0,臺中市北區錦平里文祥街33號,1,第二分局," 120.68034",24.150469,錦平里,88.0
444.0,臺中市北區錦平里太平路74號,1,第二分局," 120.68161",24.149642,錦平里,392.0
445.0,臺中市北區錦平里中華路二段171號,1,第二分局,120.681213,24.150278,錦平里,478.0
446.0,臺中市北區錦平里五權路322號,1,第二分局,120.680015,24.1521,錦平里,367.0
447.0,臺中市北區錦平里中華路二段112巷2號,1,第二分局," 120.68289",24.151833,錦平里,167.0
448.0,臺中市北區錦平里五常街6-8號,1,第二分局,120.681586,24.152431,錦平里,225.0
449.0,臺中市北區錦平里太平路74號,1,第二分局," 120.68174",24.149642,錦平里,862.0
450.0,臺中市北區錦平里五權路336號,1,第二分局,120.6783027,24.1522477,錦平里,520.0
451.0,臺中市北區錦祥里進化路627號,1,第二分局,120.694212,24.160856,錦祥里,255.0
452.0,臺中市北區錦祥里進化路667號,1,第二分局,120.693694,24.161609,錦祥里,276.0
453.0,臺中市北區建成里東成三街360號,1,第二分局,120.701733,24.157482,建成里,125.0
454.0,臺中市北區建成里東成三街206號,1,第二分局,120.701235,24.155742,建成里,208.0
455.0,臺中市北區建成里東光路366巷121號,1,第二分局," 120.69932",24.158044,建成里,619.0
456.0,臺中市北區建成里東光路366巷51號,1,第二分局," 120.70174",24.156260,建成里,2344.0
457.0,臺中市北區建成里東成三街296號,1,第二分局,120.702278,24.156483,建成里,500.0
458.0,臺中市北區建成里東成路47巷6號,1,第二分局,120.700841,24.157468,建成里,416.0
459.0,臺中市北區建德里興進路76巷2號,1,第二分局," 120.69708",24.156125,建德里,277.0
460.0,臺中市北區錦平里三民路三段125號,2,第二分局,120.68328,24.14872,錦平里,986.0
461.0,臺中市北區金華里雙十路二段73號,1,第二分局,120.689545,24.155031,金華里,125.0
462.0,臺中市北區金華里三民路三段258號,1,第二分局,120.687687,24.155681,金華里,166.0
463.0,臺中市北區錦洲里富強街102號,1,第二分局,120.69548,24.158467,錦洲里,188.0
464.0,臺中市北區錦洲里瑞祥街90巷2號,1,第二分局," 120.69543",24.158873,錦洲里,110.0
465.0,臺中市北區錦洲里國泰街81號,1,第二分局,120.695812,24.160060,錦洲里,83.0
466.0,臺中市北區金華里三民路三段266號,1,第二分局,120.687907,24.155856,金華里,166.0
467.0,臺中市北區錦祥里育強街86號,1,第二分局,120.692899,24.159648,錦祥里,183.0
468.0,臺中市北區錦洲里國泰街84巷6號,1,第二分局," 120.69631",24.160760,錦洲里,221.0
469.0,臺中市北區建成里東光三街26巷1號之17,1,第二分局,120.699169,24.153691,建成里,312.0
470.0,臺中市北區建成里東光東街31號,1,第二分局,120.699586,24.153924,建成里,520.0
471.0,臺中市北區建成里東光一街7-1號,1,第二分局," 120.69925",24.152699,建成里,260.0
472.0,臺中市北區建成里東光東街81號,1,第二分局,120.699026,24.153877,建成里,1197.0
473.0,臺中市北區金華里雙十路二段139號,1,第二分局,120.690371,24.157589,金華里,233.0
474.0,臺中市北區金華里進德北路138號,1,第二分局,120.692989,24.153977,金華里,166.0
475.0,臺中市北區錦村里進化路351巷11號,1,第二分局,120.693699,24.153832,錦村里,83.0
476.0,臺中市北區錦祥里北屯路4號,1,第二分局,120.6901926,24.1617977,錦祥里,555.0
477.0,臺中市北區建成里東光路266號,1,第二分局,120.698721,24.152201,建成里,125.0
478.0,臺中市北區錦祥里雙十路二段48巷29號,2,第二分局,120.69306,24.156137,錦祥里,151.0
479.0,臺中市北區錦村里自強一街14號,1,第二分局,120.6943738,24.1532264,錦村里,116.0
480.0,臺中市北區錦村里自強一街20號,1,第二分局,120.696368,24.153265,錦村里,100.0
481.0,臺中市北區錦村里自強一街18號,1,第二分局,120.696428,24.153245,錦村里,100.0
482.0,臺中市北區錦村里自強街36巷11號,1,第二分局,120.697604,24.153327,錦村里,91.0
483.0,臺中市北區錦村里自強街26巷19-1號,1,第二分局," 120.69764",24.152015,錦村里,100.0
484.0,臺中市北區錦村里自強一街26號,1,第二分局,120.696217,24.153341,錦村里,83.0
485.0,臺中市北區錦祥里北屯路12巷24號,1,第二分局,120.692148,24.160112,錦祥里,325.0
486.0,臺中市北區錦祥里北屯路12巷26弄3號,1,第二分局,120.6898062,24.1600589,錦祥里,397.0
487.0,臺中市北區錦祥里進化路573號之9,2,第二分局," 120.69421",24.159715,錦祥里,3416.0
488.0,臺中市北區錦祥里北屯路22號,1,第二分局,120.692356,24.160941,錦祥里,986.0
489.0,臺中市北區錦祥里北屯路12巷26弄12號,1,第二分局,120.691898,24.160239,錦祥里,1003.0
490.0,臺中市北區錦祥里雙十路二段50號,1,第二分局,120.690681,24.156948,錦祥里,225.0
491.0,臺中市北區錦祥里雙十路二段48巷1弄4號,1,第二分局," 120.69321",24.156619,錦祥里,83.0
492.0,臺中市北區錦祥里雙十路二段48巷3弄9號,1,第二分局,120.69306,24.156137,錦祥里,166.0
493.0,臺中市北區錦祥里雙十路二段48巷3弄19號,1,第二分局," 120.69374",24.156324,錦祥里,83.0
494.0,臺中市北區錦祥里雙十路二段48巷3弄50號,1,第二分局,120.69306,24.156137,錦祥里,705.0
495.0,臺中市北區錦祥里雙十路二段48巷3弄54號,1,第二分局,120.69306,24.156137,錦祥里,116.0
496.0,臺中市北區錦祥里雙十路二段48巷3弄56號,1,第二分局,120.69306,24.156137,錦祥里,108.0
497.0,臺中市北區錦祥里雙十路二段48巷3弄58號,1,第二分局," 120.69228",24.157293,錦祥里,72.0
498.0,臺中市北區錦祥里雙十路二段48巷3弄62號,1,第二分局,120.692272,24.157395,錦祥里,52.0
499.0,臺中市北區錦祥里雙十路二段48巷3弄68號,1,第二分局," 120.69200",24.157403,錦祥里,62.0
500.0,臺中市北區錦祥里雙十路二段48巷3弄70號,1,第二分局,120.691994,24.157504,錦祥里,62.0
501.0,臺中市北區錦祥里雙十路二段48巷17號,1,第二分局,120.69306,24.156137,錦祥里,239.0
502.0,臺中市北區錦祥里育興街１巷８號,1,第二分局," 120.69252",24.156260,錦祥里,244.0
503.0,臺中市北區新興里太平路57號,1,第二分局,120.684608,24.147704,新興里,83.0
504.0,臺中市北區新興里太平路53號,1,第二分局,120.684697,24.14768,新興里,83.0
505.0,臺中市北區錦洲里國瑞街95號,1,第二分局,120.695845,24.157489,錦洲里,108.0
506.0,臺中市北區錦洲里國瑞街111號,1,第二分局,120.69529,24.157489,錦洲里,108.0
507.0,臺中市北區錦洲里國豐街75號,1,第二分局,120.695826,24.158142,錦洲里,108.0
508.0,臺中市北區錦洲里國豐街81號,1,第二分局,120.695865,24.158297,錦洲里,108.0
509.0,臺中市北區錦洲里富強街103號,1,第二分局,120.695614,24.158287,錦洲里,108.0
510.0,臺中市北區錦洲里瑞祥街76號,1,第二分局,120.695334,24.158076,錦洲里,108.0
511.0,臺中市北區錦洲里國瑞街102號,1,第二分局,120.695767,24.157668,錦洲里,108.0
512.0,臺中市北區錦洲里天祥街60號,1,第二分局,120.696329,24.160872,錦洲里,108.0
513.0,臺中市北區錦洲里富強街113號,1,第二分局,120.695082,24.1583,錦洲里,108.0
514.0,臺中市北區建德里國強街119巷1號,1,第二分局," 120.69693",24.160493,建德里,677.0
515.0,臺中市北區錦洲里天祥街80號,1,第二分局,120.69692,24.160799,錦洲里,101.0
516.0,臺中市北區錦洲里梅豐街95號,1,第二分局,120.694976,24.156609,錦洲里,108.0
517.0,臺中市北區錦洲里國豐街137號,1,第二分局,120.69586,24.159979,錦洲里,108.0
518.0,臺中市北區錦洲里梅豐街89號,1,第二分局,120.695336,24.156618,錦洲里,108.0
519.0,臺中市北區建德里國瑞街67號,1,第二分局,120.696678,24.157457,建德里,177.0
520.0,臺中市北區建德里國瑞街65號,1,第二分局,120.696715,24.157468,建德里,177.0
521.0,臺中市北區建德里國瑞街63號,1,第二分局,120.696755,24.157458,建德里,177.0
522.0,臺中市北區建德里國瑞街61號,1,第二分局,120.696895,24.157458,建德里,177.0
523.0,臺中市北區建德里國瑞街57號,1,第二分局,120.696977,24.157458,建德里,177.0
524.0,臺中市北區建德里國瑞街55號,1,第二分局,120.697019,24.157436,建德里,177.0
525.0,臺中市北區建德里國瑞街53號,1,第二分局,120.697059,24.157436,建德里,177.0
526.0,臺中市北區建德里國瑞街51號,1,第二分局,120.697143,24.157458,建德里,177.0
527.0,臺中市北區建德里國瑞街49號,1,第二分局,120.697143,24.157458,建德里,177.0
528.0,臺中市北區建德里國強街81號,1,第二分局,120.697245,24.158491,建德里,100.0
529.0,臺中市北區建德里國豐街74號,1,第二分局,120.696223,24.158114,建德里,150.0
530.0,臺中市北區建德里國瑞街93號,1,第二分局,120.696104,24.157471,建德里,166.0
531.0,臺中市北區建德里國豐街40號,1,第二分局,120.696074,24.157014,建德里,166.0
532.0,臺中市北區樂英里力行路258號,1,第二分局," 120.69108",24.152672,樂英里,1041.0
533.0,臺中市北區樂英里力行路271號,1,第二分局,120.689795,24.152591,樂英里,500.0
534.0,臺中市北區新興里太平路55號,1,第二分局,120.684653,24.147689,新興里,83.0
535.0,臺中市北區新興里太平路19巷5弄1號,1,第二分局,120.684895,24.146829,新興里,116.0
536.0,臺中市北區新興里太平路19巷5弄25號,1,第二分局,120.684352,24.146937,新興里,207.0
537.0,臺中市北區建成里東光八街36號,1,第二分局,120.700985,24.159431,建成里,163.0
538.0,臺中市北區建成里東光八街38號,1,第二分局,120.700937,24.159448,建成里,163.0
539.0,臺中市北區建成里東光八街46號,1,第二分局,120.700827,24.159502,建成里,163.0
540.0,臺中市北區錦祥里進化路639號,1,第二分局," 120.69404",24.161085,錦祥里,98.0
541.0,臺中市北區錦平里太平路62號,2,第二分局,120.682841,24.14871,錦平里,483.0
542.0,臺中市北區建德里福樂街3號,1,第二分局,120.698485,24.158981,建德里,218.0
543.0,臺中市北區建德里福樂街14巷2號,1,第二分局,120.698196,24.159407,建德里,218.0
544.0,臺中市北區錦祥里北屯路26號,1,第二分局,120.692564,24.161518,錦祥里,372.0
545.0,臺中市北區錦祥里梅亭東街35號,1,第二分局,120.693265,24.159531,錦祥里,233.0
546.0,臺中市北區新北里太平路18號,1,第二分局,120.685593,24.147701,新北里,83.0
547.0,臺中市北區新北里育才街3巷3號,1,第二分局," 120.68631",24.148910,新北里,83.0
548.0,臺中市北區新北里雙十路一段117號,1,第二分局," 120.68658",24.148271,新北里,83.0
549.0,臺中市北區新北里尊賢街7號,1、2、3、4,第二分局," 120.68528",24.148916,新北里,11474.0
550.0,臺中市北區錦村里南京東路7號,1,第二分局," 120.69713",24.145433,錦村里,574.0
551.0,臺中市北區錦洲里進化路546號,1,第二分局,120.694631,24.15849,錦洲里,305.0
552.0,臺中市北區金華里進化路381號,2,第二分局,120.694184,24.154899,金華里,567.0
553.0,臺中市北區錦平里育才北路69號,1,第二分局," 120.68402",24.153265,錦平里,1421.0
554.0,臺中市北區建成里東光路398號,2,第二分局,120.699599,24.158449,建成里,764.0
555.0,臺中市北區錦平里三民路三段211號,3,第二分局,120.685513,24.15368,錦平里,1313.0
556.0,臺中市北區金華里雙十路二段101號,2,第二分局,120.689798,24.155806,金華里,984.0
557.0,臺中市北區金華里進德北路146號,1,第二分局,120.692989,24.154368,金華里,163.0
558.0,臺中市北區金華里進德北路136號,1,第二分局,120.693156,24.153986,金華里,240.0
559.0,臺中市北區新北里一中街143號,1,第二分局,120.685652,24.1511,新北里,151.0
560.0,臺中市北區新興里太平路67號,1,第二分局,120.68422,24.147911,新興里,130.0
561.0,臺中市北區金華里興進路205號,1,第二分局,120.692652,24.155372,金華里,1269.0
562.0,臺中市北區金華里太平路65號,1,第二分局,120.684209,24.148034,金華里,211.0
563.0,臺中市北區錦祥里錦祥街23號,1,第二分局,120.692061,24.156706,錦祥里,284.0
564.0,臺中市北區新北里三民路3段132號,1,第二分局," 120.68465",24.150715,新北里,284.0
565.0,臺中市北區錦平里中華路二段112號之1,1,第二分局,120.682124,24.151940,錦平里,215.0
566.0,臺中市北區新北里雙十路二段45巷1號,1,第二分局," 120.68843",24.153351,新北里,244.0
567.0,臺中市北區新北里育才街2號,1,第二分局,120.684368,24.150021,新北里,8856.0
568.0,臺中市北區錦平里三民路三段129號,1,第二分局,120.6814945,24.1496435,錦平里,12183.0
569.0,臺中市北區建成里東光八街7號,1,第二分局,120.70149,24.159047,建成里,136.0
570.0,臺中市北區金華里興進路213號,1,第二分局,120.692103,24.156041,金華里,572.0
571.0,臺中市北區錦祥里育強街78巷6號,1,第二分局,120.69259,24.15831,錦祥里,1311.0
572.0,臺中市北區新興里三民路三段91號,1,第二分局,120.682718,24.147581,新興里,144.0
573.0,臺中市北區錦平里錦平街53號,1,第二分局,120.682897,24.151862,錦平里,200.0
574.0,臺中市北區金華里雙十路二段42號之3,1,第二分局,120.690401,24.156150,金華里,1448.0
575.0,臺中市北區新北里一中街148號之38,1,第二分局,120.687074,24.154072,新北里,3713.0
576.0,臺中市北區新北里錦新街32號,1,第二分局,120.687706,24.153212,新北里,4022.0
577.0,臺中市北區錦洲里進化路428號,1,第二分局,120.694557,24.156628,錦洲里,256.0
578.0,臺中市北區錦洲里進化路508號,1,第二分局,120.694565,24.158204,錦洲里,583.0
579.0,臺中市北區錦平里育才北路71號,1,第二分局,120.683744,24.153258,錦平里,151.0
580.0,臺中市北區錦祥里育隆路8號,1,第二分局,120.69345,24.157886,錦祥里,1987.0
581.0,臺中市北區金華里三民路三段328號,1,第二分局,120.689415,24.157222,金華里,1208.0
582.0,臺中市北區建成里東光三街25號,1,第二分局,120.699945,24.152927,建成里,939.0
583.0,臺中市北區新北里錦新街18號,1,第二分局,120.687947,24.153039,新北里,427.0
584.0,臺中市北區新興里太平路75巷36號,1,第二分局,120.683312,24.146610,新興里,488.0
585.0,臺中市北區錦祥里育樂街70號,4,第二分局,120.692119,24.157736,錦祥里,4792.0
586.0,臺中市北區錦祥里育興街29號,2,第二分局,120.693623,24.156502,錦祥里,478.0
587.0,臺中市北區新北里育才北路53號,1,第二分局," 120.68546",24.152954,新北里,68.0
588.0,臺中市北區錦洲里育樂街88號,4,第二分局," 120.69099",24.158128,錦洲里,4478.0
589.0,臺中市北區錦平里文祥街126號,2,第二分局,120.681151,24.151852,錦平里,717.0
590.0,臺中市北區錦平里中華路二段193號,1,第二分局,120.6817337,24.15150316,錦平里,345.0
591.0,臺中市北區新北里錦南街46號,1,第二分局," 120.68696",24.154825,新北里,520.0
592.0,臺中市北區錦村里進化路322號,4,第二分局,120.6946461,24.15354085,錦村里,6831.0
593.0,臺中市北區新北里錦南街19之18號,1,第二分局," 120.68686",24.154436,新北里,3503.0
594.0,臺中市北區新北里錦南街17號,1,第二分局," 120.68727",24.154343,新北里,4022.0
595.0,臺中市北區錦平里錦平街40號,1,第二分局,120.6839159,24.15205658,錦平里,1261.0
596.0,臺中市北區錦祥里育樂街39號,1,第二分局,120.6926651,24.15692413,錦祥里,690.0
597.0,臺中市北區金華里雙十路二段97號,1,第二分局,120.6899854,24.15574859,金華里,984.0
598.0,臺中市北區錦洲里進化路580號,1,第二分局,120.6944742,24.15963126,錦洲里,501.0
599.0,臺中市北區建成里東成路22號,1,第二分局,120.7014686,24.15683795,建成里,293.0
600.0,臺中市北區建成里天祥街228號之11,1,第二分局," 120.70263",24.159978,建成里,1535.0
601.0,臺中市北區錦祥里錦祥街47號,1,第二分局,120.6910801,24.15707218,錦祥里,228.0
602.0,臺中市北區錦祥里進化路581號,1,第二分局,120.6942837,24.16024252,錦祥里,1459.0
603.0,臺中市北區金華里雙十路二段29號,2,第二分局," 120.68864",24.152833,金華里,411.0
604.0,臺中市北區樂英里雙十路一段12巷,1,第二分局,120.6872594,24.14844691,樂英里,1244.0
605.0,臺中市北區錦祥里興進路228號,1,第二分局," 120.69165",24.156422,錦祥里,476.0
606.0,臺中市北區健行里西屯路一段363-1號,1,第二分局,120.664641,24.161079,健行里,117.0
607.0,臺中市北區健行里忠明路200號*,2、3,第二分局,120.663374,24.161283,健行里,1242.0
608.0,臺中市北區健行里忠明路424號,3,第二分局,120.6694,24.162599,健行里,1304.0
609.0,臺中市北區明德里太原路一段390號,1,第二分局,120.665381,24.164756,明德里,360.0
610.0,臺中市北區明德里太原路一段448號,1,第二分局," 120.66740",24.165094,明德里,331.0
611.0,臺中市北區明德里忠明七街10號,1,第二分局,120.668842,24.164477,明德里,300.0
612.0,臺中市北區明德里忠明八街28號,2,第二分局,120.670402,24.163872,明德里,278.0
613.0,臺中市北區明德里忠太東路85巷5號之3,1,第二分局,120.6694873,24.1634726,明德里,174.0
614.0,臺中市北區明德里忠明七街13號,1,第二分局,120.6671379,24.1643512,明德里,140.0
615.0,臺中市北區明德里太原路一段470號,2,第二分局,120.66604,24.164747,明德里,744.0
616.0,臺中市北區明新里忠太東路118號,3,第二分局," 120.67147",24.164402,明新里,2445.0
617.0,臺中市北區賴旺里青島西街31之3號,2,第二分局,120.673229,24.172741,賴旺里,286.0
618.0,臺中市北區賴旺里青島西街31之2號,1,第二分局," 120.67318",24.172623,賴旺里,204.0
619.0,臺中市北區賴旺里青島西街31之4號,1,第二分局," 120.67318",24.172623,賴旺里,204.0
620.0,臺中市北區賴旺里北平路二段56號,1,第二分局,120.673409,24.171744,賴旺里,228.0
621.0,臺中市北區賴明里山西路二段46號,1、2,第二分局,120.675811,24.16835,賴明里,6136.0
622.0,臺中市北區賴興里天津路二段139號,2,第二分局,120.677225,24.170021,賴興里,583.0
623.0,臺中市北區賴興里山西路二段116號,1,第二分局,120.675918,24.170396,賴興里,151.0
624.0,臺中市北區賴興里文昌東一街19號,2,第二分局,120.677215,24.17206,賴興里,788.0
625.0,臺中市北區賴旺里文心路四段176號,3,第二分局,120.6722772,24.1736128,賴旺里,1179.0
626.0,臺中市北區賴興里山西路二段156號,1,第二分局," 120.67607",24.172077,賴興里,170.0
627.0,臺中市北區賴旺里文昌一街19號,1,第二分局,120.674888,24.172477,賴旺里,765.0
628.0,臺中市北區賴興里文昌一街98號,1,第二分局,120.67762,24.172186,賴興里,321.0
629.0,臺中市北區賴興里青島東街33號,1,第二分局,120.675218,24.172136,賴興里,440.0
630.0,臺中市北區賴興里青島東街47號,1,第二分局,120.675241,24.171959,賴興里,677.0
631.0,臺中市北區長青里陝西六街1號,1,第二分局,120.667278,24.168531,長青里,120.0
632.0,臺中市北區明德里忠明路213號,2,第二分局,120.665867,24.163091,明德里,291.0
633.0,臺中市北區健行里忠明路502之5號,2,第二分局,120.673619,24.162704,健行里,683.0
634.0,臺中市北區中清路一段403號,1,第二分局,120.674102,24.163931,明新里,214.0
635.0,臺中市北區健行里民權路572號,1,第二分局,120.670636,24.162161,健行里,230.0
636.0,臺中市北區立人里陝西路75號,1,第二分局,120.668162,24.17049,立人里,1433.0
637.0,臺中市北區立人里北平路一段31號,1,第二分局,120.668362,24.17173,立人里,1035.0
638.0,臺中市北區賴明里漢口路四段21號,1,第二分局,120.674256,24.167092,賴明里,585.0
639.0,臺中市北區健行里忠太西路55號,1,第二分局,120.66779,24.162512,健行里,283.0
640.0,臺中市北區健行里華富街64號,1,第二分局,120.666822,24.160612,健行里,131.0
641.0,臺中市北區健行里民權路531號,2,第二分局,120.670385,24.160919,健行里,881.0
642.0,臺中市北區健行里華興街117巷2號,1,第二分局,120.669559,24.160072,健行里,190.0
643.0,臺中市北區健行里忠太西路28號,3,第二分局,120.667837,24.161311,健行里,538.0
644.0,臺中市北區健行里華興街55號,2,第二分局,120.6663967,24.1600119,健行里,352.0
645.0,臺中市北區健行里華興街47巷10號,2,第二分局," 120.66863",24.160171,健行里,175.0
646.0,臺中市北區立人里北平二街2號,1,第二分局," 120.66925",24.173069,立人里,208.0
647.0,臺中市北區立人里北平四街201號,1,第二分局,120.6710672,24.1725669,立人里,94.0
648.0,臺中市北區立人里北平四街26之1號,1,第二分局," 120.67107",24.172696,立人里,94.0
649.0,臺中市北區立人里北平四街9號,1,第二分局,120.671074,24.172951,立人里,296.0
650.0,臺中市北區長青里陝西路76號,1,第二分局,120.668367,24.169395,長青里,392.0
651.0,臺中市北區長青里陝西東街5號,1,第二分局,120.666448,24.167546,長青里,286.0
652.0,臺中市北區長青里漢陽街38號,1,第二分局,120.667137,24.167943,長青里,285.0
653.0,臺中市北區長青里陝西路35號,1,第二分局,120.668133,24.168653,長青里,313.0
654.0,臺中市北區長青里陝西路39號,1,第二分局,120.66817,24.168434,長青里,480.0
655.0,臺中市北區長青里陝西五街32號,2,第二分局,120.6654163,24.169126,長青里,479.0
656.0,臺中市北區立人里華美街二段230號,1,第二分局,120.667179,24.170162,立人里,535.0
657.0,臺中市北區長青里陝西四街1號,2,第二分局,120.666824,24.170120,長青里,276.0
658.0,臺中市北區長青里漢口路三段23號,1,第二分局,120.666771,24.167257,長青里,208.0
659.0,臺中市北區立人里陝西四街31號,1,第二分局,120.668149,24.168156,立人里,263.0
660.0,臺中市北區長青里陝西路31號,2,第二分局,120.668138,24.168151,長青里,631.0
661.0,臺中市北區長青里華美街190號,1,第二分局,120.6654163,24.169126,長青里,131.0
662.0,臺中市北區賴明里山西路二段7號,1,第二分局,120.675522,24.168382,賴明里,147.0
663.0,臺中市北區長青里武漢街96號,1,第二分局,120.670227,24.167450,長青里,91.0
664.0,臺中市北區立人里北平二街361號,1,第二分局,120.669524,24.172892,立人里,406.0
665.0,臺中市北區賴旺里北平路28號,1,第二分局,120.672602,24.171652,賴旺里,200.0
666.0,臺中市北區賴旺里北平路二段69號,1,第二分局,120.67428,24.17169,賴旺里,108.0
667.0,臺中市北區賴旺里青島西街7號,1,第二分局,120.6707405,24.1732058,賴旺里,147.0
668.0,臺中市北區明新里忠太東路105號,1,第二分局,120.670916,24.164066,明新里,1133.0
669.0,臺中市北區淡溝里太原四街15號,1,第二分局,120.669233,24.165959,淡溝里,290.0
670.0,臺中市北區明德里漢口路三段88號,1,第二分局,120.669315,24.166625,明德里,245.0
671.0,臺中市北區明新里漢陽街110號,1,第二分局,120.671982,24.166191,明新里,270.0
672.0,臺中市北區明德里太原五街16號,1,第二分局,120.669678,24.165709,明德里,522.0
673.0,臺中市北區明新里太原八街62號,1,第二分局,120.671406,24.166159,明新里,146.0
674.0,臺中市北區明德里太原路一段488號,1,第二分局,120.670181,24.164776,明德里,174.0
675.0,臺中市北區明德里漢口路三段92號,1,第二分局,120.669459,24.166633,明德里,243.0
676.0,臺中市北區賴旺里北平路29號,2,第二分局," 120.67318",24.171918,賴旺里,475.0
677.0,臺中市北區明德里太原四街6號,2,第二分局,120.669062,24.166245,明德里,568.0
678.0,臺中市北區明新里太原七街7號,2,第二分局,120.671442,24.165928,明新里,1431.0
679.0,臺中市北區明德里太原二街1號,1,第二分局,120.667449,24.166528,明德里,135.0
680.0,臺中市北區明德里太原路448號,2,第二分局,120.667241,24.164778,明德里,685.0
681.0,臺中市北區明德里忠明五街33號,1,第二分局,120.667687,24.16328,明德里,283.0
682.0,臺中市北區明德里忠明路371號,1,第二分局,120.668226,24.163111,明德里,300.0
683.0,臺中市北區明德里華美街二82號,1,第二分局," 120.66306",24.161937,明德里,257.0
684.0,臺中市北區明德里太原南二街2號,1,第二分局,120.664431,24.164078,明德里,300.0
685.0,臺中市北區賴興里文昌東二街101號,1,第二分局,120.678358,24.170857,賴興里,187.0
686.0,臺中市北區賴明里漢口路四段49號,3,第二分局,120.676263,24.167166,賴明里,715.0
687.0,臺中市北區賴明里文昌東一街300號,1,第二分局,120.676713,24.169325,賴明里,386.0
688.0,臺中市北區明新里忠太東路115之4號,1,第二分局," 120.67130",24.164337,明新里,129.0
689.0,臺中市北區賴旺里青島路一段26巷13號,1,第二分局,120.673711,24.172298,賴旺里,312.0
690.0,臺中市北區賴旺里青島西街34號,1,第二分局," 120.67307",24.172506,賴旺里,280.0
691.0,臺中市北區賴旺里北平路二段30巷21號,1,第二分局,120.6708289,24.1708887,賴旺里,136.0
692.0,臺中市北區賴興里北平路二段125號,1,第二分局,120.677271,24.171496,賴興里,1247.0
693.0,臺中市北區長青里陝西路三段31號,1,第二分局,120.668138,24.168151,長青里,394.0
694.0,臺中市北區長青里武昌路192號,1,第二分局,120.6712386,24.16875212,長青里,306.0
695.0,臺中市北區立人里福壽街6號,1,第二分局,120.669816,24.172794,立人里,606.0
696.0,臺中市北區立人里福壽街5號,1,第二分局,120.670054,24.173236,立人里,606.0
697.0,臺中市北區賴旺里北平路二段26號,1,第二分局,120.672546,24.171658,賴旺里,200.0
698.0,臺中市北區賴旺里青島西街12號,1,第二分局," 120.67255",24.173177,賴旺里,220.0
699.0,臺中市北區健行里民權路535號,2,第二分局," 120.67023",24.161333,健行里,881.0
700.0,臺中市北區立人里北平路31號,1,第二分局,120.668362,24.17173,立人里,1035.0
701.0,臺中市北區明德里梅川路149號,1,第二分局,120.663435,24.161913,明德里,2827.0
702.0,臺中市北區健行里華興街2號,1,第二分局,120.669559,24.160072,健行里,188.0
703.0,臺中市北區明德里漢口路92號,1,第二分局,120.669459,24.166633,明德里,243.0
704.0,臺中市北區賴興里山西路二段156號,1,第二分局,120.6760369,24.17191448,賴興里,170.0
705.0,臺中市北區健行里華富街69號,1,第二分局,120.666526,24.16091,健行里,1002.0
706.0,臺中市北區賴興里青島路47號,1,第二分局,120.675358,24.168773,賴興里,677.0
707.0,臺中市北區立人里陝西四街13號,2,第二分局,120.667186,24.169934,立人里,276.0
708.0,臺中市北區健行里忠太西路55號,1,第二分局,120.66779,24.162512,健行里,283.0
709.0,臺中市北區立人里北平四街281號,1,第二分局,120.669524,24.172892,立人里,94.0
710.0,臺中市北區賴興里青島東街33號,1,第二分局,120.675218,24.172136,賴興里,440.0
711.0,臺中市北區長青里武漢街78號,1,第二分局,120.670531,24.167376,長青里,819.0
712.0,臺中市北區明德里漢口路三段2號,1,第二分局,120.666751,24.166625,明德里,146.0
713.0,臺中市北區立人里陝西路75號,1,第二分局,120.668162,24.17049,立人里,1433.0
714.0,臺中市北區明新里太原八街62號,1,第二分局,120.671406,24.166159,明新里,146.0
715.0,臺中市北區明德里綏遠路1號,1,第二分局,120.680386,24.165479,明德里,907.0
716.0,臺中市北區立人里北平路一段31號,1,第二分局,120.668362,24.17173,立人里,1035.0
717.0,臺中市北區賴旺里北平路二段2號,1,第二分局," 120.67221",24.171774,賴旺里,145.0
718.0,臺中市北區立人里華美路二段230號,2,第二分局,120.667179,24.170162,立人里,535.0
719.0,臺中市北區明德里太原北路二段7號,2,第二分局,120.666324,24.165258,明德里,1431.0
720.0,臺中市北區賴旺里天津路二段13號,1,第二分局,120.673081,24.170186,賴旺里,846.0
721.0,臺中市北區健行里華富街101號,1,第二分局,120.666366,24.161487,健行里,137.0
722.0,臺中市北區後龍里民權路231號,1,第二分局," 120.66957",24.149599,後龍里,881.0
723.0,臺中市北區賴興里文心路四段208號,2,第二分局,120.677476,24.172933,賴興里,582.0
724.0,臺中市北區明德里太原南二街155之15號,2,第二分局,120.6662363,24.1641179,明德里,412.0
725.0,臺中市北區長青里陝西路24號,1,第二分局,120.668413,24.167828,長青里,646.0
726.0,臺中市北區賴興里文昌東二街76號,1,第二分局,120.678329,24.171976,賴興里,165.0
727.0,臺中市北區立人里陝西一街3號,1,第二分局,120.66788,24.172101,立人里,164.0
728.0,臺中市北區健行里忠明路499號,2,第二分局,120.671881,24.163490,健行里,6769.0
729.0,臺中市北區健行里華富街92號,1,第二分局,120.666625,24.161909,健行里,460.0
730.0,臺中市北區健行里梅亭街586之5號,1,第二分局,120.670267,24.160773,健行里,243.0
731.0,臺中市北區健行里忠太東路58號,2,第二分局,120.668291,24.162032,健行里,844.0
732.0,臺中市北區賴興里文心路四段230號,2,第二分局,120.67872,24.172792,賴興里,3315.0
733.0,臺中市北區健行里華興街80號,2,第二分局,120.669517,24.16007,健行里,935.0
734.0,臺中市北區長青里武漢街138號,2,第二分局,120.671668,24.167316,長青里,343.0
735.0,臺中市北區健行里忠太東路55號,4,第二分局,120.668436,24.161439,健行里,1150.0
736.0,臺中市北區立人里北平三街5號,2,第二分局,120.670613,24.172689,立人里,438.0
737.0,臺中市北區明德里太原路一段478之1號,1,第二分局," 120.66942",24.165022,明德里,519.0
738.0,臺中市北區長青里陝西路22號,1,第二分局,120.66842,24.167778,長青里,237.0
739.0,臺中市北區賴旺里文心路四段172號,1,第二分局,120.674359,24.173611,賴旺里,408.0
740.0,臺中市北區賴興里文昌東二街81號,1,第二分局,120.678556,24.171844,賴興里,296.0
741.0,臺中市北區健行里健行路906巷2號,1,第二分局,120.6653043,24.159611,健行里,190.0
742.0,臺中市北區健行里梅亭街536號,2,第二分局,120.67299,24.160767,健行里,1308.0
743.0,臺中市北區健行里忠太東路8號,3,第二分局,120.668314,24.160301,健行里,1479.0
744.0,臺中市北區立人里北平路162號,1,第二分局,120.670715,24.171533,立人里,1183.0
745.0,臺中市北區立人里北平路160號,1,第二分局,120.670715,24.171533,立人里,864.0
746.0,臺中市北區明德里太原路一段392之1號,1,第二分局," 120.66556",24.164980,明德里,204.0
747.0,臺中市北區長青里武昌路145號,1,第二分局,120.671657,24.167629,長青里,904.0
748.0,臺中市北區賴興里文心路四段190號,1,第二分局,120.67518,24.173235,賴興里,1116.0
749.0,臺中市北區長青里華美街二段178號,1,第二分局,120.6659849,24.16752681,長青里,434.0
750.0,臺中市北區明德里忠明路325號,1,第二分局,120.666315,24.163094,明德里,1571.0
751.0,臺中市北區健行里健行路898號,1,第二分局,120.667758,24.159347,健行里,517.0
752.0,臺中市北區健行里華興街671號,1,第二分局,120.66909,24.160588,健行里,1068.0
753.0,臺中市北區立人里北平一街10號,1,第二分局,120.668627,24.172494,立人里,780.0
754.0,臺中市北區長青里陜西路25號,3,第二分局,120.668031,24.16797,長青里,800.0
755.0,臺中市北區健行里西屯路一段398號,1,第二分局,120.66534,24.160689,健行里,314.0
756.0,臺中市北區長青里陝西東一街16號,1,第二分局,120.668799,24.169395,長青里,315.0
757.0,臺中市北區健行里忠太東路512號,1,第二分局,120.668246,24.159692,健行里,1087.0
758.0,臺中市北區明德里太原一街6號,1,第二分局,120.666496,24.165942,明德里,446.0
759.0,臺中市北區立人里北平路一段77號,1,第二分局," 120.67068",24.172015,立人里,669.0
760.0,臺中市北區立人里中清路一段637號,1,第二分局,120.6712015,24.17065739,立人里,1509.0
761.0,臺中市北區明新里忠太東路114號,1,第二分局,120.671313,24.164092,明新里,237.0
762.0,臺中市北區立人里華美街二段368號,1,第二分局," 120.67123",24.173342,立人里,1608.0
763.0,臺中市北區健行里忠明路370號,1,第二分局,120.667062,24.162932,健行里,718.0
764.0,臺中市北區健行里德化街507號,1,第二分局," 120.67171",24.161484,健行里,2533.0
765.0,臺中市北區賴興里永定一街68號,1,第二分局,120.678797,24.170734,賴興里,235.0
766.0,臺中市北區賴明里中清路一段606號,1,第二分局," 120.67312",24.168231,賴明里,980.0
767.0,臺中市北區賴旺里青島路一段6號之1,1,第二分局," 120.67392",24.173802,賴旺里,1419.0
768.0,臺中市北區賴旺里中清路一段880巷23號,1、2,第二分局,120.673322,24.173662,賴旺里,757.0
769.0,臺中市北區長青里陜西路62號,1,第二分局,120.6683475,24.16908338,長青里,942.0
770.0,臺中市北區立人里北平路一段10號,1,第二分局,120.6679909,24.17163418,立人里,864.0
771.0,臺中市北區明德里太原北路86號,1,第二分局,120.6690448,24.16525949,明德里,918.0
772.0,臺中市北區明德里忠明七街30號,1,第二分局,120.6691853,24.16318156,明德里,325.0
773.0,臺中市北區明德里太原北路2號,1,第二分局,120.666225,24.16530425,明德里,1431.0
774.0,臺中市北區明德里漢口路三段80號,1,第二分局," 120.66852",24.166798,明德里,1003.0
775.0,臺中市北區賴興里文昌東二街116巷1號,1,第二分局,120.6781632,24.17099722,賴興里,1812.0
776.0,臺中市北區梅川里文昌東一街111號,1,第二分局,120.6766621,24.16743915,梅川里,804.0
777.0,臺中市北區健行里華信街10號,1,第二分局,120.6740364,24.16183603,健行里,2673.0
778.0,臺中市北區賴旺里天津路二段61號,1,第二分局,120.674143,24.170305,賴旺里,1559.0
779.0,臺中市北區賴明里山西路二段90號之2,1,第二分局,120.675841,24.169574,賴明里,1132.0
780.0,臺中市北區長青里天津路一段130號,1,第二分局,120.6709778,24.17020337,長青里,585.0
781.0,臺中市北區賴明里漢口路四段5號之1,1,第二分局," 120.67357",24.167489,賴明里,670.0
782.0,臺中市北區長青里陜西路24號,1,第二分局,120.6683553,24.168064,長青里,646.0
783.0,臺中市北區長青里陝西五街8號,1,第二分局,120.6671194,24.16933868,長青里,751.0
784.0,臺中市北區立人里華美街二段258號,1,第二分局,120.6670464,24.17114412,立人里,792.0
785.0,臺中市北區明德里忠明路429號,1,第二分局,120.6697783,24.16347502,明德里,1031.0
786.0,臺中市北區中達里育德路131巷10號,1,第二分局," 120.67415",24.157011,中達里,136.0
787.0,臺中市北區中達里英才路170巷6號,1,第二分局,120.6749118,24.15632193,中達里,133.0
788.0,臺中市北區中達里英才路170巷4號,1,第二分局,120.6750038,24.15632369,中達里,133.0
789.0,臺中市北區中達里育德路187號,1,第二分局,120.6697136,24.1571675,中達里,285.0
790.0,臺中市北區大湖里湖北街64巷1號之14,1,第二分局,120.6773154,24.1508984,大湖里,364.0
791.0,臺中市北區湖北里五權路318巷1號之2,1,第二分局," 120.67945",24.152113,湖北里,143.0
792.0,臺中市北區中正里民權路220號,1,第二分局,120.6740607,24.14375739,中正里,166.0
793.0,臺中市北區金華里三民路三段263號,1,第二分局,120.6876436,24.15609032,金華里,1068.29
794.0,臺中市北區長青里陝西六街1號,1,第二分局,120.667278,24.168531,長青里,120.0
795.0,臺中市北區五常里英才路1號,1,第二分局,120.678332,24.155387,五常里,143.0
796.0,臺中市北區賴明里中清路一段606號,1,第二分局,120.673079,24.168251,賴明里,221.0
797.0,臺中市北區賴厝里漢口路四段168號,1,第二分局," 120.67851",24.166220,賴厝里,3154.0
798.0,臺中市北區錦平里太平路74號,1,第二分局," 120.68174",24.149711,錦平里,155.0
799.0,臺中市北區錦平里太平路74號,3,第二分局," 120.68174",24.149711,錦平里,1085.0
800.0,臺中市北區育德里育德路116號,1,第二分局,120.673142,24.157682,育德里,1188.0
801.0,臺中市北區建興里德化街184號,1,第二分局," 120.68581",24.161781,建興里,509.0
802.0,臺中市北區建興里健行路378號,2,第二分局," 120.68243",24.159421,建興里,1406.0
803.0,臺中市北區建興里崇德路一段133巷6號,1、2,第二分局," 120.68471",24.161465,建興里,2183.0
804.0,臺中市北區光大里中清路一段98號,2、3,第二分局,120.677477,24.153385,光大里,3277.0
805.0,臺中市北區邱厝里中清路一段108號,2、3,第二分局,120.677507,24.154353,邱厝里,1218.0
806.0,臺中市北區五常里中清路一段80號,2,第二分局,120.677488,24.153095,五常里,653.0
807.0,臺中市北區文莊里中清路一段87巷10號,2、3,第二分局," 120.67660",24.155134,文莊里,2598.0
808.0,臺中市北區文莊里文武街2號,1,第二分局," 120.67810",24.154054,文莊里,1494.0
809.0,臺中市北區文莊里英士路105號,2,第二分局," 120.67522",24.151950,文莊里,306.0
810.0,臺中市北區文莊里文化街11號,1,第二分局,120.675013,24.152379,文莊里,391.0
811.0,臺中市北區文莊里中清路一段91號,2、3,第二分局,120.676992,24.155579,文莊里,1327.0
812.0,臺中市北區文莊里文武街17號,1,第二分局," 120.67588",24.154363,文莊里,1094.0
813.0,臺中市北區金華里進德北路156號之1號,1,第二分局,120.693220,24.154889,金華里,389.0
814.0,臺中市北區金華里雙十路二段40巷6號,1,第二分局,120.690811,24.155573,金華里,456.0
815.0,臺中市北區長青里陝西路29號,1,第二分局,120.668066,24.168134,長青里,800.0
816.0,臺中市北區金華里三民路三段290號,1,第二分局,120.688355,24.156568,金華里,1096.0
817.0,臺中市北區健行里中清路一段369號,2,第二分局," 120.67436",24.162611,健行里,576.0
818.0,臺中市北區賴明里文昌東一街292號,1,第二分局,120.676727,24.169618,賴明里,643.0
819.0,臺中市北區明新里中清路一段435號,1,第二分局,120.673751,24.164514,明新里,296.0
820.0,臺中市北區明新里中清路一段447號,1,第二分局,120.673354,24.165696,明新里,435.0
821.0,臺中市北區明新里中清路一段652號,2,第二分局,120.673184,24.169250,明新里,3811.0
822.0,臺中市北區賴明里中清路一段726巷6號,1,第二分局,120.673296,24.169314,賴明里,1062.0
823.0,臺中市北區新興里三民路三段92之3號,2,第二分局," 120.68377",24.149087,新興里,245.0
824.0,臺中市北區錦洲里進化路570巷3號,1,第二分局," 120.69513",24.159264,錦洲里,1417.0
825.0,臺中市北區邱厝里育德路2號,1,第二分局,120.6804421,24.157383,邱厝里,1978.0
826.0,臺中市北區邱厝里育德路29號,2、3,第二分局,120.679173,24.157039,邱厝里,3120.0
827.0,臺中市北區賴村里中清路一段370號,1,第二分局," 120.67559",24.161722,賴村里,576.0
828.0,臺中市北區金龍里北屯路1號,1,第二分局," 120.69054",24.159860,金龍里,1965.0
829.0,臺中市北區建興里榮華街77號,1,第二分局," 120.68657",24.162030,建興里,621.0
830.0,臺中市北區崇德里崇德路一段452號,1,第二分局," 120.68537",24.163642,崇德里,615.0
831.0,臺中市北區崇德里崇德路一段542號,1,第二分局," 120.68542",24.167032,崇德里,439.0
832.0,臺中市北區大湖里湖北街101號,1,第二分局,120.678934,24.150797,大湖里,252.0
833.0,臺中市北區文莊里中清路一段79號,2、3,第二分局,120.67704,24.154498,文莊里,1165.0
834.0,"臺中市北區大湖里中華路二段98號 ",1,第二分局,120.680595,24.148970,大湖里,317.0
